     2              OBSERVATION DATA                        RINEX VERSION / TYPE
DAT2RINW 3.10 001   국토지리정보원      10NOV08 23:32:14    PGM / RUN BY / DATE 
(주)범아엔지니어링  국토지리정보원                          OBSERVER / AGENCY   
0220319992          TRIMBLE 5700        Nav 1.30 Sig 1.30   REC # / TYPE / VERS 
012534132           TRM41249.00                             ANT # / TYPE        
----------------------------------------------------------- COMMENT             
Offset from BOTTOM OF ANTENNA to PHASE CENTER is  53.3 mm   COMMENT             
----------------------------------------------------------- COMMENT             
0371                                                        MARKER NAME         
0371                                                        MARKER NUMBER       
 -3071738.1078  4087120.9968  3800476.4499                  APPROX POSITION XYZ 
        1.1597        0.0000        0.0000                  ANTENNA: DELTA H/E/N
*** Above antenna height is from mark to BOTTOM OF ANTENNA. COMMENT             
----------------------------------------------------------- COMMENT             
Note: The above offsets are CORRECTED.                      COMMENT             
Raw Offsets: H=      1.2160 E=      0.0000 N=      0.0000   COMMENT             
----------------------------------------------------------- COMMENT             
     1     1     0                                          WAVELENGTH FACT L1/2
     5    L1    C1    L2    P2    D1                        # / TYPES OF OBSERV 
    15                                                      INTERVAL            
  2008    11    10     0    11   15.000000                  TIME OF FIRST OBS   
  2008    11    10     8    50   45.000000                  TIME OF LAST OBS    
    20                                                      # OF SATELLITES     
     2    95    95    95    95    95                        PRN / # OF OBS      
     3  1108  1111  1079  1079  1108                        PRN / # OF OBS      
     4   576   576   576   576   576                        PRN / # OF OBS      
     6   967   974   945   945   967                        PRN / # OF OBS      
     7  1125  1125  1125  1125  1125                        PRN / # OF OBS      
     8   957   957   957   957   957                        PRN / # OF OBS      
    11  1418  1421  1377  1377  1418                        PRN / # OF OBS      
    12     3     3     3     3     3                        PRN / # OF OBS      
    13   851   851   849   849   851                        PRN / # OF OBS      
    16   783   783   765   765   783                        PRN / # OF OBS      
    17   913   913   913   913   913                        PRN / # OF OBS      
    19  1482  1486  1467  1467  1482                        PRN / # OF OBS      
    20   974   974   974   974   974                        PRN / # OF OBS      
    21   395   402   303   305   395                        PRN / # OF OBS      
    23   847   847   846   846   847                        PRN / # OF OBS      
    25  1191  1191  1171  1171  1191                        PRN / # OF OBS      
    27  1073  1073  1073  1073  1073                        PRN / # OF OBS      
    28  1123  1123  1105  1105  1123                        PRN / # OF OBS      
    31   339   339   339   339   339                        PRN / # OF OBS      
    32   968   973   932   932   968                        PRN / # OF OBS      
                                                            END OF HEADER       
 08 11 10  0 12  0.0000000  0  8  3  6 13 16 19 21 23 31
   -119588.25007  21244860.30507    -91756.28948  21244857.95748      1395.84100
    -29396.88307  20851390.84407    -25845.51648  20851388.40248       342.84500
    -88173.59806  23194328.22706    -69251.40946  23194324.07846      1110.80600
    175318.34007  20663373.41407    123463.21048  20663369.07448     -2025.08500
   -163448.48405  24000483.88305   -121433.12147  24000480.09047      2369.47000
     20052.34404  24282286.31304      9608.78545  24282282.30145      -233.70100
     37703.53107  21659075.29707     23608.76848  21659068.69948      -442.64200
    282877.76607  21875468.16407    201860.69948  21875464.15248     -3277.30500
 08 11 10  0 12 15.0000000  0  8  3  6 13 16 19 21 23 31
   -140468.96507  21240886.85207   -108026.96648  21240884.70348      1392.04800
    -34466.34007  20850426.72707    -29795.72848  20850423.57448       337.96400
   -104768.50406  23191169.78906    -82182.47446  23191166.12546      1106.32700
    205707.99607  20669156.75007    147143.45048  20669151.64848     -2025.97700
   -199003.75804  23993718.27304   -149138.51447  23993713.92247      2370.35200
     23602.60204  24282961.89804     12375.24245  24282957.48045      -236.68400
     44449.41407  21660358.78107     28865.30848  21660352.86348      -449.72600
    332071.28107  21884829.16407    240193.30048  21884825.28948     -3279.56800
 08 11 10  0 12 30.0000000  0  8  3  6 13 16 19 21 23 31
   -161287.94507  21236925.34407   -124249.55848  21236922.82448      1387.93200
    -39458.22307  20849477.10907    -33685.51148  20849473.64548       332.79200
   -121291.29706  23188025.83606    -95057.39646  23188021.55946      1101.52000
    236115.29307  20674942.96907    170837.43948  20674938.03148     -2027.15300
   -234567.69105  23986950.57005   -176850.66747  23986946.21547      2370.92900
     27202.64503  24283646.87503     15180.45345  24283641.30945      -240.00300
     51306.04307  21661663.45307     34208.11848  21661657.63748      -457.10900
    381303.21907  21894198.06307    278555.82448  21894193.88348     -3282.12900
 08 11 10  0 12 45.0000000  0  8  3  6 13 16 19 21 23 31
   -182039.44907  21232976.60207   -140419.55748  21232973.82848      1383.43400
    -44366.35207  20848542.83607    -37510.01448  20848540.31348       327.20900
   -137735.15606  23184896.57006   -107870.76346  23184892.53946      1096.25700
    266546.09007  20680733.57007    194549.75348  20680728.68448     -2028.72000
   -270134.14504  23980182.75804   -204564.74047  23980178.39547      2371.09700
     30858.00804  24284342.05504     18028.84445  24284336.52745      -243.69100
     58279.62107  21662990.40607     39642.07348  21662984.78548      -464.90500
    430579.35507  21903574.78907    316952.82348  21903570.80548     -3285.07600
 08 11 10  0 13  0.0000000  0  8  3  6 13 16 19 21 23 31
   -202722.12507  21229040.88307   -156535.92448  21229037.75448      1378.84500
    -49189.46107  20847625.03107    -41268.30348  20847622.21148       321.54100
   -154099.74606  23181782.71906   -120622.41647  23181778.64147      1090.97300
    297001.27007  20686529.23407    218281.04848  20686524.87948     -2030.34500
   -305701.46505  23973414.89805   -232279.54247  23973409.49647      2371.15500
     34570.24603  24285048.46903     20921.48445  24285044.32845      -247.48300
     65371.34407  21664339.63307     45168.07148  21664333.63348      -472.78200
    479900.83207  21912960.27307    355385.12148  21912956.89848     -3288.09800
 08 11 10  0 13 15.0000000  0  8  3  6 13 16 19 21 23 31
   -223336.93407  21225118.26607   -172599.39948  21225114.60248      1374.32100
    -53928.98407  20846722.68807    -44961.42248  20846720.48448       315.96800
   -170385.94506  23178683.06306   -133312.94146  23178679.32846      1085.74700
    327479.40207  20692329.05507    242030.25148  20692324.32448     -2031.87600
   -341270.98405  23966646.19505   -259996.03847  23966640.60247      2371.30100
     38338.25803  24285765.47703     23857.57045  24285762.86745      -251.20100
     72579.78107  21665711.73407     50785.04848  21665705.56348      -480.56300
    529266.21507  21922354.07807    393851.66148  21922350.43848     -3291.02600
 08 11 10  0 13 30.0000000  0  8  3  6 13 16 19 21 23 31
   -243881.42607  21221208.54707   -188608.09148  21221204.49648      1369.63300
    -58582.66807  20845837.43007    -48587.67448  20845835.12148       310.24600
   -186591.38306  23175599.56306   -145940.56046  23175595.62146      1080.36300
    357982.39507  20698133.86707    265798.79648  20698128.93448     -2033.53300
   -376840.42605  23959876.93005   -287712.45647  23959872.33247      2371.29600
     42164.24204  24286494.07004     26838.84645  24286491.40645      -255.06600
     79907.04707  21667105.78107     56494.57548  21667100.06648      -488.48400
    578677.60207  21931757.30507    432354.00448  21931752.58648     -3294.09200
 08 11 10  0 13 45.0000000  0  8  3  6 13 16 19 21 23 31
   -264355.32007  21217312.77307   -204561.77948  21217309.22748      1364.92600
    -63150.04707  20844968.34407    -52146.65248  20844965.55548       304.49200
   -202715.19106  23172531.98406   -158504.59646  23172527.56646      1074.92100
    388510.31607  20703942.78907    289586.79248  20703938.33648     -2035.19500
   -412409.05506  23953109.17206   -315428.24547  23953104.21947      2371.24200
     46048.78104  24287234.35904     29865.80145  24287230.05945      -258.96900
     87353.51207  21668522.76607     62297.00448  21668516.77748      -496.43100
    628135.12507  21941168.09407    470892.32648  21941164.37148     -3297.16800
 08 11 10  0 14  0.0000000  0  8  3  6 13 16 19 21 23 31
   -284755.00007  21213430.71907   -220457.64148  21213427.69548      1359.97900
    -67627.86307  20844116.18807    -55635.85948  20844113.39848       298.52100
   -218754.07406  23169479.04706   -171002.39246  23169475.59046      1069.25900
    419066.37107  20709757.50007    313396.69948  20709752.79348     -2037.07000
   -447973.38705  23946340.40605   -343140.68247  23946335.99247      2370.95500
     49995.25804  24287984.53104     32940.98845  24287980.53945      -263.09800
     94922.71107  21669963.17207     68195.07448  21669957.42248      -504.61300
    677641.98007  21950589.24207    509469.07248  21950585.18848     -3300.45700
 08 11 10  0 14 15.0000000  0  8  3  6 13 16 19 21 23 31
   -305079.30107  21209562.96107   -236294.74548  21209559.94948      1354.95300
    -72015.10507  20843281.11707    -59054.48748  20843278.72348       292.48300
   -234706.48406  23166443.75806   -183432.85146  23166440.10546      1063.49400
    449651.32007  20715577.77307    337229.12848  20715572.73048     -2038.99700
   -483532.30505  23939574.52305   -370848.91147  23939569.79347      2370.59500
     54004.93804  24288748.35904     36065.43845  24288743.95745      -267.31200
    102615.73407  21671426.75007     74189.64448  21671421.58648      -512.86800
    727199.13307  21960019.85207    548085.02648  21960015.87548     -3303.81000
 08 11 10  0 14 30.0000000  0  8  3  6 13 16 19 21 23 31
   -325328.55907  21205709.06307   -252073.39148  21205706.81348      1349.95100
    -76311.98807  20842463.96107    -62402.70848  20842460.83648       286.45900
   -250572.83606  23163424.25006   -195796.21447  23163420.36747      1057.75700
    480264.58207  20721403.21107    361083.60448  20721398.26648     -2040.88400
   -519085.78105  23932808.53105   -398552.92347  23932804.37147      2370.23200
     58077.80503  24289521.80503     39239.09445  24289519.20345      -271.52400
    110432.16407  21672914.21107     80280.36748  21672909.18848      -521.09500
    776806.22707  21969459.97707    586739.87248  21969455.67248     -3307.14000
 08 11 10  0 14 45.0000000  0  8  3  6 13 16 19 21 23 31
   -345501.03107  21201870.67207   -267792.19748  21201868.29348      1344.83200
    -80516.88307  20841663.38307    -65679.23148  20841660.56648       280.32600
   -266351.28906  23160421.05506   -208091.10646  23160417.54346      1051.89700
    510907.69907  20727234.09407    384961.35348  20727229.44548     -2042.87400
   -554631.91005  23926044.25805   -426251.18147  23926040.12147      2369.74200
     62215.53904  24290309.62504     42463.37545  24290306.11345      -275.84900
    118373.60207  21674425.71107     86468.49548  21674420.00848      -529.42900
    826464.44107  21978909.65607    625434.57448  21978905.03148     -3310.54800
 08 11 10  0 15  0.0000000  0  8  3  6 13 16 19 21 23 31
   -365595.28507  21198046.57007   -283450.06348  21198044.34048      1339.61700
    -84628.66407  20840881.23407    -68883.23548  20840878.00848       274.11900
   -282040.27706  23157436.43806   -220316.30947  23157432.18447      1045.93300
    541581.52007  20733071.19507    408863.02248  20733066.76648     -2044.92100
   -590169.41405  23919281.71105   -453942.72647  23919278.04747      2369.16700
     66419.19104  24291110.08604     45738.97345  24291105.25845      -280.24300
    126441.28107  21675960.63307     92754.98948  21675955.15248      -537.84500
    876175.18007  21988368.92207    664170.19548  21988364.10248     -3314.04900
 08 11 10  0 15 15.0000000  0  8  3  6 13 16 19 21 23 31
   -385612.52707  21194237.59407   -299047.92048  21194235.02348      1334.48300
    -88648.11707  20840116.16407    -72015.26648  20840113.21548       267.96400
   -297640.84006  23154467.93806   -232472.56647  23154463.51247      1040.03700
    572284.70707  20738913.19507    432787.58348  20738908.79348     -2046.87900
   -625699.29305  23912521.02305   -481628.31447  23912516.40647      2368.65900
     70687.68803  24291921.50803     49065.00845  24291917.03545      -284.56600
    134634.08207  21677519.68807     99138.98248  21677513.95348      -546.18700
    925937.10207  21997838.35207    702945.71748  21997834.19948     -3317.46100
 08 11 10  0 15 30.0000000  0  8  3  6 13 16 19 21 23 31
   -405551.03107  21190443.50807   -314584.40348  21190441.28148      1329.23400
    -92574.30107  20839368.99207    -75074.63748  20839365.69548       261.74600
   -313151.39506  23151515.75006   -244558.71646  23151511.20346      1034.03700
    603018.28907  20744762.16407    456735.82248  20744757.73048     -2048.90500
   -661220.04705  23905761.43005   -509306.84947  23905757.19947      2368.05000
     75022.73002  24292746.21102     52442.98445  24292742.58245      -289.00300
    142953.16407  21679103.02307    105621.36848  21679097.53148      -554.60500
    975751.39107  22007317.93807    741762.01448  22007313.71948     -3320.95300
 08 11 10  0 15 45.0000000  0  8  3  6 13 16 19 21 23 31
   -425408.56307  21186664.73407   -330057.78548  21186662.10548      1323.83500
    -96404.84407  20838639.99207    -78059.46548  20838637.19948       255.37000
   -328569.54306  23148581.82006   -256572.86946  23148577.21146      1027.87700
    633784.35207  20750616.66407    480709.36348  20750612.51648     -2051.07100
   -696729.17205  23899004.00805   -536976.22847  23899000.41847      2367.27500
         0.00000  24293582.81301         0.00000  24293580.71940         0.00000
    151400.96507  21680710.73407    112204.05648  21680704.46148      -563.18700
   1025620.12507  22016807.39807    780620.76748  22016804.06348     -3324.58200
 08 11 10  0 16  0.0000000  0  9  3  6 13 16 19 21 23 25 31
   -445185.70307  21182901.11707   -345468.54148  21182898.30548      1318.47600
   -100140.38707  20837929.20307    -80970.28648  20837926.71948       249.03600
   -343895.71906  23145665.49206   -268515.35146  23145661.79346      1021.74500
    664581.91807  20756477.42207    504707.46448  20756473.14848     -2053.17100
   -732227.06303  23892249.03903   -564636.89147  23892245.14147      2366.52600
     83898.90602  24294435.32002     59359.50045  24294432.07445      -300.31300
    159976.76207  21682342.50007    118886.48048  21682336.73848      -571.72000
    -53281.88711  24755736.03901         0.00000         0.00000      1720.79700
   1075542.44107  22026307.50007    819521.25148  22026304.08648     -3328.15400
 08 11 10  0 16 15.0010000  0  9  3  6 13 16 19 21 23 25 31
   -464883.37907  21179153.13007   -360817.38248  21179149.61048      1313.17800
   -103780.83207  20837236.63007    -83806.99248  20837233.91548       242.69600
   -359130.46506  23142766.97406   -280386.56546  23142762.79846      1015.65000
    695413.19107  20762344.24707    528731.82948  20762339.88848     -2055.41800
   -767715.74605  23885495.99705   -592290.40447  23885492.46247      2365.91200
     88440.21103  24295300.12203     62898.19145  24295296.42345      -302.75400
    168681.25007  21683999.01307    125669.19348  21683992.64948      -580.29900
    -79104.50801  24750821.92701         0.00000         0.00000      1721.50800
   1125521.89807  22035818.24707    858466.28348  22035814.51748     -3331.96400
 08 11 10  0 16 30.0010000  0  9  3  6 13 16 19 21 23 25 31
   -484498.28507  21175420.47407   -376101.71648  21175417.11048      1307.66000
   -107325.34007  20836562.23107    -86568.95248  20836559.48948       236.30100
   -374271.18406  23139885.41906   -292184.55746  23139881.45846      1009.38100
    726274.11307  20768217.08307    552779.28948  20768212.48148     -2057.39500
   -803189.98005  23878745.12205   -619932.62946  23878741.48946      2364.94900
     93050.32403  24296177.66103     66490.49245  24296174.36845      -307.34100
    177513.76207  21685679.48107    132551.66448  21685673.93548      -588.83400
   -104951.65601  24745903.31701         0.00000         0.00000      1723.14300
   1175552.10207  22045338.82507    897450.84848  22045334.54848     -3335.34700
 08 11 10  0 16 45.0010000  0  9  3  6 13 16 19 21 23 25 31
   -504033.66407  21171702.96607   -391324.09248  21171699.63848      1302.35900
   -110776.31607  20835905.36407    -89258.01848  20835902.38448       230.06500
   -389320.77706  23137022.00506   -303911.49946  23137018.34946      1003.30600
    757164.68007  20774095.56007    576849.86548  20774090.70848     -2059.37100
   -838653.80505  23871996.66905   -647566.74646  23871992.17346      2364.25500
     97727.81604  24297067.92704     70135.32245  24297064.04845      -311.83300
    186472.97307  21687384.42707    139532.86548  21687378.75548      -597.28100
   -130826.91802  24740980.67702         0.00000         0.00000      1725.01700
   1225634.04707  22054868.95807    936475.73948  22054864.34148     -3338.79600
 08 11 10  0 17  0.0010000  0  9  3  6 13 16 19 21 23 25 31
   -523487.28107  21168001.06007   -406482.76048  21167997.95048      1296.90800
   -114131.49607  20835267.14607    -91872.43048  20835264.34948       223.67900
   -404276.89506  23134175.53606   -315565.59147  23134172.01747       997.07400
    788086.77307  20779979.59907    600945.00748  20779975.16548     -2061.47300
   -874104.84005  23865250.77805   -675190.93547  23865247.00147      2363.40200
    102474.93404  24297970.90304     73834.34845  24297966.44645      -316.47400
    195560.85207  21689113.92707    146614.31548  21689108.32548      -605.85900
   -156728.01602  24736051.37202         0.00000         0.00000      1726.74000
   1275769.72307  22064409.19207    975542.48048  22064404.57948     -3342.37800
 08 11 10  0 17 15.0010000  0  9  3  6 13 16 19 21 23 25 31
   -542858.64107  21164314.99707   -421577.32248  21164311.85348      1291.42400
   -117390.41807  20834646.78607    -94411.83548  20834643.59948       217.26100
   -419138.85906  23131347.33306   -327146.34647  23131343.81347       990.79800
    819040.44507  20785870.00507    625064.75648  20785865.68848     -2063.57800
   -909542.57405  23858506.93505   -702804.71746  23858503.06746      2362.51600
    107292.09804  24298887.79404     77587.94545  24298882.52845      -321.14400
    204777.72707  21690867.73107    153796.29448  21690862.50148      -614.45800
   -182654.66002  24731118.21602         0.00000         0.00000      1728.44300
   1325959.58207  22073960.11407   1014651.45948  22073955.35348     -3345.99100
 08 11 10  0 17 30.0010000  0  9  3  6 13 16 19 21 23 25 31
   -562146.93007  21160644.93507   -436607.16848  21160641.82548      1285.88600
   -120552.51207  20834045.05207    -96875.80148  20834041.93148       210.80600
   -433905.89506  23128537.04406   -338653.13247  23128533.37247       984.46900
    850026.18007  20791766.39607    649209.47548  20791761.95448     -2065.71600
   -944966.23405  23851766.31005   -730407.56946  23851761.84146      2361.57700
    112180.22704  24299818.34104     81396.87145  24299813.50145      -325.87500
    214124.37907  21692646.27807    161079.39248  21692640.72848      -623.11000
   -208605.98003  24726179.30203         0.00000         0.00000      1730.08800
   1376204.19907  22083521.61407   1053803.07548  22083517.34948     -3349.64100
 08 11 10  0 17 45.0010000  0  9  3  6 13 16 19 21 23 25 31
   -581350.72707  21156990.38007   -451571.15748  21156987.47848      1280.25300
   -123616.25007  20833461.82507    -99263.11548  20833458.88848       204.24900
   -448576.35506  23125745.95006   -350084.64647  23125741.62647       978.03100
    881045.42607  20797668.89607    673380.33448  20797664.60348     -2067.95000
   -980374.26205  23845027.84905   -757998.21646  23845023.83746      2360.53500
    117140.96503  24300761.21603     85262.41045  24300757.67345      -330.71600
    223602.19107  21694450.07507    168464.69348  21694444.15748      -631.85400
   -234580.58203  24721236.98103         0.00000         0.00000      1731.64000
   1426504.75807  22093093.16107   1092998.30048  22093089.51748     -3353.37100
 08 11 10  0 18  0.0010000  0  9  3  6 13 16 19 21 23 25 31
   -600470.30907  21153351.77107   -466469.55448  21153348.97848      1274.63900
   -126581.93407  20832897.50507   -101574.03848  20832894.61448       197.71200
   -463150.32806  23122972.35606   -361440.99947  23122968.62247       971.59800
    912097.28907  20803577.98907    697576.56448  20803573.22048     -2070.12400
  -1015766.63705  23838293.32505   -785576.67846  23838288.36046      2359.49200
    122173.78503  24301718.47403     89184.10545  24301716.01345      -335.52100
    233210.79707  21696278.44207    175951.90648  21696272.58748      -640.57400
   -260578.62504  24716289.57504         0.00000         0.00000      1733.20300
   1476860.86707  22102675.70007   1132236.80348  22102671.45048     -3357.07400
 08 11 10  0 18 15.0010000  0  9  3  6 13 16 19 21 23 25 31
   -619503.23407  21149729.79407   -481300.38948  21149727.33748      1268.86200
   -129447.75407  20832352.17707   -103807.14348  20832349.03648       191.05500
   -477625.65606  23120218.11406   -372720.46946  23120213.62646       965.02200
    943183.59807  20809493.63807    721799.66548  20809489.06748     -2072.42100
  -1051141.17605  23831561.31005   -813141.25746  23831556.27846      2358.30300
    127280.93403  24302691.99703     93163.72345  24302687.98545      -340.47700
    242952.15207  21698132.66107    183542.56348  21698126.62648      -649.42400
   -286598.11304  24711338.70004         0.00000         0.00000      1734.63300
   1527274.35207  22112269.07507   1171520.02748  22112265.21648     -3360.89900
 08 11 10  0 18 30.0010000  0  9  3  6 13 16 19 21 23 25 31
   -638447.93807  21146124.31007   -496062.49548  21146122.08748      1262.98000
   -132211.96507  20831826.22407   -105961.08548  20831823.14648       184.28100
   -492000.69906  23117482.52806   -383921.80046  23117478.43846       958.33600
    974305.84407  20815416.06007    746050.76548  20815411.37648     -2074.81600
  -1086496.02705  23824833.79405   -840690.53646  23824829.12246      2356.99000
    132464.26204  24303677.71604     97202.62145  24303673.54045      -345.55500
    252827.94107  21700011.74707    191237.97748  21700005.71648      -658.38600
   -312637.18803  24706382.82503         0.00000         0.00000      1735.93800
   1577746.66807  22121873.93507   1210849.09848  22121869.71248     -3364.82100
 08 11 10  0 18 45.0010000  0  9  3  6 13 16 19 21 23 25 31
   -657304.67207  21142536.36407   -510756.04848  21142534.03248      1257.11600
   -134875.00807  20831319.59107   -108036.17948  20831316.83348       177.53600
   -506275.41406  23114765.88806   -395044.96646  23114762.04046       951.64800
   1005463.36707  20821344.96607    770329.35248  20821340.34548     -2077.16800
  -1121831.48405  23818109.74705   -868224.64647  23818104.36847      2355.69700
    137723.28504  24304678.57504    101300.59445  24304674.64945      -350.60200
    262837.67607  21701916.42707    199037.76348  21701910.70448      -667.31600
   -338696.42204  24701423.70004         0.00000         0.00000      1737.28200
   1628277.20707  22131489.59107   1250223.53248  22131485.29048     -3368.70300
 08 11 10  0 19  0.0010000  0  9  3  6 13 16 19 21 23 25 31
   -676073.50407  21138964.77107   -525381.13248  21138962.02848      1251.25500
   -137437.13707  20830832.29407   -110032.66048  20830829.34548       170.80900
   -520449.94106  23112068.63806   -406090.03847  23112064.90347       944.96800
   1036655.68807  20827280.63807    794635.05548  20827276.03248     -2079.48800
  -1157147.66805  23811389.22405   -895743.67347  23811383.52447      2354.41200
    143057.94504  24305693.53604    105457.50245  24305689.51345      -355.64400
    272981.09407  21703847.02807    206941.70448  21703841.42748      -676.22800
   -364775.81604  24696461.19204         0.00000         0.00000      1738.62600
   1678865.58607  22141115.98907   1289643.03648  22141112.54048     -3372.55900
 08 11 10  0 19 15.0010000  0  9  3  6 13 16 19 21 23 25 31
   -694753.40607  21135409.99707   -539936.89948  21135407.31748      1245.32700
   -139897.20707  20830363.66907   -111949.58348  20830361.31048       164.00500
   -534522.98806  23109390.57506   -417056.02847  23109387.60647       938.20300
   1067883.66007  20833223.20007    818968.53648  20833218.45048     -2081.86500
  -1192443.21905  23804672.52105   -923246.74447  23804667.91147      2353.03700
    148469.35204  24306723.48904    109674.16345  24306719.03645      -360.76000
    283259.09807  21705802.48907    214950.53348  21705797.18548      -685.20000
   -390874.35903  24691493.48103         0.00000         0.00000      1739.90300
   1729512.81607  22150753.88007   1329108.39748  22150750.60348     -3376.48200
 08 11 10  0 19 30.0010000  0  9  3  6 13 16 19 21 23 25 31
   -713342.41807  21131872.70007   -554421.85148  21131869.73148      1239.26700
   -142253.60907  20829915.28607   -113785.74648  20829912.60648       157.09300
   -548492.73406  23106732.38806   -427941.56046  23106728.94246       931.31600
   1099148.80507  20839172.76307    843330.97648  20839168.42348     -2084.34300
  -1227716.32806  23797960.33306   -950732.25347  23797956.59547      2351.54100
    153959.46904  24307768.53604    113952.25745  24307763.25545      -366.00800
    293673.39107  21707784.26307    223065.57648  21707779.01748      -694.28600
   -416990.16804  24686523.96604         0.00000         0.00000      1741.05400
   1780220.44507  22160403.39607   1368620.83748  22160399.57148     -3380.50900
 08 11 10  0 19 45.0010000  0  9  3  6 13 16 19 21 23 25 31
   -731839.91407  21128352.77107   -568835.48648  21128349.70448      1233.16600
   -144505.75807  20829486.92707   -115540.67048  20829483.73148       150.14300
   -562358.46106  23104093.60606   -438746.00646  23104090.66946       924.38200
   1130451.36307  20845129.23907    867722.58948  20845124.75548     -2086.83700
  -1262966.21106  23791252.52806   -978199.68747  23791248.02447      2349.99200
    159528.93405  24308827.90305    118292.12546  24308823.06746      -371.29800
    304224.71907  21709792.00507    231287.38248  21709787.13848      -703.42200
   -443122.64804  24681550.90304         0.00000         0.00000      1742.16500
   1830988.85207  22170064.12207   1408180.61248  22170061.07148     -3384.56000
 08 11 10  0 20  0.0010000  0  9  3  6 13 16 19 21 23 25 31
   -750246.27007  21124850.44207   -583178.11048  21124847.04848      1227.09000
   -146654.02007  20829078.38007   -117214.63048  20829074.85648       143.21700
   -576120.17206  23101474.53606   -449469.45247  23101471.30247       917.44700
   1161790.87907  20851093.05207    892142.97848  20851088.98148     -2089.30100
  -1298192.82806  23784549.06006  -1005648.98947  23784543.93847      2348.44100
    165177.51605  24309903.42705    122693.56645  24309897.47445      -376.57200
    314912.67607  21711825.84107    239615.65048  21711820.71248      -712.53000
   -469272.12903  24676574.20803         0.00000         0.00000      1743.29900
   1881817.60907  22179736.71607   1447787.42748  22179732.86048     -3388.58400
 08 11 10  0 20 15.0010000  0  9  3  6 13 16 19 21 23 25 31
   -768561.76207  21121365.21607   -597449.90948  21121361.67748      1221.03300
   -148698.78907  20828688.81007   -118807.95848  20828685.68848       136.31800
   -589778.27306  23098875.56006   -460112.10746  23098872.00146       910.54000
   1193166.72307  20857063.76307    916591.69748  20857059.56348     -2091.72300
  -1333396.64806  23777850.58306  -1033080.52047  23777845.06047      2346.92100
    170904.85205  24310993.16905    127156.40645  24310986.82945      -381.82200
    325736.57007  21713885.68507    248049.84448  21713880.51348      -721.59300
   -495438.87904  24671595.73104         0.00000         0.00000      1744.45000
   1932706.08207  22189420.10607   1487440.77348  22189416.74348     -3392.56500
 08 11 10  0 20 30.0010000  0  9  3  6 13 16 19 21 23 25 31
   -786785.75407  21117897.25507   -611650.43148  21117893.88048      1214.93300
   -150639.81607  20828319.71607   -120320.44448  20828316.47048       129.40200
   -603332.44506  23096296.77806   -470673.77846  23096292.39946       903.61100
   1224578.92607  20863041.33307    941068.73248  20863036.77848     -2094.14700
  -1368577.09006  23771155.21606  -1060493.85147  23771150.64947      2345.36300
    176711.32005  24312097.63005    131680.89845  24312091.88045      -387.09800
    336696.83207  21715971.19207    256590.31248  21715965.80648      -730.68400
   -521622.54704  24666613.51304         0.00000         0.00000      1745.57800
   1983654.41407  22199115.56707   1527140.75048  22199111.11448     -3396.55500
 08 11 10  0 20 45.0010000  0  9  3  6 13 16 19 21 23 25 31
   -804918.29307  21114446.48907   -625779.67648  21114443.64948      1208.83600
   -152477.15207  20827970.02807   -121752.12548  20827967.09948       122.48900
   -616782.23806  23093736.96606   -481154.16046  23093732.92746       896.65300
   1256027.25007  20869025.77107    965573.92448  20869020.83348     -2096.55500
  -1403734.11706  23764465.03606  -1087888.93246  23764460.54046      2343.80200
    182597.07004  24313217.48104    136267.25445  24313211.78645      -392.38300
    347793.28507  21718083.02807    265236.88648  21718077.38848      -739.76400
   -547823.13304  24661628.41104         0.00000         0.00000      1746.70600
   2034662.43007  22208822.04407   1566887.25148  22208818.23948     -3400.53400
 08 11 10  0 21  0.0010000  0  9  3  6 13 16 19 21 23 25 31
   -822956.58207  21111013.94207   -639835.48148  21111011.09148      1202.55300
   -154208.18407  20827640.63007   -123100.98748  20827637.74348       115.40200
   -630124.69506  23091197.62206   -491550.89146  23091193.73146       889.49700
   1287514.08607  20875017.66907    990109.12148  20875012.75548     -2099.12200
  -1438864.85206  23757780.09106  -1115263.51447  23757775.32547      2342.04900
    188564.73404  24314353.76304    140917.36345  24314347.90345      -397.84400
    359028.62907  21720220.74707    273991.69548  21720215.29848      -749.02300
   -574037.84005  24656639.28605   -448374.54355  24656635.36445      1747.64700
   2085732.67607  22218540.71607   1606682.22648  22218536.74748     -3404.68300
 08 11 10  0 21 15.0010000  0  9  3  6 13 16 19 21 23 25 31
   -840901.89807  21107599.26307   -653818.85348  21107596.45448      1196.35400
   -155834.06307  20827331.46607   -124367.90548  20827328.13048       108.39200
   -643361.03106  23088679.32506   -501864.90446  23088675.29046       882.42200
   1319037.97307  20881016.16907   1014673.20448  20881012.00148     -2101.59200
  -1473970.24606  23751099.57506  -1142618.33647  23751095.15747      2340.36000
    194613.31604  24315504.61404    145630.53945  24315498.87645      -403.23900
    370401.57807  21722385.02807    282853.73248  21722379.49348      -758.19700
   -600267.91405  24651648.75505   -468813.52745  24651644.01345      1748.67200
   2136863.63307  22228270.63007   1646524.51548  22228266.48948     -3408.73000
 08 11 10  0 21 30.0010000  0  9  3  6 13 16 19 21 23 25 31
   -858755.17207  21104201.48907   -667730.49348  21104198.99348      1190.21800
   -157355.84007  20827041.66107   -125553.71148  20827038.59948       101.45200
   -656492.18805  23086179.69205   -512096.96646  23086176.37246       875.41000
   1350597.61707  20887021.98907   1039265.10448  20887017.47448     -2103.97600
  -1509051.05906  23744423.77106  -1169954.06447  23744419.12647      2338.72100
         0.00000  24316669.40301         0.00000  24316665.36440         0.00000
    381911.09406  21724575.74706    291822.16548  21724569.12648      -767.30100
   -626514.17205  24646653.63005   -489265.19945  24646650.10345      1749.75100
   2188054.30907  22238011.83307   1686413.34148  22238007.35648     -3412.71200
 08 11 10  0 21 45.0010000  0  9  3  6 13 16 19 21 23 25 31
   -876512.55107  21100822.55207   -681567.39448  21100820.46648      1183.82500
   -158769.94507  20826772.48107   -126655.59548  20826769.52448        94.27400
   -669514.39805  23083702.23105   -522244.12446  23083698.72046       868.14700
   1382196.59007  20893034.66107   1063887.68548  20893030.81748     -2106.59800
  -1544103.62506  23737753.88806  -1197267.70947  23737749.19647      2336.83800
    206954.31613  24317851.03603    155247.03555  24317847.27845      -416.46900
    393560.72707  21726792.24707    300899.80048  21726785.92748      -776.64200
   -652772.99605  24641656.27105   -509726.52345  24641653.37245      1750.58800
   2239308.23007  22247764.88807   1726351.45848  22247760.88848     -3416.92800
 08 11 10  0 22  0.0010000  0  9  3  6 13 16 19 21 23 25 31
   -894173.76607  21097461.78607   -695329.38048  21097459.42748      1177.41400
   -160076.33607  20826523.81707   -127673.57248  20826521.21248        87.09300
   -682427.25006  23081244.68506   -532306.11846  23081241.37246       860.85700
   1413834.72307  20899055.27107   1088540.76148  20899051.16148     -2109.20900
  -1579127.62906  23731089.14606  -1224559.13247  23731084.40747      2334.93400
    213250.52704  24319050.32504    160153.10545  24319046.82545      -419.74700
    405350.56607  21729035.75507    310086.67948  21729029.75548      -785.98900
   -679044.22704  24636657.59104   -530197.65245  24636654.21645      1751.41500
   2290625.32807  22257529.73907   1766338.78448  22257526.32948     -3421.14000
 08 11 10  0 22 15.0010000  0  9  3  6 13 16 19 21 23 25 31
   -911738.30107  21094119.41107   -709016.01248  21094116.71648      1170.96900
   -161274.64507  20826295.50507   -128607.31648  20826292.93148        79.88700
   -695230.25006  23078808.49706   -542282.46546  23078805.02146       853.53300
   1445512.02707  20905083.22407   1113224.38848  20905079.09148     -2111.82000
  -1614122.52006  23724429.46606  -1251827.87947  23724425.14247      2332.99300
    219631.11704  24320264.56704    165124.94946  24320261.12646      -425.37300
    417280.78107  21731305.87207    319382.93348  21731299.60648      -795.34800
   -705327.38305  24631657.09105   -550678.04745  24631652.14245      1752.21000
   2342005.74607  22267307.05207   1806375.46348  22267304.27848     -3425.36100
 08 11 10  0 22 30.0010000  0  9  3  6 13 16 19 21 23 25 31
   -929205.99207  21090795.20807   -722627.19848  21090792.73948      1164.51300
   -162364.81307  20826088.20007   -129456.80348  20826085.67748        72.67800
   -707923.01605  23076393.34105   -552172.95847  23076389.49347       846.18400
   1477228.62107  20911118.92707   1137938.61348  20911114.84148     -2114.44000
  -1649088.00006  23717775.69206  -1279073.67847  23717771.97047      2331.03200
    226096.28905  24321494.98905    170162.75746  24321491.79446      -431.01100
    429351.58607  21733603.27107    328788.75148  21733597.08348      -804.72000
   -731622.25805  24626651.25505   -571167.54745  24626648.13045      1752.99200
   2393449.39807  22277096.66107   1846461.41648  22277093.38048     -3429.57700
 08 11 10  0 22 45.0010000  0  9  3  6 13 16 19 21 23 25 31
   -946577.59407  21087489.63807   -736163.50948  21087486.86048      1158.10700
   -163347.44107  20825901.53607   -130222.48548  20825898.52148        65.50900
   -720506.05106  23073998.24706   -561977.91046  23073995.60346       838.86900
   1508983.43407  20917161.70007   1162682.62448  20917157.17748     -2116.98800
  -1684024.53906  23711127.50506  -1306296.96447  23711122.77847      2329.10300
    232645.45304  24322741.51304    175266.02246  24322738.62246      -436.61100
    441562.29307  21735926.58307    338303.57448  21735920.82148      -814.04700
   -757929.42605  24621645.98105   -591666.63345  24621642.55245      1753.81100
   2444955.46907  22286897.86407   1886596.00848  22286894.88448     -3433.73800
 08 11 10  0 23  0.0010000  0  9  3  6 13 16 19 21 23 25 31
   -963849.71507  21084202.71607   -749622.29348  21084199.72848      1151.47500
   -164219.69907  20825735.34107   -130902.15648  20825732.61448        58.15100
   -732976.39806  23071625.60606   -571695.08046  23071621.83746       831.35700
   1540779.30507  20923212.30207   1187458.61848  20923208.14648     -2119.72500
  -1718929.01206  23704485.08306  -1333495.24547  23704480.68147      2326.96500
    239281.69505  24324004.95005    180437.13046  24324001.86046      -442.41600
    453915.79707  21738277.41907    347929.67948  21738271.79048      -823.56700
   -784245.91805  24616638.57505   -612173.00045  24616635.12645      1754.43300
   2496526.89107  22296711.87207   1926781.52648  22296707.95048     -3438.09500
 08 11 10  0 23 15.0010000  0  9  3  6 13 16 19 21 23 25 31
   -981022.41407  21080934.78607   -763003.62648  21080932.36848      1144.84700
   -164981.45307  20825590.66907   -131495.74248  20825587.41548        50.78400
   -745333.93006  23069274.17706   -581324.31446  23069270.27146       823.83500
   1572616.17607  20929270.74707   1212266.55748  20929266.65748     -2122.45800
  -1753800.98006  23697848.74706  -1360668.19747  23697844.60647      2324.79800
    246005.29705  24325283.53605    185676.20646  24325280.43546      -448.24000
    466411.99607  21740655.23907    357666.97548  21740649.53248      -833.08000
   -810571.51604  24611628.44204   -632686.41845  24611625.65345      1755.04000
   2548163.53107  22306538.01307   1967017.84948  22306534.19648     -3442.44300
 08 11 10  0 23 30.0010000  0  9  3  6 13 16 19 21 23 25 31
   -998096.59007  21077685.91107   -776308.18048  21077683.39948      1138.27800
   -165633.51207  20825466.13807   -132003.82348  20825463.32148        43.47100
   -757579.08606  23066944.08306   -590866.00346  23066940.27146       816.34400
   1604492.86707  20935336.59107   1237105.54748  20935331.99348     -2125.11300
  -1788641.23006  23691219.65306  -1387816.42247  23691214.96647      2322.68300
    252815.38305  24326579.95805    190982.83946  24326574.90746      -454.00600
    479049.95307  21743060.29407    367514.71348  21743054.54048      -842.53000
   -836907.00804  24606617.27804   -653207.54345  24606613.66945      1755.69900
   2599864.27707  22316376.54407   2007304.12648  22316372.16948     -3446.71600
 08 11 10  0 23 45.0010000  0  9  3  6 13 16 19 21 23 25 31
  -1015068.91407  21074456.12207   -789533.36648  21074453.43148      1131.48800
   -166173.08607  20825363.71607   -132424.26948  20825360.62648        35.97200
   -769708.64106  23064636.02806   -600317.59346  23064632.40346       808.63700
   1636412.02307  20941410.84107   1261977.61248  20941406.11048     -2127.94400
  -1823446.64106  23684596.15306  -1414937.53047  23684592.26747      2320.36100
    259715.08604  24327892.17704    196359.17546  24327888.14646      -459.98000
    491832.69907  21745493.30207    377475.29948  21745487.15348      -852.18300
   -863249.23404  24601603.63804   -673733.98845  24601600.65345      1756.14800
   2651632.00007  22326227.54407   2047642.58348  22326223.56048     -3451.18200
 08 11 10  0 24  0.0010000  0  9  3  6 13 16 19 21 23 25 31
  -1031938.60207  21071246.12207   -802678.57848  21071243.00948      1124.64600
   -166599.51207  20825282.53607   -132756.55248  20825279.40748        28.42800
   -781721.90606  23062350.31006   -609678.58847  23062346.04047       800.88400
   1668374.01207  20947492.72407   1286883.05748  20947487.82548     -2130.79900
  -1858216.62106  23677979.57506  -1442031.00047  23677975.28247      2317.99900
    266704.81605  24329222.81005    201805.70946  24329218.17746      -465.98200
    504760.60507  21747953.04407    387548.99848  21747947.30648      -861.86000
   -889597.89504  24596589.90304   -694265.41845  24596586.79445      1756.57700
   2703467.05507  22336091.50507   2088033.52348  22336087.04048     -3455.67000
 08 11 10  0 24 15.0010000  0  9  3  6 13 16 19 21 23 25 31
  -1048705.80107  21068055.06007   -815743.93248  21068052.42748      1117.81300
   -166913.03107  20825222.77107   -133000.84348  20825219.72048        20.90100
   -793619.12106  23060086.09106   -618949.12947  23060082.30247       793.14800
   1700378.67607  20953582.86407   1311821.75948  20953578.57948     -2133.64400
  -1892950.82806  23671370.15306  -1469096.61747  23671365.84147      2315.61400
    273784.88304  24330570.26304    207322.71946  24330566.39946      -472.00400
    517833.75807  21750440.35607    397735.86848  21750434.78248      -871.54300
   -915952.59003  24591574.44203   -714801.48445  24591571.28645      1756.98000
   2755369.34007  22345968.02107   2128476.83948  22345963.74348     -3460.15200
 08 11 10  0 24 30.0010000  0  9  3  6 13 16 19 21 23 25 31
  -1065369.22707  21064884.16907   -828728.42248  21064881.84948      1110.89500
   -167112.32007  20825184.84907   -133156.14848  20825182.07548        13.28600
   -805398.36706  23057844.62206   -628127.79347  23057841.14947       785.28300
   1732427.00807  20959681.39607   1336794.48448  20959677.41548     -2136.55500
  -1927647.78906  23664767.48106  -1496133.22247  23664763.11047      2313.13100
    280956.61703  24331933.51303    212911.10446  24331930.93146      -478.11600
    531053.25807  21752956.20807    408036.76348  21752950.76348      -881.30000
   -942312.17603  24586558.66903   -735341.41845  24586555.89945      1757.30600
   2807339.96907  22355857.64607   2168973.43048  22355853.38448     -3464.70900
 08 11 10  0 24 45.0010000  0  9  3  6 13 16 19 21 23 25 31
  -1081928.25407  21061733.06707   -841631.54848  21061730.26348      1103.93500
   -167197.09407  20825168.56707   -133222.20348  20825165.68148         5.65200
   -817059.32806  23055625.77806   -637214.22047  23055622.04847       777.39700
   1764519.11307  20965788.48107   1361801.30448  20965784.31048     -2139.47400
  -1962307.10906  23658171.76306  -1523140.48047  23658167.33747      2310.62100
    288220.28504  24333317.16104    218571.08446  24333313.14246      -484.24500
    544419.32407  21755499.63807    418451.87748  21755493.89948      -891.07100
   -968676.13704  24581541.99704   -755884.75845  24581538.98545      1757.59700
   2859379.07407  22365760.32507   2209523.37248  22365756.24748     -3469.27400
 08 11 10  0 25  0.0010000  0  9  3  6 13 16 19 21 23 25 31
  -1098384.34007  21058601.36407   -854454.47148  21058598.50148      1097.07200
   -167168.74607  20825173.92707   -133200.10548  20825171.08748        -1.89000
   -828603.26206  23053428.86406   -646209.51147  23053424.64947       769.59600
   1796653.44907  20971903.52107   1386841.05248  20971899.28248     -2142.28900
  -1996929.98406  23651584.06706  -1550119.29947  23651579.43547      2308.19200
    295574.63304  24334715.74704    224301.75446  24334712.09546      -490.29000
    557930.40207  21758070.84907    428979.98248  21758065.14648      -900.73900
   -995045.75004  24576523.76304   -776432.52745  24576520.82545      1757.97400
   2911485.03507  22375676.06007   2250125.38948  22375672.25948     -3473.73100
 08 11 10  0 25 15.0010000  0  9  3  6 13 16 19 21 23 25 31
  -1114735.68807  21055489.94207   -867195.77848  21055487.15348      1090.09000
   -167025.58207  20825201.41907   -133088.55748  20825198.75948        -9.54400
   -840028.19106  23051254.39606   -655112.07147  23051250.89947       761.66200
   1828831.50407  20978026.59107   1411914.84848  20978022.20848     -2145.20400
  -2031514.57806  23645003.02106  -1577068.33947  23644997.39947      2305.64000
    303021.50004  24336134.61404    230104.49646  24336129.64646      -496.45800
    571588.11307  21760669.67707    439622.35948  21760664.38848      -910.51400
  -1021419.37104  24571505.29404   -796983.35945  24571502.59945      1758.24100
   2963659.41407  22385604.27107   2290780.73248  22385600.84148     -3478.29200
 08 11 10  0 25 30.0010000  0  9  3  6 13 16 19 21 23 25 31
  -1130982.79707  21052398.16107   -879855.86048  21052394.98148      1083.14100
   -166768.00807  20825250.54407   -132887.84648  20825247.67348       -17.17200
   -851334.48006  23049103.34106   -663922.15046  23049099.32146       753.75300
   1861052.66007  20984158.34907   1437022.24948  20984153.84548     -2148.07700
  -2066061.03506  23638428.12206  -1603987.62247  23638422.90347      2303.09700
    310560.68804  24337568.84104    235979.18845  24337563.82145      -502.61300
    585392.34007  21763296.45807    450378.88548  21763290.75948      -920.28200
  -1047797.12904  24566485.49704   -817537.44545  24566482.84945      1758.51700
   3015901.82407  22395545.86407   2331489.10748  22395541.70448     -3482.82700
 08 11 10  0 25 45.0010000  0  9  3  6 13 16 19 21 23 25 31
  -1147125.47707  21049326.24707   -892434.57248  21049323.50148      1076.17900
   -166396.20307  20825321.04407   -132598.13248  20825318.54848       -24.78700
   -862521.74606  23046974.52806   -672639.53947  23046970.63447       745.81800
   1893316.70307  20990297.80207   1462163.05948  20990293.16148     -2150.93600
  -2100569.01606  23631861.98106  -1630876.95947  23631856.01347      2300.53200
    318192.13304  24339020.42704    241925.76245  24339015.57945      -508.76300
    599342.76207  21765951.64607    461249.32048  21765945.45448      -930.02800
  -1074179.07804  24561465.23104   -838094.80646  24561462.94646      1758.79700
   3068211.94107  22405500.31007   2372250.23248  22405496.01748     -3487.34100
 08 11 10  0 26  0.0010000  0  9  3  6 13 16 19 21 23 25 31
  -1163160.98807  21046274.74707   -904929.77748  21046272.05248      1069.03400
   -165907.89107  20825414.22407   -132217.62348  20825410.89248       -32.55400
   -873587.93006  23044868.57506   -681262.52947  23044864.82547       737.74600
   1925625.50807  20996446.24707   1487338.74748  20996441.36048     -2153.92000
  -2135036.24606  23625303.03606  -1657734.53247  23625297.24747      2297.81500
    325918.12105  24340491.45805    247945.96545  24340486.66945      -515.06600
    613441.55507  21768634.54407    472235.39048  21768628.41148      -939.92000
  -1100562.87104  24556444.21604   -858653.59945  24556442.48945      1758.92000
   3120591.97307  22415467.96607   2413065.81948  22415464.02148     -3492.00200
 08 11 10  0 26 15.0010000  0  9  3  6 13 16 19 21 23 25 31
  -1179091.70307  21043243.44207   -917343.32448  21043240.83348      1062.04800
   -165305.23807  20825528.60607   -131748.02948  20825526.21648       -40.17700
   -884534.85206  23042785.79406   -689792.60547  23042782.35347       729.79500
   1957976.83207  21002602.72407   1512547.56248  21002597.56748     -2156.75500
  -2169464.63706  23618751.46606  -1684561.83547  23618746.77447      2295.22600
    333736.65604  24341977.67704    254038.42246  24341974.92346      -521.23600
    627686.46907  21771345.12207    483335.31348  21771339.16148      -949.66100
  -1126950.52704  24551423.21604   -879215.33745  24551421.10645      1759.17700
   3173039.50407  22425448.52107   2453934.00248  22425444.56348     -3496.50200
 08 11 10  0 26 30.0010000  0  9  3  6 13 16 19 21 23 25 31
  -1194916.63307  21040231.81007   -929674.44048  21040229.46648      1054.99500
   -164587.35907  20825665.08307   -131188.62948  20825662.40348       -47.85900
   -895361.27706  23040725.04406   -698228.77546  23040721.59946       721.76200
   1990371.34407  21008766.51307   1537790.03748  21008762.21648     -2159.63400
  -2203853.20306  23612207.03606  -1711358.11147  23612201.81347      2292.57100
    341648.82005  24343484.02805    260203.73246  24343480.41946      -527.47800
    642078.38307  21774083.91107    494549.78348  21774077.75548      -959.46100
  -1153341.03904  24546401.27104   -899779.34446  24546399.53646      1759.36700
   3225555.28107  22435441.63007   2494855.37348  22435438.00948     -3501.05200
 08 11 10  0 26 45.0010000  0  9  3  6 13 16 19 21 23 25 31
  -1210634.15207  21037241.45807   -941921.85948  21037238.85348      1047.83500
   -163752.85207  20825824.03607   -130538.36448  20825821.11448       -55.63400
   -906065.69506  23038688.01306   -706569.91847  23038684.49747       713.62800
   2022810.44107  21014939.71607   1563067.25948  21014935.41148     -2162.60700
  -2238200.09406  23605671.16106  -1738121.90647  23605665.58347      2289.79300
    349656.11705  24345008.27805    266443.20446  24345004.20046      -533.82000
    656618.75007  21776850.66107    505879.92948  21776844.41548      -969.35800
  -1179732.80505  24541379.14605   -920344.31446  24541376.19246      1759.45100
   3278140.77007  22445448.36407   2535831.06848  22445444.42748     -3505.69900
 08 11 10  0 27  0.0010000  0  9  3  6 13 16 19 21 23 25 31
  -1226247.14107  21034270.27107   -954087.81848  21034267.42348      1040.86600
   -162804.67607  20826004.75507   -129799.52148  20826001.96248       -63.21200
   -916650.99606  23036673.85606   -714818.17846  23036670.16946       705.68700
   2055290.86307  21021120.52807   1588376.66748  21021116.05248     -2165.36100
  -2272508.26206  23599142.54406  -1764855.54747  23599137.05647      2287.21100
    357755.57805  24346549.19205    272754.43446  24346545.54446      -539.96400
    671304.43007  21779645.18507    517323.31248  21779639.49748      -979.04500
  -1206128.77305  24536356.52805   -940912.60845  24536353.02445      1759.73100
   3330792.74207  22455467.86407   2576858.56648  22455463.98548     -3510.13200
 08 11 10  0 27 15.0010000  0  9  3  6 13 16 19 21 23 25 31
  -1241753.97307  21031319.42707   -966171.06448  21031316.67348      1033.78900
   -161741.53107  20826206.92707   -128971.09948  20826203.88048       -70.87600
   -927115.85206  23034682.65306   -722972.59947  23034678.45447       697.65700
   2087813.78907  21027309.45807   1613719.20948  21027305.11048     -2168.19500
  -2306775.96506  23592621.66106  -1791557.61747  23592616.48547      2284.51400
    365948.75405  24348108.36405    279138.75146  24348104.73146      -546.21200
    686136.84807  21782467.95807    528881.03348  21782461.92748      -988.82800
  -1232527.47305  24531332.88805   -961483.00945  24531328.87645      1759.91300
   3383512.39107  22465499.78607   2617938.80548  22465495.83348     -3514.64300
 08 11 10  0 27 30.0010000  0  9  3  6 13 16 19 21 23 25 31
  -1257153.14107  21028389.24707   -978170.42148  21028386.06348      1026.61100
   -160561.81307  20826431.30207   -128051.84448  20826428.74348       -78.64800
   -937458.28506  23032714.41906   -731031.65347  23032709.91947       689.49600
   2120380.63307  21033506.70007   1639095.96348  21033502.15748     -2171.12300
  -2341001.47306  23586108.79406  -1818226.83147  23586103.63047      2281.70100
    374237.45705  24349685.25505    285597.49546  24349681.32546      -552.58000
    701117.36307  21785318.00507    540554.16148  21785312.70448      -998.70100
  -1258927.12904  24526309.64604   -982054.17446  24526304.42746      1759.97700
   3436301.25407  22475545.31707   2659072.93648  22475541.17748     -3519.25800
 08 11 10  0 27 45.0010000  0  9  3  6 13 16 19 21 23 25 31
  -1272445.26207  21025479.31007   -990086.33848  21025476.13848      1019.47500
   -159266.35907  20826677.88007   -127042.38348  20826675.78648       -86.36400
   -947678.84006  23030769.29406   -738995.69747  23030765.02847       681.37000
   2152990.27007  21039711.97407   1664506.06848  21039707.84148     -2173.97600
  -2375185.53106  23579603.88806  -1844863.74947  23579598.13447      2278.93700
    382620.94105  24351281.00505    292130.00746  24351276.04046      -558.89900
    716245.23006  21788197.03606    552342.09048  21788191.63048     -1008.52400
  -1285328.47004  24521284.82504  -1002626.62446  24521280.57946      1760.08900
   3489158.23807  22485603.91107   2700260.19148  22485600.08748     -3523.79900
 08 11 10  0 28  0.0010000  0  9  3  6 13 16 19 21 23 25 31
  -1287628.39107  21022589.60607  -1001917.35048  21022586.70448      1012.20900
   -157853.36307  20826946.93507   -125941.35248  20826944.56348       -94.20000
   -957775.30506  23028847.75506   -746863.09047  23028843.86847       673.09800
   2185644.43807  21045926.00507   1689950.86248  21045921.75948     -2176.94500
  -2409325.91406  23573107.09106  -1871466.64447  23573102.12647      2276.02600
    391101.07004  24352894.16904    298737.91445  24352890.18545      -565.34200
    731522.13707  21791104.19207    564246.18148  21791098.64648     -1018.46000
  -1311729.61704  24516260.59104  -1023198.90246  24516256.91146      1760.07700
   3542085.10207  22495675.50507   2741501.89048  22495672.28248     -3528.45800
 08 11 10  0 28 15.0010000  0  9  3  6 13 16 19 21 23 25 31
  -1302703.00007  21019721.34107  -1013663.78948  21019718.04048      1004.97400
   -156323.32007  20827238.01307   -124749.10748  20827235.43848      -102.00300
   -967748.09406  23026950.38006   -754634.08347  23026946.47047       664.85300
   2218342.57007  21052148.13807   1715429.91948  21052143.91148     -2179.87600
  -2443422.93406  23566618.54406  -1898035.69447  23566614.39247      2273.13500
    399677.48404  24354526.31704    305420.90645  24354521.95845      -571.76100
    746947.68407  21794039.56007    576266.08448  21794033.91948     -1028.37000
  -1338130.76204  24511237.65304  -1043771.26646  24511232.73146      1760.07600
   3595081.31607  22505760.02807   2782797.62548  22505757.21648     -3533.08100
 08 11 10  0 28 30.0010000  0  9  3  6 13 16 19 21 23 25 31
  -1317667.86707  21016873.41907  -1025324.72548  21016870.17348       997.65800
   -154675.30507  20827551.78607   -123464.94348  20827548.79048      -109.86800
   -977596.18006  23025076.48106   -762307.93547  23025072.39647       656.53900
   2251085.25807  21058378.84107   1740943.69648  21058374.33748     -2182.84600
  -2477475.32406  23560139.35606  -1924570.02147  23560133.77847      2270.15900
    408351.33604  24356176.80204    312179.88345  24356172.49745      -578.25700
    762522.58207  21797003.47407    588402.35948  21796997.81748     -1038.32700
  -1364530.94105  24506212.84105  -1064342.81346  24506209.06046      1760.01200
   3648147.73407  22515858.66107   2824148.06848  22515854.79048     -3537.76100
 08 11 10  0 28 45.0010000  0  9  3  6 13 16 19 21 23 25 31
  -1332522.87107  21014046.81707  -1036900.05648  21014043.58348       990.33400
   -152909.12107  20827887.60607   -122088.67948  20827884.79848      -117.74600
   -987319.30506  23023225.81706   -769884.39147  23023222.49747       648.20800
   2283872.75007  21064618.09907   1766492.37848  21064613.68148     -2185.83300
  -2511482.77306  23553666.99706  -1951069.33247  23553663.28247      2267.16300
    417122.71904  24357845.72404    319014.63345  24357841.55245      -584.75900
    778247.08207  21799995.83307    600655.21648  21799990.14248     -1048.30000
  -1390929.79705  24501189.84905  -1084913.29246  24501185.77446      1759.92400
   3701284.28507  22525970.05207   2865553.15348  22525966.55248     -3542.43700
 08 11 10  0 29  0.0010000  0  9  3  6 13 16 19 21 23 25 31
  -1347267.79707  21011240.64607  -1048389.60648  21011238.02448       982.99500
   -151024.82407  20828245.90307   -120620.39248  20828243.06048      -125.62000
   -996917.28106  23021398.95006   -777363.32347  23021395.72847       639.86500
   2316704.80907  21070865.67707   1792075.80048  21070861.47848     -2188.80400
  -2545445.07406  23547204.53606  -1977533.41347  23547200.15747      2264.15300
    425991.94105  24359534.59905    325925.68146  24359530.29046      -591.28200
    794121.20707  21803016.46607    613024.65348  21803010.81348     -1058.27500
  -1417327.20705  24496166.79405  -1105482.63245  24496162.85645      1759.82700
   3754490.84807  22536094.83307   2907012.80348  22536091.54848     -3547.10400
 08 11 10  0 29 15.0010000  0  9  3  6 13 16 19 21 23 25 31
  -1361901.34807  21008455.91107  -1059792.37848  21008453.16148       975.57000
   -149021.30507  20828627.45807   -119059.19848  20828624.21248      -133.56800
  -1006388.63306  23019596.96606   -784743.59047  23019594.18847       631.42300
   2349582.13707  21077122.01307   1817694.48848  21077117.70448     -2191.82200
  -2579361.03906  23540750.16906  -2003961.41847  23540745.92347      2261.06400
    434960.07405  24361240.40305    332913.84746  24361236.62246      -597.87600
    810145.82406  21806066.05206    625511.36348  21806060.10648     -1068.30800
  -1443721.96505  24491143.68505  -1126050.00045  24491139.62645      1759.65100
   3807768.41007  22546233.13007   2948527.75548  22546230.08748     -3551.83800
 08 11 10  0 29 30.0010000  0  9  3  6 13 16 19 21 23 25 31
  -1376423.40607  21005692.71607  -1071108.26348  21005690.14948       968.13700
   -146898.45706  20829031.16906   -117405.02848  20829027.99348      -141.52300
  -1015733.41406  23017818.52806   -792025.22547  23017816.23947       622.98500
   2382504.97306  21083387.38806   1843348.64148  21083382.54048     -2194.85600
  -2613230.13306  23534305.02106  -2030352.91747  23534300.24347      2257.94000
    444027.51604  24362965.92704    339979.36046  24362962.25546      -604.49600
    826321.09407  21809144.13007    638115.45548  21809138.40348     -1078.35100
  -1470113.81205  24486121.84105  -1146615.08045  24486117.59945      1759.45600
   3861117.06307  22556385.46607   2990098.10748  22556382.14948     -3556.57700
 08 11 10  0 29 45.0010000  0  9  3  6 13 16 19 21 23 25 31
  -1390834.00407  21002950.02807  -1082337.28948  21002947.67748       960.70700
   -144656.56307  20829457.80207   -115658.09148  20829454.89948      -149.46000
  -1024951.25406  23016064.88806   -799207.97147  23016061.50547       614.52300
   2415472.77707  21089660.98907   1869037.84748  21089656.54448     -2197.85400
  -2647052.49606  23527869.40306  -2056707.98347  23527864.98947      2254.82400
    453193.90203  24364709.73103    347122.02746  24364706.80246      -611.09200
    842646.52307  21812250.54407    650836.56248  21812245.20448     -1088.36200
  -1496502.80504  24481099.65304  -1167177.94746  24481095.87646      1759.26600
   3914536.36707  22566550.42707   3031723.52248  22566547.18848     -3561.28700
 08 11 10  0 30  0.0010000  0  9  3  6 13 16 19 21 23 25 31
  -1405131.29707  21000229.26307  -1093478.02848  21000226.80648       953.15300
   -142293.84806  20829907.56006   -113817.02748  20829904.73948      -157.51400
  -1034040.07006  23014335.04406   -806290.15147  23014331.52847       605.92100
   2448487.15207  21095943.44207   1894763.33048  21095938.97848     -2200.95800
  -2680826.00406  23521442.35606  -2083024.98247  23521437.88847      2251.56700
    462461.49603  24366473.84103    354343.49845  24366470.14245      -617.84000
    859123.98006  21815386.29406    663676.12648  21815380.36448     -1098.49700
  -1522887.06504  24476079.24704  -1187737.09645  24476074.99745      1758.95100
   3968027.88707  22576729.81007   3073405.21748  22576725.98148     -3566.10100
 08 11 10  0 30 15.0010000  0  9  3  6 13 16 19 21 23 25 31
  -1419315.78507  20997530.56707  -1104530.87148  20997527.14948       945.63300
   -139810.89806  20830379.83306   -111882.24648  20830377.40348      -165.53000
  -1043000.36306  23012630.63806   -813272.18347  23012626.49347       597.35300
   2481547.35507  21102234.51307   1920524.53048  21102230.01748     -2204.01400
  -2714550.97706  23515024.43506  -2109304.14147  23515020.16947      2248.33200
    471829.55903  24368256.68503    361643.32345  24368252.67745      -624.53800
    875752.93806  21818550.45006    676633.74148  21818545.25548     -1108.59700
  -1549267.07804  24471058.98104  -1208292.86146  24471054.68546      1758.66800
   4021590.96907  22586922.28607   3115142.68748  22586918.56048     -3570.87200
 08 11 10  0 30 30.0010000  0  9  3  6 13 16 19 21 23 25 31
  -1433389.01207  20994852.33307  -1115497.01248  20994849.18548       938.21500
   -137209.33607  20830875.10607   -109855.05648  20830872.06048      -173.43800
  -1051833.84406  23010949.43506   -820155.40647  23010945.80247       588.89900
   2514651.61307  21108534.03607   1946320.05948  21108529.79448     -2206.95100
  -2748229.16706  23508615.73106  -2135546.84447  23508611.18547      2245.21300
    481296.62504  24370059.06004    369020.28646  24370054.13046      -631.13800
    892531.59807  21821743.23107    689708.01948  21821737.84948     -1118.57700
  -1575644.26604  24466039.99704  -1228846.53546  24466035.43546      1758.47900
   4075224.00007  22597128.68507   3156934.63148  22597124.77148     -3575.53500
 08 11 10  0 30 45.0010000  0  9  3  6 13 16 19 21 23 25 31
  -1447349.97707  20992195.80207  -1126375.67448  20992192.41948       930.73100
   -134488.39107  20831392.86407   -107734.84048  20831390.10648      -181.39600
  -1060539.43006  23009292.63006   -826938.97747  23009288.85347       580.37200
   2547800.46107  21114842.16907   1972150.32348  21114837.78248     -2209.92300
  -2781859.19506  23502216.31006  -2161752.07747  23502211.93147      2242.00200
    490863.57805  24371878.95805    376474.99746  24371874.50946      -637.79700
    909460.52706  21824964.67706    702899.38348  21824959.29448     -1128.59500
  -1602017.73804  24461021.46604  -1249397.31046  24461016.74746      1758.23200
   4128927.57007  22607347.95807   3198781.55948  22607343.88448     -3580.23800
 08 11 10  0 31  0.0010000  0  9  3  6 13 16 19 21 23 25 31
  -1461197.62107  20989560.61407  -1137166.06948  20989557.39248       923.17600
   -131646.88307  20831933.83307   -105520.68048  20831930.84148      -189.43400
  -1069115.70706  23007660.52106   -833621.80147  23007656.84147       571.75200
   2580994.95306  21121158.52106   1998016.15448  21121154.83748     -2212.96600
  -2815439.77006  23495826.12206  -2187918.74947  23495821.62247      2238.70500
    500531.73005  24373719.23105    384008.65146  24373714.51346      -644.54300
    926540.98006  21828215.10606    716208.82748  21828209.77148     -1138.69700
  -1628386.17605  24456003.85605  -1269944.14446  24455999.32546      1757.89600
   4182702.59807  22617580.98907   3240684.17648  22617577.16548     -3585.00200
 08 11 10  0 31 15.0010000  0  9  3  6 13 16 19 21 23 25 31
  -1474931.94507  20986947.19207  -1147868.13448  20986943.95048       915.62200
   -128685.34407  20832497.47407   -103212.98448  20832494.30248      -197.43600
  -1077563.06306  23006053.24706   -840204.13447  23006049.57547       563.15700
   2614234.25406  21127483.52806   2023916.90748  21127479.25148     -2215.95300
  -2848971.30506  23489445.28606  -2214047.20347  23489440.70047      2235.43600
    510300.59805  24375578.39605    391620.76046  24375573.17746      -651.25800
    943772.34807  21831494.18507    729635.85648  21831488.76748     -1148.75800
  -1654749.86705  24450986.98105  -1290487.25946  24450983.47446      1757.57900
   4236548.47307  22627827.91907   3282641.97548  22627823.91148     -3589.72500
 08 11 10  0 31 30.0010000  0  9  3  6 13 16 19 21 23 25 31
  -1488553.18407  20984355.34907  -1158482.07748  20984351.76348       908.08300
   -125604.01607  20833083.98107   -100811.93748  20833080.97048      -205.42200
  -1085881.62106  23004470.57506   -846686.12947  23004466.84147       554.57100
   2647518.37506  21133817.45806   2049852.58848  21133813.17748     -2218.94100
  -2882453.53106  23483074.17706  -2240137.23647  23483069.82947      2232.14800
    520170.23805  24377456.23105    399311.39545  24377451.70045      -657.97600
    961154.53106  21834802.06006    743180.40548  21834796.49348     -1158.81200
  -1681108.93804  24445970.79404  -1311026.77646  24445967.84546      1757.27100
   4290465.03907  22638087.97407   3324654.86048  22638084.46248     -3594.43800
 08 11 10  0 31 45.0010000  0  9  3  6 13 16 19 21 23 25 31
  -1502060.17207  20981784.73107  -1169006.99848  20981781.77148       900.46600
   -122401.81607  20833693.14607    -98316.72448  20833690.29048      -213.48000
  -1094069.85506  23002912.45806   -853066.57047  23002908.44247       545.88200
   2680848.17606  21140159.88806   2075823.86948  21140155.40348     -2221.98700
  -2915885.31306  23476712.10606  -2266187.93947  23476708.50547      2228.78500
    530141.78105  24379353.12205    407081.46345  24379348.97845      -664.77000
    978688.43006  21838138.71606    756843.17748  21838133.10648     -1168.92700
  -1707462.08604  24440955.85604  -1331561.67846  24440952.47446      1756.87700
   4344453.12107  22648361.41107   3366723.48348  22648358.03248     -3599.20500
 08 11 10  0 32  0.0010000  0  9  3  6 13 16 19 21 23 25 31
  -1515453.60907  20979236.06707  -1179443.43548  20979232.93148       892.89600
   -119079.79307  20834325.08307    -95728.11948  20834321.85348      -221.46800
  -1102128.73806  23001378.86406   -859346.20747  23001374.91147       537.25900
   2714222.48007  21146510.63007   2101829.80148  21146506.30248     -2224.95400
  -2949267.36306  23470359.30206  -2292199.91947  23470355.44647      2225.47000
    540214.19105  24381269.32505    414930.14946  24381265.18146      -671.49400
    996373.07006  21841503.86406    770623.39248  21841498.21248     -1178.97600
  -1733810.16004  24435941.76304  -1352092.61446  24435938.78246      1756.53800
   4398511.58207  22658648.24707   3408846.94848  22658644.80648     -3603.89700
 08 11 10  0 32 15.0010000  0  9  3  6 13 16 19 21 23 25 31
  -1528733.30507  20976708.77107  -1189791.24148  20976705.89648       885.31300
   -115637.62507  20834980.00507    -93045.91248  20834977.31048      -229.47800
  -1110057.79306  22999869.88006   -865524.68147  22999866.02847       528.60400
   2747641.28507  21152870.33307   2127870.43248  21152866.23148     -2227.92000
  -2982599.17206  23464016.94206  -2318172.74147  23464013.15347      2222.12100
    550388.09805  24383205.38005    422857.82846  24383201.68546      -678.26000
   1014208.43006  21844897.90306    784521.08248  21844892.09148     -1189.02400
  -1760152.83204  24430928.43504  -1372619.33846  24430925.77846      1756.17800
   4452640.62107  22668948.77107   3451025.42148  22668944.66548     -3608.60300
 08 11 10  0 32 30.0010000  0  9  3  6 13 16 19 21 23 25 31
  -1541898.31307  20974203.73907  -1200049.68648  20974200.68148       877.66700
   -112074.55907  20835657.98907    -90269.49448  20835655.63448      -237.53800
  -1117855.96506  22998385.41906   -871601.17547  22998381.61447       519.87800
   2781105.30906  21159238.34906   2153946.29248  21159234.25548     -2230.93500
  -3015879.67206  23457682.91106  -2344105.59147  23457679.90747      2218.70000
    560664.37505  24385161.38805    430865.24546  24385157.86446      -685.08500
   1032195.53107  21848321.06007    798536.99248  21848314.88048     -1199.14000
  -1786489.12104  24425917.23104  -1393141.14246  24425913.33346      1755.75300
   4506841.03507  22679262.30207   3493259.49048  22679258.19648     -3613.36100
 08 11 10  0 32 45.0010000  0  9  3  6 13 16 19 21 23 25 31
  -1554948.83607  20971719.98907  -1210218.92248  20971717.03248       870.03500
   -108390.91807  20836359.22407    -87399.11048  20836356.54448      -245.57600
  -1125523.46106  22996926.45006   -877575.83047  22996922.46647       511.16600
   2814614.02007  21165614.94207   2180056.98448  21165610.24748     -2233.91400
  -3049109.03506  23451360.04406  -2369998.56847  23451356.57947      2215.29100
    571042.73005  24387135.52805    438952.32846  24387132.35646      -691.89000
   1050333.70307  21851772.09907    812670.62448  21851766.52848     -1209.21100
  -1812819.15604  24420906.54404  -1413658.02746  24420903.43146      1755.33600
   4561112.19507  22689589.88007   3535548.70548  22689586.20048     -3618.07700
 08 11 10  0 33  0.0010000  0  9  3  6 13 16 19 21 23 25 31
  -1567884.16807  20969258.41107  -1220298.40248  20969256.00948       862.35500
   -104586.15207  20837083.51307    -84434.35848  20837080.81348      -253.65100
  -1133059.52306  22995493.03606   -883448.09847  22995488.54847       502.40400
   2848167.94907  21172000.03607   2206202.89548  21171995.54048     -2236.92900
  -3082286.37906  23445047.05206  -2395851.03847  23445042.61847      2211.82300
    581523.97305  24389130.24705    447119.54246  24389127.20446      -698.74900
   1068623.57006  21855252.48106    826922.46848  21855246.92348     -1219.32400
  -1839142.16004  24415897.23104  -1434169.45146  24415893.82146      1754.86700
   4615454.55907  22699931.16907   3577893.38048  22699927.90348     -3622.82400
 08 11 10  0 33 15.0010000  0  9  3  6 13 16 19 21 23 25 31
  -1580703.09807  20966818.95807  -1230287.17148  20966816.98548       854.59500
   -100659.11706  20837830.43506    -81374.32548  20837827.56348      -261.80200
  -1140462.86306  22994083.77806   -889216.91547  22994079.77447       493.55600
   2881767.87906  21178394.24706   2232384.66448  21178389.70048     -2239.99500
  -3115410.32406  23438743.45806  -2421661.90647  23438739.13847      2208.26300
    592109.23805  24391145.02105    455367.77746  24391141.20846      -705.68400
   1087066.24207  21858762.15307    841293.35848  21858756.25548     -1229.51100
  -1865456.89804  24410889.89604  -1454674.43946  24410886.41946      1754.31600
   4669869.28507  22710285.79407   3620294.45648  22710282.86048     -3627.64800
 08 11 10  0 33 30.0010000  0  9  3  6 13 16 19 21 23 25 31
  -1593405.48407  20964402.17707  -1240185.12948  20964399.55648       846.82600
    -96609.95707  20838601.35607    -78219.12748  20838598.15748      -269.94400
  -1147733.16006  22992700.60606   -894882.08747  22992696.73947       484.68600
   2915413.76207  21184796.64607   2258602.21848  21184792.14648     -2243.05900
  -3148480.71106  23432450.83306  -2447431.01647  23432445.27147      2204.69200
    602798.66805  24393179.68505    463697.20946  24393175.51746      -712.62900
   1105661.53107  21862300.80207    855783.19048  21862294.80248     -1239.68600
  -1891763.17604  24405883.73104  -1475172.82546  24405880.61046      1753.75200
   4724356.17607  22720654.52107   3662751.74748  22720650.85648     -3632.45900
 08 11 10  0 33 45.0010000  0  9  3  6 13 16 19 21 23 25 31
  -1605988.96507  20962007.45807  -1249990.43348  20962005.08348       838.89900
    -92436.45306  20839395.05206    -74967.05048  20839392.01348      -278.23400
  -1154868.13306  22991342.47406   -900441.79447  22991338.73947       475.66500
   2949107.67206  21191208.18506   2284857.21848  21191203.53248     -2246.26100
  -3181495.16406  23426168.03606  -2473156.57747  23426162.57547      2200.96400
    613594.37505  24395234.31705    472109.45146  24395229.33346      -719.71400
   1124411.59007  21865868.74707    870393.62248  21865863.09548     -1250.00400
  -1918058.82004  24400879.91904  -1495662.91446  24400877.02446      1753.04300
   4778917.15207  22731036.84107   3705266.78848  22731033.90348     -3637.39800
 08 11 10  0 34  0.0010000  0  9  3  6 13 16 19 21 23 25 31
  -1618455.34007  20959635.24707  -1259704.49748  20959632.12248       831.09200
    -88140.39806  20840212.88006    -71619.47148  20840209.72848      -286.40400
  -1161869.37106  22990010.51306   -905897.32847  22990006.36047       466.74900
   2982847.70306  21197628.66106   2311148.15048  21197624.67348     -2249.33500
  -3214455.23006  23419895.70006  -2498839.72847  23419890.83747      2197.33800
    624494.78505  24397307.35605    480603.33546  24397303.81346      -726.69400
   1143314.55107  21869465.77107    885123.19048  21869460.15748     -1260.19700
  -1944345.30104  24395877.84104  -1516145.89046  24395875.26346      1752.43200
   4833550.34407  22741433.06007   3747838.08848  22741430.63448     -3642.21300
 08 11 10  0 34 15.0010000  0  9  3  6 13 16 19 21 23 25 31
  -1630804.49607  20957285.55207  -1269327.21148  20957282.90748       823.27700
    -83721.73407  20841053.32507    -68176.36048  20841050.24748      -294.57800
  -1168736.85906  22988703.19206   -911248.59647  22988699.79047       457.83300
   3016633.62106  21204057.65306   2337474.82948  21204053.96648     -2252.39500
  -3247360.59406  23413633.95806  -2524480.24547  23413628.87247      2193.69100
    635500.27705  24399401.63805    489178.96146  24399398.34546      -733.69900
   1162370.32007  21873092.17707    899971.83748  21873086.31348     -1270.38500
  -1970622.45305  24390877.31005  -1536621.60846  24390874.69646      1751.81000
   4888255.73407  22751843.48107   3790465.64848  22751841.00948     -3647.02600
 08 11 10  0 34 30.0010000  0  9  3  6 13 16 19 21 23 25 31
  -1643034.24607  20954958.31707  -1278856.87848  20954955.54048       815.31700
    -79178.60207  20841917.68507    -64636.24548  20841914.73548      -302.87600
  -1175468.31606  22987422.53606   -916493.88147  22987418.76747       448.76400
   3050467.32406  21210496.00506   2363838.74948  21210491.97848     -2255.58000
  -3280208.98006  23407383.01306  -2550076.39547  23407377.54847      2189.89200
    646612.68004  24401516.60604    497837.99746  24401512.34546      -740.82700
   1181580.90606  21876747.49706    914941.12748  21876742.10648     -1280.70600
  -1996888.14105  24385879.38805  -1557088.33846  24385876.66146      1751.04600
   4943035.22307  22762267.13007   3833150.95148  22762264.47048     -3651.96600
 08 11 10  0 34 45.0010000  0  9  3  6 13 16 19 21 23 25 31
  -1655144.72307  20952653.43507  -1288293.61048  20952651.14248       807.36500
    -74510.91806  20842806.11406    -60999.08448  20842803.20848      -311.17900
  -1182063.59806  22986166.96606   -921633.06347  22986163.88047       439.68500
   3084348.63306  21216943.59106   2390239.76648  21216939.41948     -2258.75400
  -3313000.29306  23401143.34106  -2575628.05147  23401138.86047      2186.08800
    657832.37505  24403652.70005    506580.57845  24403647.32545      -747.98000
   1200946.12506  21880432.55206    930030.89348  21880427.43548     -1291.01500
  -2023142.18004  24380883.76304  -1577546.04446  24380880.75546      1750.26900
   4997888.59807  22772705.78607   3875893.81848  22772701.99748     -3656.89200
 08 11 10  0 35  0.0010000  0  9  3  6 13 16 19 21 23 25 31
  -1667133.46507  20950372.46607  -1297635.48648  20950369.51748       799.24900
    -69716.94107  20843718.17707    -57263.51648  20843715.03248      -319.59800
  -1188520.47706  22984938.60606   -926664.39047  22984935.06047       430.45900
   3118279.27006  21223400.24706   2416679.21548  21223395.88048     -2262.04200
  -3345732.37106  23394914.35606  -2601133.57347  23394909.72847      2182.13900
    669161.05105  24405807.43505    515408.14145  24405802.76745      -755.24500
   1220467.80907  21884147.67707    945242.59548  21884142.00948     -1301.44600
  -2049382.51205  24375890.17705  -1597993.02546  24375887.59946      1749.35500
   5052817.61307  22783158.56007   3918695.63548  22783154.09148     -3661.93400
 08 11 10  0 35 15.0010000  0  9  3  6 13 16 19 21 23 25 31
  -1679001.82407  20948113.77807  -1306883.55548  20948111.08348       791.22400
    -64797.79307  20844654.54407    -53430.40648  20844651.24748      -327.94300
  -1194840.18806  22983735.95006   -931588.85247  22983732.44247       421.31400
   3152257.89106  21229866.26306   2443156.06348  21229861.91948     -2265.24100
  -3378406.16406  23388697.19206  -2626593.65547  23388692.13047      2178.25300
    680597.71104  24407984.04404    524319.81845  24407979.03645      -762.44400
   1240144.73407  21887892.34107    960575.23848  21887886.70048     -1311.79500
  -2075610.23805  24370899.31705  -1618430.24047  24370896.75547      1748.51500
   5107820.95707  22793624.84907   3961555.37948  22793621.27148     -3666.89000
 08 11 10  0 35 30.0010000  0  9  3  6 13 16 19 21 23 25 31
  -1690749.10507  20945878.31007  -1316037.27448  20945875.87648       783.15200
    -59753.10207  20845614.60607    -49499.47548  20845611.57948      -336.31300
  -1201021.83206  22982559.82506   -936405.70647  22982555.91147       412.11000
   3186284.84006  21236341.37206   2469670.58148  21236337.54048     -2268.46300
  -3411021.05106  23382490.63806  -2652007.85547  23382486.54447      2174.32600
    692142.91804  24410180.12204    533316.11345  24410176.22845      -769.68000
   1259977.19907  21891666.03607    976029.09148  21891660.48548     -1322.16400
  -2101824.79305  24365910.84905  -1638857.12946  24365907.97046      1747.63700
   5162899.02006  22804105.87206   4004473.33548  22804102.32548     -3671.87100
 08 11 10  0 35 45.0010000  0  9  3  6 13 16 19 21 23 25 31
  -1702376.12107  20943665.89607  -1325097.26948  20943663.20448       775.13400
    -54583.42607  20846598.59907    -45471.14848  20846594.98948      -344.64500
  -1207065.83206  22981408.97406   -941115.30047  22981405.85647       402.93300
   3220359.37106  21242825.44206   2496222.15348  21242821.53248     -2271.63500
  -3443577.28506  23376295.42706  -2677376.31547  23376290.87247      2170.41600
    703796.16403  24412397.40303    542396.61345  24412393.45445      -776.88300
   1279964.59007  21895470.00507    991603.69048  21895464.16948     -1332.49300
  -2128026.44906  24360925.20806  -1659273.99847  24360921.46647      1746.77700
   5218051.03506  22814601.15306   4047448.91248  22814598.67748     -3676.80100
 08 11 10  0 36  0.0010000  0  9  3  6 13 16 19 21 23 25 31
  -1713883.64807  20941475.84907  -1334064.17948  20941472.72048       767.16800
    -49289.98407  20847605.59907    -41346.38448  20847602.52848      -352.89600
  -1212973.43406  22980285.52106   -945718.63547  22980282.05647       393.84000
   3254480.29706  21249318.59906   2522809.88348  21249314.30648     -2274.72800
  -3476075.73406  23370110.87206  -2702699.79447  23370106.91947      2166.56300
    715556.52304  24414636.75504    551560.52145  24414631.54445      -784.02400
   1300105.57407  21899302.65307   1007297.94348  21899296.99748     -1342.73200
  -2154216.19505  24355940.44205  -1679681.57047  24355937.97047      1745.98300
   5273275.68407  22825110.49707   4090481.07648  22825107.45448     -3681.64300
 08 11 10  0 36 15.0010000  0  9  3  6 13 16 19 21 23 25 31
  -1725269.94907  20939308.92707  -1342936.60948  20939306.09548       759.08700
    -43871.14107  20848637.05207    -37123.91248  20848633.90748      -361.25600
  -1218742.69106  22979187.92706   -950214.16247  22979183.35647       384.61700
   3288649.01606  21255820.80206   2549434.84548  21255816.41548     -2277.91500
  -3508514.68006  23363937.96606  -2727976.87347  23363934.00547      2162.59600
    727425.66004  24416894.81004    560809.17245  24416890.32545      -791.27600
   1320401.69507  21903164.47407   1023113.10348  21903159.18848     -1353.07500
  -2180392.32805  24350959.82505  -1700078.55147  24350956.58347      1745.07600
   5328574.59807  22835633.56707   4133571.12348  22835629.93848     -3686.59400
 08 11 10  0 36 30.0020000  0  9  3  6 13 16 19 21 23 25 31
  -1736536.49207  20937165.21307  -1351715.73248  20937161.97548       751.10300
    -38327.31307  20849691.56407    -32804.03448  20849688.82248      -369.58900
  -1224374.50806  22978116.01806   -954602.59947  22978111.90447       375.45400
   3322866.89107  21262332.50207   2576098.12448  21262328.00248     -2281.19200
  -3540896.75806  23357775.94706  -2753209.64147  23357771.77147      2158.80500
    739403.70704  24419173.86904    570142.73845  24419169.27145      -798.53600
   1340853.62107  21907056.65007   1039049.64548  21907050.89348     -1363.46200
  -2206557.12505  24345981.01005  -1720466.70147  24345977.35747      1744.32000
   5383950.55507  22846170.76807   4176721.21248  22846167.36548     -3691.73000
 08 11 10  0 36 45.0020000  0  9  3  6 13 16 19 21 23 25 31
  -1747683.42207  20935043.70507  -1360401.64048  20935041.34248       743.12900
    -32660.97307  20850769.76007    -28388.70148  20850767.35048      -377.75600
  -1229869.75806  22977070.65006   -958884.62447  22977066.44347       366.35000
   3357127.51606  21268852.00206   2602794.71748  21268847.88148     -2284.04200
  -3573219.16806  23351624.97906  -2778395.95247  23351620.76447      2154.82700
    751487.46104  24421473.80704    579558.62945  24421468.51445      -805.58400
   1361456.71507  21910977.34607   1055103.99048  21910971.34648     -1373.54000
  -2232708.69906  24341004.08006  -1740844.51347  24341000.76047      1743.43800
   5439394.07806  22856721.01006   4219923.94848  22856718.60048     -3696.23500
 08 11 10  0 37  0.0020000  0  9  3  6 13 16 19 21 23 25 31
  -1758710.09007  20932945.75207  -1368993.84648  20932942.79548       735.11100
    -26870.91007  20851871.89307    -23876.96848  20851868.90848      -386.00400
  -1235227.71506  22976050.66606   -963059.64547  22976047.29947       357.19700
   3391434.00807  21275380.22107   2629527.04048  21275375.84248     -2287.09900
  -3605482.82806  23345485.37706  -2803536.45747  23345481.26447      2150.91100
    763678.55105  24423793.08005    589058.15645  24423788.26845      -812.73900
   1382213.15607  21914927.26807   1071277.84148  21914921.47548     -1383.76300
  -2258847.61706  24336030.27506  -1761212.47847  24336026.63947      1742.59500
   5494909.85507  22867285.62707   4263182.97948  22867283.04148     -3701.05200
 08 11 10  0 37 15.0020000  0  9  3  6 13 16 19 21 23 25 31
  -1769616.82407  20930870.15007  -1377492.59448  20930867.24848       727.11600
    -20957.07407  20852997.04107    -19268.77548  20852994.47948      -394.25600
  -1240448.33606  22975057.61106   -967127.65947  22975054.20147       348.04100
   3425786.13707  21281917.53307   2656294.93348  21281912.43948     -2290.14200
  -3637687.42606  23339357.09606  -2828630.92847  23339352.51847      2146.97300
    775977.44105  24426134.33805    598641.73245  24426129.46745      -819.92600
   1403122.89507  21918906.26007   1087571.13548  21918900.20948     -1393.98300
  -2284973.81305  24331058.94705  -1781570.54347  24331055.07647      1741.74600
   5550497.85906  22877864.18906   4306498.27148  22877861.22148     -3705.86700
 08 11 10  0 37 30.0020000  0  9  3  6 13 16 19 21 23 25 31
  -1780403.14507  20928817.72107  -1385897.51948  20928814.36948       719.08800
    -14919.25007  20854146.26007    -14563.97448  20854143.18248      -402.52200
  -1245530.83206  22974090.04906   -971088.04347  22974086.54947       338.83300
   3460184.18007  21288462.99407   2683098.60548  21288458.47548     -2293.20300
  -3669832.46106  23333239.86106  -2853679.00347  23333235.27947      2143.00200
    788384.47705  24428494.72105    608309.48545  24428490.28745      -827.13600
   1424186.24607  21922914.26007   1103984.13248  21922908.38548     -1404.22300
  -2311086.56306  24326089.19706  -1801918.11147  24326085.49447      1740.85000
   5606158.31606  22888455.79906   4349870.03648  22888452.46348     -3710.69700
 08 11 10  0 37 45.0020000  0  9  3  6 13 16 19 21 23 25 31
  -1791070.48007  20926787.78307  -1394209.72048  20926784.52548       711.15600
     -8759.10207  20855318.33007     -9763.85748  20855315.95548      -410.67700
  -1250476.82806  22973148.68906   -974942.06447  22973145.19747       329.73300
   3494626.31607  21295017.01807   2709936.62648  21295012.51848     -2296.14200
  -3701919.55106  23327134.64306  -2878681.90647  23327129.29947      2139.13900
    800897.87505  24430876.33005    618060.25846  24430871.99846      -834.22700
   1445401.31607  21926951.17407   1120515.34848  21926945.36948     -1414.33800
  -2337187.56605  24321121.90005  -1822256.53347  24321118.86147      1740.06700
   5661889.35907  22899061.10407   4393296.80648  22899057.88148     -3715.40300
 08 11 10  0 38  0.0020000  0  9  3  6 13 16 19 21 23 25 31
  -1801619.16407  20924780.68207  -1402429.47848  20924777.06448       703.24600
     -2477.12907  20856513.76007     -4868.80648  20856510.95948      -418.79800
  -1255286.63306  22972233.40806   -978689.97647  22972229.75247       320.65400
   3529111.87107  21301579.03307   2736808.47548  21301575.05748     -2299.03700
  -3733948.82006  23321039.76806  -2903639.78747  23321034.42847      2135.28500
    813517.37505  24433277.49405    627893.63046  24433273.90046      -841.30000
   1466767.62507  21931017.08807   1137164.40848  21931011.21748     -1424.42100
  -2363277.09006  24316157.76006  -1842586.02447  24316153.68947      1739.30200
   5717690.38307  22909679.76807   4436778.09848  22909676.58448     -3720.06800
 08 11 10  0 38 15.0020000  0  9  3  6 13 16 19 21 23 25 31
  -1812048.62907  20922795.81407  -1410556.31648  20922792.56448       695.29800
      3927.27707  20857732.40807       121.63548  20857729.74048      -426.96000
  -1259959.68006  22971344.16606   -982331.29047  22971340.76447       311.53600
   3563641.22307  21308150.37707   2763714.45348  21308145.97148     -2301.95700
  -3765919.50006  23314955.45506  -2928551.97447  23314951.41247      2131.37900
    826243.65605  24435699.21305    637810.19346  24435695.30746      -848.41900
   1488285.42207  21935111.70507   1153931.51948  21935105.98248     -1434.52000
  -2389354.37905  24311194.97105  -1862905.96547  24311191.06447      1738.48600
   5773561.72306  22920311.49406   4480314.20748  22920308.18948     -3724.75600
 08 11 10  0 38 30.0020000  0  9  3  6 13 16 19 21 23 25 31
  -1822356.36707  20920834.11107  -1418588.32248  20920831.27148       687.18300
     10456.33207  20858974.72907      5209.21648  20858971.88148      -435.27000
  -1264493.39806  22970481.40006   -985864.06847  22970477.65847       302.24800
   3598216.64507  21314729.52507   2790656.34548  21314725.56148     -2305.02800
  -3797829.00006  23308883.59606  -2953416.50947  23308878.57247      2127.30000
    839079.23405  24438141.54105    647811.91045  24438137.60045      -855.70500
   1509957.12907  21939235.78307   1170818.54648  21939229.93248     -1444.78000
  -2415416.89106  24306235.33006  -1883214.39747  24306231.56847      1737.50100
   5829505.60507  22930957.30707   4523906.83448  22930954.06148     -3729.59200
 08 11 10  0 38 45.0020000  0  9  3  6 13 16 19 21 23 25 31
  -1832544.10207  20918895.50207  -1426526.80748  20918892.36948       679.18200
     17107.99607  20860240.90007     10392.33248  20860237.84648      -443.44400
  -1268889.19106  22969645.41606   -989289.32047  22969641.55747       293.05300
   3632836.35207  21321317.58807   2817632.73548  21321313.42848     -2307.98000
  -3829678.74206  23302822.75206  -2978234.47847  23302818.56847      2123.31600
    852022.35905  24440604.47905    657897.44845  24440600.32245      -862.87500
   1531780.93407  21943388.92407   1187824.09948  21943383.26848     -1454.92000
  -2441466.15205  24301278.75205  -1903512.49747  24301274.80347      1736.61700
   5885520.27706  22941616.68206   4567554.60748  22941613.12348     -3734.31100
 08 11 10  0 39  0.0020000  0  9  3  6 13 16 19 21 23 25 31
  -1842611.70707  20916980.12707  -1434371.67548  20916976.65848       671.17400
     23882.80107  20861529.78307     15671.39948  20861526.64648      -451.65400
  -1273146.82806  22968835.43906   -992606.99347  22968831.02947       283.84200
   3667500.32806  21327913.67406   2844643.62048  21327909.34648     -2310.93200
  -3861468.45706  23296773.01806  -3003005.66947  23296768.99847      2119.31400
    865073.11705  24443088.98605    668066.87545  24443084.07245      -870.05100
   1553756.62507  21947570.67407   1204947.98448  21947565.09248     -1465.04600
  -2467502.00405  24296323.80705  -1923800.16247  24296321.15447      1735.72300
   5941605.60907  22952289.59607   4611257.44648  22952285.33048     -3739.02200
 08 11 10  0 39 15.0020000  0  9  3  6 13 16 19 21 23 25 31
  -1852558.12907  20915087.18207  -1442122.13248  20915084.38948       663.09500
     30781.26207  20862842.87707     21046.83448  20862839.97148      -459.89700
  -1277265.43406  22968051.41606   -995816.29647  22968047.31447       274.57400
   3702209.09807  21334519.01007   2871689.41348  21334514.11148     -2313.91800
  -3893197.09006  23290735.18906  -3027729.25547  23290730.55747      2115.24200
    878232.58604  24445592.18904    678320.96346  24445587.94346      -877.29800
   1575885.17207  21951781.56407   1222190.99848  21951775.69748     -1475.23600
  -2493523.33205  24291372.20505  -1944076.49147  24291369.05747      1734.75500
   5997762.32406  22962975.55706   4655015.90648  22962972.02948     -3743.78100
 08 11 10  0 39 30.0020000  0  9  3  6 13 16 19 21 23 25 31
  -1862383.13707  20913217.52507  -1449777.97148  20913214.74848       655.00100
     37803.59807  20864178.63507     26518.79448  20864175.90048      -468.15600
  -1281244.76606  22967293.41606   -998917.05547  22967289.77147       265.28900
   3736962.81607  21341132.40807   2898770.23748  21341127.88948     -2316.91500
  -3924864.27006  23284709.54106  -3052404.96747  23284704.66647      2111.14500
    891501.00805  24448117.29905    688660.13346  24448113.57646      -884.56100
   1598166.50007  21956021.68207   1239553.07548  21956015.85048     -1485.42200
  -2519529.88706  24286423.51006  -1964341.33847  24286420.34247      1733.77000
   6053990.43007  22973675.40007   4698829.97748  22973672.21348     -3748.54000
 08 11 10  0 39 45.0020000  0  9  3  6 13 16 19 21 23 25 31
  -1872084.48807  20911371.12707  -1457337.45048  20911368.89348       646.75700
     44951.78907  20865539.18907     32088.82348  20865536.21748      -476.54600
  -1285082.67206  22966563.64306  -1001907.63447  22966559.56447       255.86000
   3771763.49207  21347754.63507   2925887.63248  21347750.42448     -2320.04500
  -3956467.73406  23278695.63506  -3077031.02747  23278691.08047      2106.89800
    904880.54305  24450664.07205    699085.79046  24450659.01446      -891.96900
   1620602.58607  21960291.33807   1257035.72148  21960285.74448     -1495.73900
  -2545519.39506  24281478.03306  -1984592.89947  24281475.41247      1732.63400
   6110291.85507  22984389.65007   4742701.21848  22984385.98248     -3753.42800
 08 11 10  0 40  0.0020000  0  9  3  6 13 16 19 21 23 25 31
  -1881662.79307  20909548.59607  -1464801.05248  20909545.74048       638.55400
     52225.56307  20866923.39307     37756.69448  20866920.60448      -484.91800
  -1288779.41406  22965860.05706  -1004788.20347  22965855.66647       246.44900
   3806610.16407  21354385.72107   2953040.89248  21354381.51048     -2323.11100
  -3988007.63306  23272693.71306  -3101607.55047  23272688.92047      2102.66000
    918370.77305  24453230.46305    709597.61646  24453225.82246      -899.34900
   1643192.80107  21964589.75207   1274638.47648  21964584.10448     -1506.01400
  -2571492.17605  24276534.67405  -2004831.40847  24276532.70547      1731.51900
   6166666.00007  22995117.16607   4786629.10548  22995113.86548     -3758.27600
 08 11 10  0 40 15.0020000  0  9  3  6 13 16 19 21 23 25 31
  -1891115.91807  20907749.80707  -1472167.10548  20907746.48248       630.20800
     59626.41407  20868331.63507     43523.60148  20868329.02548      -493.39000
  -1292332.78506  22965184.11906  -1007557.09347  22965179.72947       236.89100
   3841504.84807  21361026.10407   2980231.54748  21361021.07248     -2326.31200
  -4019481.86706  23266704.23606  -3126132.91048  23266699.77948      2098.28200
    931973.69105  24455819.01005    720197.34046  24455815.05346      -906.86100
   1665938.90207  21968918.11107   1292362.71348  21968912.40448     -1516.40700
  -2597446.08205  24271596.23605  -2025055.21347  24271593.77947      1730.26000
   6223114.64107  23005859.01807   4830615.03748  23005855.35748     -3763.24300
 08 11 10  0 40 30.0020000  0  9  3  6 13 16 19 21 23 25 31
  -1900445.23807  20905974.17407  -1479436.70648  20905971.08848       621.95500
     67153.05107  20869764.08807     49388.51648  20869761.02548      -501.77600
  -1295743.82406  22964534.72906  -1010215.04047  22964530.47147       227.40300
   3876446.03907  21367674.94707   3007458.44248  21367670.37348     -2329.41300
  -4050891.67206  23260727.14306  -3150608.06247  23260723.05347      2093.98700
    945688.00405  24458428.58805    730883.83246  24458424.15446      -914.28800
   1688839.51607  21973276.22907   1310207.35248  21973270.61548     -1526.70800
  -2623382.28906  24266661.09606  -2045265.21047  24266658.41247      1729.08000
   6279636.27707  23016614.29107   4874657.85048  23016611.40448     -3768.10900
 08 11 10  0 40 45.0020000  0  9  3  6 13 16 19 21 23 25 31
  -1909649.88307  20904222.89307  -1486609.15648  20904219.72548       613.64300
     74806.02707  20871220.24407     55351.88648  20871217.44348      -510.19800
  -1299011.96506  22963912.58006  -1012761.64747  22963908.93247       217.87600
   3911434.19907  21374333.10407   3034721.94348  21374328.49848     -2332.54400
  -4082236.15606  23254762.01006  -3175032.32347  23254758.17847      2089.63200
    959514.55105  24461059.97905    741657.80746  24461055.36546      -921.77000
   1711895.23407  21977663.56407   1328172.83248  21977657.63548     -1537.04800
  -2649300.03906  24261729.05706  -2065460.85747  24261725.99447      1727.85000
   6336231.51207  23027384.44707   4918758.01948  23027381.18248     -3773.01600
 08 11 10  0 41  0.0020000  0  9  3  6 13 16 19 21 23 25 31
  -1918729.60907  20902494.97907  -1493684.26548  20902491.74048       605.31500
     82585.34007  20872700.73607     61413.68348  20872697.85448      -518.62100
  -1302137.30906  22963318.55706  -1015196.96147  22963314.22547       208.35600
   3946469.23807  21380999.72907   3062021.98148  21380995.38548     -2335.66900
  -4113515.02306  23248810.04106  -3199405.46647  23248805.67047      2085.25800
    973453.24606  24463713.31406    752519.12146  24463707.21346      -929.24600
   1735105.95707  21982080.30707   1346259.10648  21982074.67848     -1547.38200
  -2675199.12506  24256800.25206  -2085641.91347  24256797.45547      1726.60600
   6392900.10907  23038168.29907   4962915.35348  23038164.76448     -3777.90700
 08 11 10  0 41 15.0020000  0  9  3  6 13 16 19 21 23 25 31
  -1927685.26607  20900790.86907  -1500662.68848  20900787.96748       597.04400
     90489.84807  20874204.86907     67573.04548  20874201.95948      -526.96700
  -1305120.10506  22962750.67406  -1017521.22147  22962747.03747       198.85300
   3981550.11307  21387675.49407   3089357.72148  21387671.19348     -2338.72500
  -4144728.96106  23242870.27506  -3223728.00547  23242865.84647      2080.92900
    987503.38706  24466387.11106    763467.34946  24466381.56846      -936.67600
   1758470.46507  21986526.04907   1364465.20148  21986520.31448     -1557.63400
  -2701080.28106  24251875.61906  -2105809.03647  24251872.40447      1725.41000
   6449641.02307  23048965.39307   5007129.05248  23048962.36548     -3782.72800
 08 11 10  0 41 30.0020000  0  9  3  6 13 16 19 21 23 25 31
  -1936516.68007  20899110.39307  -1507544.31048  20899107.51048       588.76100
     98520.20307  20875732.86907     73830.47648  20875729.92048      -535.35700
  -1307960.12106  22962210.53306  -1019734.22747  22962206.61147       189.33400
   4016676.93407  21394359.83007   3116729.26948  21394355.72948     -2341.78800
  -4175877.34406  23236943.13506  -3247999.45647  23236938.77947      2076.55900
   1001665.29305  24469080.78305    774502.56346  24469077.00246      -944.12700
   1781988.75807  21991002.11907   1382791.12448  21990996.24448     -1567.88600
  -2726943.14806  24246953.92406  -2125961.91847  24246951.14647      1724.19100
   6506454.35507  23059776.84607   5051399.15548  23059773.96748     -3787.55500
 08 11 10  0 41 45.0020000  0  9  3  6 13 16 19 21 23 25 31
  -1945222.49607  20897453.25207  -1514328.04848  20897450.24048       580.38800
    106677.40207  20877285.12707     80186.73048  20877282.15448      -543.81300
  -1310656.03106  22961696.81406  -1021834.92547  22961693.51047       179.72700
   4051851.01607  21401053.36107   3144137.65048  21401049.08448     -2344.93900
  -4206958.96106  23231028.37706  -3272218.87847  23231023.78347      2072.10800
   1015940.30505  24471797.09605    785625.92446  24471793.24846      -951.66700
   1805662.04707  21995506.72107   1401237.83648  21995501.07248     -1578.21900
  -2752786.14506  24242036.44706  -2146099.27547  24242033.74047      1722.86600
   6563341.20707  23070601.68907   5095726.55748  23070598.71348     -3792.45700
 08 11 10  0 42  0.0020000  0  9  3  6 13 16 19 21 23 25 31
  -1953803.24207  20895820.36907  -1521014.33148  20895817.99848       572.05000
    114960.75007  20878861.51807     86641.29148  20878858.49048      -552.22300
  -1313208.31306  22961210.80706  -1023823.70947  22961207.70947       170.15200
   4087071.32007  21407755.49407   3171582.04048  21407751.34248     -2348.02000
  -4237973.93006  23225126.44706  -3296386.38547  23225121.92047      2067.66500
   1030327.97305  24474535.55705    796837.13445  24474531.17845      -959.17800
   1829489.75807  22000040.92407   1419804.87548  22000035.62748     -1588.51400
  -2778609.71106  24237122.52506  -2166221.52347  24237119.83047      1721.57100
   6620300.98007  23081441.14307   5140110.78748  23081437.92048     -3797.31800
 08 11 10  0 42 15.0020000  0  9  3  6 13 16 19 21 23 25 31
  -1962261.08207  20894210.95507  -1527604.85748  20894208.44348       563.85600
    123367.93407  20880461.49407     93192.34348  20880458.39648      -560.47900
  -1315618.94106  22960752.45506  -1025702.13847  22960749.27947       160.70900
   4122335.57007  21414465.77507   3199060.65948  21414461.89648     -2350.95000
  -4268924.37506  23219236.84606  -3320503.59348  23219232.42048      2063.36300
   1044826.15204  24477293.22104    808134.43445  24477290.33045      -966.54500
   1853469.50406  22004604.22106   1438490.38048  22004598.54148     -1598.65000
  -2804416.02006  24232210.86106  -2186330.29747  24232208.81847      1720.42100
   6677331.18807  23092293.55707   5184549.88348  23092290.18648     -3802.01400
 08 11 10  0 42 30.0020000  0  9  3  6 13 16 19 21 23 25 31
  -1970594.41007  20892624.99407  -1534098.34748  20892622.69348       555.55500
    131900.39507  20882084.91607     99841.02048  20882082.10448      -568.83100
  -1317886.40206  22960321.27506  -1027468.98647  22960317.77547       151.16400
   4157645.22707  21421185.67407   3226574.67648  21421180.94748     -2353.97700
  -4299808.47306  23213359.93206  -3344569.13247  23213355.31847      2058.94000
   1059436.46904  24480073.65804    819519.08045  24480069.81145      -974.02100
   1877602.77007  22009196.38507   1457295.51548  22009191.31848     -1608.88400
  -2830203.23006  24227304.50206  -2206424.21647  24227301.67447      1719.14700
   6734433.30106  23103159.63506   5229045.01548  23103156.33848     -3806.80800
 08 11 10  0 42 45.0020000  0  9  3  6 13 16 19 21 23 25 31
  -1978802.53507  20891062.99407  -1540494.27548  20891060.68648       547.20800
    140558.73807  20883732.61107    106587.79148  20883730.00648      -577.22300
  -1320009.92606  22959917.26006  -1029123.69847  22959913.63547       141.56800
   4193000.80507  21427913.63507   3254124.47048  21427908.84248     -2357.03900
  -4330625.37906  23207495.53306  -3368582.27547  23207491.22947      2054.46000
   1074159.41004  24482875.40804    830991.53445  24482871.17045      -981.52900
   1901889.94507  22013817.95507   1476220.59148  22013813.01048     -1619.14500
  -2855970.52306  24222401.29906  -2226502.61847  24222397.81147      1717.82000
   6791607.84006  23114039.78306   5273596.59248  23114036.43648     -3811.63600
 08 11 10  0 43  0.0020000  0  9  3  6 13 16 19 21 23 25 31
  -1986885.69507  20889525.28307  -1546792.83848  20889522.38548       538.87700
    149342.42207  20885403.69707    113432.22648  20885401.51448      -585.57900
  -1321989.85506  22959539.80706  -1030666.49847  22959536.65847       131.99500
   4228401.44907  21434649.95507   3281709.39048  21434645.40048     -2360.04300
  -4361375.61306  23201643.92406  -3392543.49447  23201639.54547      2050.01600
   1088994.60205  24485699.18905    842551.43146  24485694.17446      -989.01300
   1926330.25406  22018468.96306   1495264.96748  22018464.15848     -1629.35400
  -2881718.37906  24217501.76806  -2246565.87647  24217498.53747      1716.52400
   6848853.96506  23124933.00206   5318203.95448  23124930.52148     -3816.40800
 08 11 10  0 43 15.0020000  0  9  3  6 13 16 19 21 23 25 31
  -1994841.78107  20888011.13507  -1552992.37248  20888008.60048       530.40600
    158253.83607  20887099.69707    120376.18548  20887096.89648      -594.09400
  -1323823.72306  22959191.54906  -1032095.47847  22959187.88947       122.25800
   4263849.33207  21441395.01807   3309331.11848  21441391.16648     -2363.19200
  -4392056.62106  23195805.51006  -3416450.76947  23195801.12747      2045.40100
   1103944.49205  24488544.29905    854200.76446  24488539.28746      -996.65900
   1950925.94907  22023149.54107   1514430.44248  22023144.36948     -1639.71300
  -2907444.28506  24212605.93906  -2266612.01647  24212602.45147      1715.06000
   6906173.74206  23135840.70506   5362868.70648  23135837.45948     -3821.31800
 08 11 10  0 43 30.0020000  0  9  3  6 13 16 19 21 23 25 31
  -2002674.81607  20886520.72907  -1559096.03148  20886518.10748       522.20200
    167288.33607  20888819.17407    127416.05548  20888816.23648      -602.30000
  -1325515.64106  22958869.23606  -1033413.85147  22958865.79947       112.79500
   4299340.27007  21448149.31407   3336986.38848  21448145.02948     -2366.06300
  -4422672.29306  23189979.40006  -3440307.15847  23189975.41247      2041.04500
   1119004.72705  24491410.01805    865936.01046  24491405.64346     -1004.01600
   1975672.67207  22027858.41607   1533713.59048  22027853.22148     -1649.78200
  -2933152.22306  24207713.94706  -2286644.15947  24207709.86147      1713.86300
   6963563.03906  23146761.65006   5407587.61148  23146758.31448     -3825.95300
 08 11 10  0 43 45.0020000  0  9  3  6 13 16 19 21 23 25 31
  -2010383.27707  20885054.01807  -1565102.61348  20885051.06448       513.89700
    176447.57007  20890562.07207    134553.13548  20890559.07248      -610.61600
  -1327064.06306  22958574.58006  -1034620.42247  22958571.11947       103.22800
   4334875.57007  21454910.84607   3364676.22348  21454906.90048     -2369.02000
  -4453220.86706  23184166.29906  -3464111.21247  23184162.73247      2036.57200
   1134177.13705  24494297.77505    877758.65946  24494292.55346     -1011.49400
   2000571.68407  22032596.80707   1553115.41948  22032591.76448     -1659.93400
  -2958840.52006  24202825.41606  -2306661.01547  24202821.64347      1712.55300
   7021023.15607  23157695.58807   5452361.71748  23157692.53748     -3830.67400
 08 11 10  0 44  0.0020000  0  9  3  6 13 16 19 21 23 25 31
  -2017967.18008  20883610.41608  -1571012.13548  20883607.52148       505.59300
    185731.08207  20892328.60407    141787.03948  20892325.60048      -618.90100
  -1328469.02306  22958307.22106  -1035715.19847  22958303.67447        93.66400
   4370454.94907  21461681.90807   3392400.41348  21461676.88948     -2371.95900
  -4483702.45306  23178365.93206  -3487863.08147  23178362.14347      2032.10600
   1149461.35905  24497205.96305    889668.41946  24497201.23246     -1018.94800
   2025622.77307  22037364.13507   1572635.73248  22037358.80348     -1670.07300
  -2984509.23006  24197941.09606  -2326662.57747  24197937.33847      1711.24700
   7078553.69906  23168643.41606   5497190.69148  23168640.29548     -3835.37000
 08 11 10  0 44 15.0020000  0  9  3  6 13 16 19 21 23 25 31
  -2025425.96507  20882191.34607  -1576824.16648  20882188.27148       497.25200
    195139.66007  20894119.27507    149118.39948  20894115.85048      -627.23900
  -1329729.68406  22958067.35406  -1036697.52947  22958063.66647        84.04400
   4406078.81307  21468460.56407   3420159.27148  21468456.01448     -2374.92400
  -4514116.06306  23172578.34606  -3511561.99247  23172574.51447      2027.57400
   1164858.14105  24500135.04905    901665.94646  24500131.47146     -1026.45200
   2050826.33607  22042160.01807   1592274.88048  22042154.65448     -1680.23800
  -3010157.56606  24193060.30706  -2346648.28247  24193056.52147      1709.88900
   7136155.06607  23179604.65007   5542074.85648  23179601.95548     -3840.09100
 08 11 10  0 44 30.0020000  0  9  3  6 13 16 19 21 23 25 31
  -2032760.22707  20880795.25207  -1582539.16748  20880792.31848       488.95100
    204672.48007  20895933.31407    156546.57848  20895929.85448      -635.52100
  -1330846.50006  22957854.65806  -1037567.75847  22957850.70547        74.45400
   4441746.48407  21475247.97907   3447952.26248  21475242.98648     -2377.84500
  -4544462.02306  23166803.69706  -3535208.17447  23166799.55347      2023.06400
   1180367.01605  24503086.56405    913750.83046  24503083.22546     -1033.92500
   2076181.77007  22046984.80707   1612032.35448  22046979.93948     -1690.36200
  -3035785.85206  24188183.24406  -2366618.38947  24188179.18647      1708.55200
   7193826.71107  23190579.47107   5587013.78547  23190575.51847     -3844.77600
 08 11 10  0 44 45.0020000  0  9  3  6 13 16 19 21 23 25 31
  -2039967.48807  20879424.11907  -1588155.20048  20879421.00248       480.48400
    214331.89807  20897771.19707    164073.41148  20897768.09648      -643.96100
  -1331817.32406  22957670.16606  -1038324.26147  22957665.46747        64.72200
   4477459.96507  21482044.13507   3475780.93748  21482039.94348     -2380.89900
  -4574738.17206  23161042.47906  -3558799.97747  23161038.38147      2018.41000
   1195989.96105  24506059.75205    925924.47046  24506055.83446     -1041.53000
   2101690.95707  22051838.72107   1631909.63348  22051833.70548     -1700.61300
  -3061391.77006  24183310.47906  -2386571.04247  24183306.57647      1707.06100
   7251570.51607  23201567.86107   5632008.94747  23201563.83047     -3849.58700
 08 11 10  0 45  0.0020000  0  9  3  6 13 16 19 21 23 25 31
  -2047047.66407  20878076.99407  -1593672.21648  20878073.93248       472.01200
    224117.84807  20899633.15807    171698.82748  20899630.31148      -652.39700
  -1332641.90606  22957513.23606  -1038966.77347  22957508.92447        54.97200
   4513219.36307  21488848.89307   3503645.40148  21488844.99848     -2383.96000
  -4604944.06606  23155294.54906  -3582337.03447  23155289.85447      2013.72600
   1211727.70705  24509053.95505    938187.64746  24509050.38146     -1049.18300
   2127353.94907  22056722.69707   1651906.76148  22056717.18648     -1710.86600
  -3086974.86306  24178441.90806  -2406505.91446  24178438.87746      1705.54000
   7309386.62906  23212569.18206   5677060.44947  23212565.19347     -3854.40800
 08 11 10  0 45 15.0020000  0  9  3  6 13 16 19 21 23 25 31
  -2054001.60507  20876753.36107  -1599090.86548  20876750.60448       463.59600
    234028.99607  20901519.66607    179421.80348  20901516.02548      -660.74300
  -1333320.94906  22957383.50206  -1039495.90647  22957380.17447        45.27000
   4549023.49607  21495662.25207   3531544.72048  21495657.51448     -2386.94200
  -4635080.48406  23149559.57206  -3605819.95647  23149554.93247      2009.09500
   1227579.04705  24512070.69705    950539.37646  24512066.72546     -1056.75600
   2153169.50407  22061635.29107   1672022.76048  22061629.77548     -1721.03700
  -3112536.21906  24173577.70506  -2426423.81646  24173574.33046      1704.09000
   7367273.72706  23223585.43906   5722167.25947  23223580.75247     -3859.14000
 08 11 10  0 45 30.0020000  0  9  3  6 13 16 19 21 23 25 31
  -2060829.74207  20875454.46307  -1604411.50048  20875451.51048       455.20900
    244065.08207  20903429.08007    187242.13848  20903425.80348      -669.07200
  -1333854.73006  22957282.21306  -1039911.84647  22957278.80747        35.58500
   4584871.80907  21502484.01007   3559478.46648  21502479.27948     -2389.88700
  -4665147.63706  23143837.46306  -3629248.87447  23143832.76047      2004.47700
   1243543.68805  24515108.69705    962979.39446  24515104.38946     -1064.30900
   2179137.07807  22066576.76007   1692257.22048  22066571.14648     -1731.17200
  -3138075.86305  24168717.42405  -2446324.81446  24168714.78746      1702.64300
   7425231.19106  23234614.28306   5767328.90247  23234610.07247     -3863.83100
 08 11 10  0 45 45.0020000  0  9  3  6 13 16 19 21 23 25 31
  -2067532.81307  20874178.74407  -1609634.66648  20874175.70548       446.87100
    254225.60907  20905362.54907    195159.42648  20905359.67848      -677.36800
  -1334244.05506  22957208.36906  -1040215.20847  22957204.70947        25.95500
   4620763.52007  21509313.61907   3587446.03148  21509308.93948     -2392.78100
  -4695146.10506  23138129.27506  -3652624.27947  23138124.60747      1999.89800
   1259620.81305  24518168.51805    975507.00646  24518164.06146     -1071.80800
   2205255.81607  22071547.08807   1712609.48648  22071541.35048     -1741.24900
  -3163594.41405  24163861.68205  -2466209.38346  24163858.72546      1701.23700
   7483258.29706  23245656.59606   5812544.80147  23245652.84647     -3868.47400
 08 11 10  0 46  0.0020000  0  9  3  6 13 16 19 21 23 25 31
  -2074109.62907  20872927.23607  -1614759.44748  20872924.55748       438.45400
    264510.96507  20907319.85407    203173.99848  20907316.94748      -685.69000
  -1334487.70306  22957162.01806  -1040405.06747  22957158.74447        16.24300
   4656699.38707  21516152.13507   3615447.99848  21516147.55748     -2395.72400
  -4725074.68006  23132434.62706  -3675945.24147  23132429.03747      1995.23800
   1275811.59005  24521249.11905    988123.22446  24521245.17046     -1079.38500
   2231526.54707  22076546.04107   1733080.19448  22076540.62348     -1751.38200
  -3189090.68006  24159009.80706  -2486076.57846  24159007.14346      1699.75100
   7541355.87907  23256711.42407   5857815.61847  23256707.92847     -3873.17200
 08 11 10  0 46 15.0020000  0  9  3  6 13 16 19 21 23 25 31
  -2080558.05107  20871699.84607  -1619784.18549  20871697.12749       429.89500
    274923.44507  20909301.25207    211287.62348  20909298.03348      -694.16500
  -1334583.31607  22957143.72107  -1040479.57047  22957140.42447         6.37400
   4692681.36307  21522999.30707   3643485.89548  21522994.86948     -2398.79800
  -4754930.81606  23126752.76006  -3699209.73947  23126748.08047      1990.40900
   1292118.07006  24524352.40006   1000829.52646  24524348.04946     -1087.09900
   2257951.28907  22081574.29107   1753670.88848  22081569.02948     -1761.64900
  -3214562.37906  24154162.90006  -2505924.64647  24154160.56447      1698.11300
   7599525.85206  23267780.79906   5903142.85747  23267777.70547     -3877.99800
 08 11 10  0 46 30.0020000  0  9  3  6 13 16 19 21 23 25 31
  -2086879.96107  20870496.81407  -1624710.34848  20870493.94348       421.46100
    285461.16807  20911306.70507    219498.84448  20911303.70948      -702.51500
  -1334532.77306  22957153.54106  -1040440.19947  22957149.93247        -3.37000
   4728707.53507  21529854.75207   3671558.24848  21529850.52148     -2401.74500
  -4784716.19506  23121084.73606  -3722419.09347  23121080.40047      1985.69200
   1308538.54305  24527476.68205   1013624.69946  24527473.18946     -1094.69800
   2284527.98007  22086631.77507   1774379.98248  22086626.40848     -1771.77900
  -3240011.15606  24149320.04106  -2525754.81646  24149316.74846      1696.58500
   7657766.19906  23278864.40006   5948524.93747  23278861.10047     -3882.69000
 08 11 10  0 46 45.0020000  0  9  3  6 13 16 19 21 23 25 31
  -2093075.14107  20869317.81407  -1629537.75248  20869315.27148       413.01200
    296124.14507  20913335.98607    227807.65948  20913332.77948      -710.86500
  -1334335.98007  22957190.93207  -1040286.85547  22957187.28747       -13.12000
   4764777.86707  21536718.87707   3699664.99748  21536714.74048     -2404.68900
  -4814430.44106  23115430.08006  -3745573.05348  23115425.53748      1980.95000
   1325073.27305  24530622.92405   1026508.89046  24530620.19346     -1102.31500
   2311256.70307  22091718.48607   1795207.55648  22091713.11548     -1781.91500
  -3265436.62905  24144481.75205  -2545566.88447  24144478.96347      1695.03200
   7716077.02006  23289960.45506   5993961.91847  23289957.20547     -3887.38800
 08 11 10  0 47  0.0020000  0  9  3  6 13 16 19 21 23 25 31
  -2099143.14507  20868163.05707  -1634266.06348  20868160.40048       404.53400
    306912.44907  20915388.58007    236214.13848  20915385.55348      -719.22000
  -1333992.26207  22957256.58007  -1040019.02747  22957252.98247       -22.91500
   4800892.66407  21543591.38507   3727806.39448  21543586.80348     -2407.65300
  -4844072.97707  23109789.17407  -3768671.11547  23109785.18647      1976.16900
   1341722.52006  24533791.46306   1039482.39746  24533788.45546     -1109.95000
   2338137.42207  22096833.51007   1816153.57248  22096828.08048     -1792.04800
  -3290838.37106  24139647.61906  -2565360.41846  24139644.80746      1693.44900
   7774458.45306  23301069.85406   6039453.94047  23301066.90047     -3892.09600
 08 11 10  0 47 15.0020000  0  9  3  6 13 16 19 21 23 25 31
  -2105083.97307  20867032.86107  -1638895.27149  20867029.67849       396.05500
    317826.22307  20917465.31407    244718.38248  20917462.25648      -727.58500
  -1333501.57407  22957349.90807  -1039636.68447  22957345.84247       -32.71200
   4837051.58207  21550472.22907   3755982.15948  21550468.08048     -2410.59500
  -4873643.92606  23104162.22106  -3791713.40548  23104158.02148      1971.39700
   1358486.31606  24536981.88506   1052545.05946  24536978.36946     -1117.58600
   2365169.86707  22101977.64307   1837217.80048  22101971.70548     -1802.16300
  -3316216.28106  24134818.81406  -2585135.34947  24134815.39647      1691.86100
   7832910.15206  23312193.17406   6085000.70247  23312190.16247     -3896.78000
 08 11 10  0 47 30.0020000  0  9  3  6 13 16 19 21 23 25 31
  -2110895.66408  20865926.57208  -1643423.85548  20865923.61948       387.44600
    328867.39507  20919566.13507    253321.90848  20919563.57648      -736.07800
  -1332861.77707  22957471.79107  -1039138.14747  22957467.68647       -42.65300
   4873256.71907  21557361.68907   3784193.95348  21557357.43248     -2413.67600
  -4903140.99206  23098549.12706  -3814698.12448  23098544.49448      1966.47100
   1375366.70305  24540194.07205   1065698.65946  24540190.46346     -1125.35900
   2392355.98407  22107151.37707   1858401.78148  22107145.20548     -1812.40800
  -3341568.08206  24129994.65806  -2604889.99546  24129991.49446      1690.12000
   7891434.07406  23323329.56406   6130603.75847  23323326.36147     -3901.59500
 08 11 10  0 47 45.0020000  0  9  3  6 13 16 19 21 23 25 31
  -2116578.56307  20864845.54107  -1647852.09348  20864842.43948       378.86000
    340035.03907  20921691.77507    262023.96348  20921688.63148      -744.51000
  -1332073.50407  22957621.47907  -1038523.90347  22957617.68647       -52.55200
   4909507.25007  21564259.96307   3812441.11648  21564255.44748     -2416.70200
  -4932564.41406  23092949.71306  -3837625.45548  23092945.41648      1961.56100
   1392363.22305  24543428.58005   1078942.67546  24543424.60046     -1133.10100
   2419695.16407  22112353.78307   1879705.02048  22112347.98648     -1822.61200
  -3366894.08206  24125174.83806  -2624624.52947  24125171.63947      1688.40000
   7950029.46106  23334480.12706   6176262.48447  23334476.25647     -3906.35900
 08 11 10  0 48  0.0020000  0  9  3  6 13 16 19 21 23 25 31
  -2122133.26207  20863788.68907  -1652180.42348  20863785.60048       370.31300
    351328.69107  20923840.45507    270824.21348  20923837.70548      -752.91000
  -1331137.17607  22957800.15807  -1037794.31447  22957795.60047       -62.42200
   4945802.53907  21571166.78307   3840723.16848  21571162.32648     -2419.68600
  -4961914.64806  23087364.63506  -3860495.73348  23087360.06448      1956.68200
   1409475.23006  24546684.87706   1092276.73346  24546680.08446     -1140.80100
   2447186.57407  22117584.95507   1901126.89348  22117579.36948     -1832.76100
  -3392194.70306  24120360.01006  -2644339.27747  24120357.00247      1686.70800
   8008695.46106  23345644.43906   6221976.20647  23345640.36547     -3911.06700
 08 11 10  0 48 15.0020000  0  9  3  6 13 16 19 21 23 25 31
  -2127559.19107  20862756.01807  -1656408.41148  20862753.10748       361.72900
    362748.71907  20926013.86107    279722.94448  20926010.77548      -761.33500
  -1330052.21906  22958006.33806  -1036948.91747  22958002.34647       -72.33000
   4982142.72307  21578082.40807   3869040.18048  21578077.62748     -2422.67900
  -4991191.05106  23081793.83006  -3883308.51848  23081789.09648      1951.76000
   1426703.36305  24549962.48605   1105701.32046  24549958.69346     -1148.54200
   2474830.37107  22122845.19707   1922667.51048  22122839.90848     -1842.92000
  -3417469.52006  24115550.82206  -2664033.92347  24115547.50647      1684.98800
   8067432.67206  23356821.52506   6267745.45547  23356817.81147     -3915.81400
 08 11 10  0 48 30.0020000  0  9  3  6 13 16 19 21 23 25 31
  -2132854.66007  20861748.20507  -1660534.73648  20861745.32248       353.03100
    374296.55907  20928211.36907    288721.25948  20928208.31848      -769.85600
  -1328816.68006  22958241.40006  -1035986.15747  22958237.41247       -82.36900
   5018529.59407  21585006.37707   3897393.59448  21585002.01048     -2425.79100
  -5020391.57806  23076236.89306  -3906062.15748  23076232.45148      1946.70200
   1444049.28505  24553263.23605   1119217.57146  24553259.41646     -1156.39500
   2502628.16407  22128134.87707   1944328.11648  22128129.88948     -1853.18600
  -3442716.39506  24110746.76806  -2683706.79147  24110743.40447      1683.12500
   8126242.35506  23368012.29106   6313571.17647  23368009.28347     -3920.64600
 08 11 10  0 48 45.0020000  0  9  3  6 13 16 19 21 23 25 31
  -2138019.42607  20860765.31407  -1664559.23048  20860762.51048       344.31800
    385972.61307  20930433.22907    297819.48348  20930430.11948      -778.40400
  -1327430.32406  22958505.25206  -1034905.87647  22958501.08847       -92.42400
   5054963.17207  21591939.33807   3925783.37948  21591935.21748     -2428.90500
  -5049515.84006  23070694.64306  -3928756.38648  23070690.89648      1941.61700
   1461513.48805  24556586.38505   1132826.07146  24556582.67846     -1164.28000
   2530580.12107  22133453.84607   1966108.86348  22133448.59248     -1863.46400
  -3467934.84006  24105947.62706  -2703357.50447  24105944.23247      1681.23000
   8185124.72706  23379217.38506   6359453.50048  23379214.66248     -3925.49100
 08 11 10  0 49  0.0020000  0  9  3  6 13 16 19 21 23 25 31
  -2143054.41407  20859806.98607  -1668482.57448  20859804.03748       335.66600
    397775.70307  20932678.79907    307016.71248  20932675.94748      -786.87300
  -1325893.93806  22958797.47906  -1033708.70447  22958793.59247      -102.42600
   5091442.33207  21598881.08807   3954208.70448  21598876.83048     -2431.94400
  -5078564.55906  23065166.65006  -3951391.72548  23065162.67048      1936.58100
   1479094.90204  24559932.18204   1146525.84446  24559927.75246     -1172.09400
   2558685.02707  22138801.94707   1988008.79548  22138797.08848     -1873.66000
  -3493125.78906  24101153.86906  -2722986.82147  24101150.20547      1679.39700
   8244078.62506  23390436.08806   6405391.58747  23390433.03747     -3930.26000
 08 11 10  0 49 15.0020000  0  9  3  6 13 16 19 21 23 25 31
  -2147959.12507  20858873.96307  -1672304.42348  20858871.16248       326.98100
    409706.04707  20934949.66607    316313.08148  20934946.19748      -795.35600
  -1324207.27006  22959118.47106  -1032394.42447  22959114.05747      -112.44500
   5127967.47707  21605831.82207   3982669.85648  21605827.38948     -2435.01000
  -5107537.18806  23059653.29906  -3973967.79148  23059648.87748      1931.50900
   1496793.84804  24563300.43904   1160317.28646  24563295.68946     -1179.93000
   2586943.09407  22144179.63507   2010028.07748  22144173.95948     -1883.87100
  -3518288.68406  24096365.78306  -2742594.21547  24096362.51047      1677.52600
   8303104.24606  23401668.18206   6451385.56248  23401664.84648     -3935.04100
 08 11 10  0 49 30.0020000  0  9  3  6 13 16 19 21 23 25 31
  -2152735.31308  20857964.80708  -1676026.11448  20857962.06448       318.41300
    421761.63707  20937243.29107    325707.04548  20937240.79548      -803.70600
  -1322372.04306  22959467.82206  -1030964.37147  22959463.93647      -122.34800
   5164536.40607  21612790.27507   4011165.11748  21612786.11948     -2437.92900
  -5136435.49606  23054154.52506  -3996485.96247  23054149.63147      1926.55400
   1514608.56605  24566691.02505   1174198.88446  24566686.11546     -1187.64800
   2615352.14107  22149585.73607   2032164.98448  22149579.97548     -1893.93600
  -3543425.21506  24091582.18906  -2762181.12747  24091578.49447      1675.76900
   8362199.59806  23412913.76806   6497433.86847  23412910.06147     -3939.69000
 08 11 10  0 49 45.0020000  0  9  3  6 13 16 19 21 23 25 31
  -2157381.71907  20857081.07207  -1679646.68748  20857077.83048       309.76000
    433944.13707  20939561.56407    335199.90748  20939558.85048      -812.16700
  -1320386.50006  22959845.37706  -1029417.21347  22959841.83447      -132.37000
   5201150.46907  21619757.73607   4039695.55548  21619753.37748     -2440.93800
  -5165257.72306  23048670.11106  -4018944.81847  23048665.61947      1921.48200
   1532540.66405  24570102.51005   1188171.95146  24570098.48246     -1195.47300
   2643913.42207  22155021.03307   2054420.53948  22155014.88548     -1904.08500
  -3568533.68406  24086804.50206  -2781746.16047  24086800.61547      1673.89800
   8421366.01606  23424173.22906   6543537.53648  23424168.40448     -3944.42800
 08 11 10  0 50  0.0020000  0  9  3  6 13 16 19 21 23 25 31
  -2161900.55507  20856221.02507  -1683167.85548  20856218.02548       301.25600
    446250.86307  20941903.73607    344789.56648  20941900.85748      -820.44800
  -1318253.16006  22960251.06406  -1027754.86447  22960248.01047      -142.22300
   5237807.29307  21626733.29107   4068259.30948  21626728.96348     -2443.78800
  -5194005.93806  23043199.68906  -4041346.01847  23043194.90447      1916.54800
   1550587.69505  24573536.80705   1202234.56146  24573532.71346     -1203.13500
   2672624.44907  22160484.36107   2076792.77248  22160478.96348     -1914.06800
  -3593616.24206  24082031.29106  -2801291.02547  24082027.81847      1672.17100
   8480600.92606  23435445.07206   6589694.59148  23435441.29948     -3948.99400
 08 11 10  0 50 15.0020000  0  9  3  6 13 16 19 21 23 25 31
  -2166289.78107  20855385.77507  -1686588.02749  20855383.02149       292.61500
    458683.71107  20944269.65807    354477.50548  20944266.85448      -828.85700
  -1315970.05106  22960685.68906  -1025975.82847  22960682.06147      -152.20700
   5274508.57807  21633717.27507   4096857.70148  21633713.09648     -2446.75200
  -5222678.11706  23037743.61906  -4063687.97147  23037738.91647      1911.47900
   1568751.46504  24576993.72104   1216388.12346  24576989.62746     -1210.91800
   2701486.89807  22165976.97107   2099282.99148  22165971.44748     -1924.16300
  -3618670.79706  24077263.81406  -2820814.03247  24077259.57247      1670.30400
   8539906.02306  23446730.38506   6635906.33647  23446727.11547     -3953.67300
 08 11 10  0 50 30.0020000  0  9  3  6 13 16 19 21 23 25 31
  -2170550.16408  20854574.94708  -1689907.80248  20854572.00648       284.02600
    471241.69107  20946659.29107    364262.94548  20946656.29148      -837.19900
  -1313537.70706  22961148.63506  -1024080.48547  22961145.39347      -162.15600
   5311253.60507  21640709.90007   4125490.20148  21640705.35048     -2449.66800
  -5251274.93406  23032301.70506  -4085971.18347  23032296.90847      1906.45400
   1587031.50004  24580470.83004   1230632.34146  24580467.73246     -1218.66900
   2730500.00407  22171497.56407   2121890.60248  22171492.48648     -1934.20700
  -3643697.94106  24072501.15806  -2840315.68547  24072497.54947      1668.47600
   8599280.44506  23458028.79906   6682172.08947  23458025.40847     -3958.29500
 08 11 10  0 50 45.0020000  0  9  3  6 13 16 19 21 23 25 31
  -2174682.73807  20853788.52507  -1693127.99349  20853786.02949       275.50500
    483923.77707  20949072.86907    374145.09948  20949069.93248      -845.47200
  -1310957.23806  22961639.72906  -1022069.73347  22961636.66247      -172.03100
   5348040.82407  21647710.09607   4154155.55448  21647705.85448     -2452.48100
  -5279797.32806  23026873.90006  -4108196.42247  23026869.43247      1901.49300
   1605426.71904  24583972.17404   1244966.22146  24583968.45946     -1226.34800
   2759662.30507  22177046.95507   2144614.47448  22177041.81148     -1944.15300
  -3668698.53906  24067743.58006  -2859796.66447  24067739.85747      1666.70700
   8658722.84406  23469340.33806   6728490.84748  23469336.59248     -3962.82700
 08 11 10  0 51  0.0020000  0  9  3  6 13 16 19 21 23 25 31
  -2178688.43807  20853026.03307  -1696249.29948  20853023.47948       267.04700
    496728.88707  20951509.39307    384123.10948  20951506.52148      -853.67400
  -1308229.29306  22962158.86106  -1019944.05647  22962155.62747      -181.86300
   5384869.50407  21654718.62707   4182853.22048  21654714.32248     -2455.24500
  -5308245.56306  23021460.58006  -4130363.86147  23021456.05347      1896.54900
   1623936.16805  24587494.57205   1259389.19646  24587491.44746     -1233.96300
   2788972.85507  22182624.36107   2167453.86348  22182619.35448     -1954.03700
  -3693673.39506  24062991.15806  -2879257.56247  24062987.49447      1664.99000
   8718232.20306  23480664.42406   6774861.73647  23480661.51447     -3967.29100
 08 11 10  0 51 15.0020000  0  9  3  6 13 16 19 21 23 25 31
  -2182567.03107  20852287.82207  -1699271.57948  20852285.38948       258.57300
    509657.08607  20953969.33007    394197.02948  20953966.32248      -861.88000
  -1305353.86706  22962705.95506  -1017703.47047  22962702.53747      -191.69500
   5421739.51607  21661734.51007   4211583.09348  21661730.43648     -2458.00100
  -5336619.59806  23016060.53306  -4152473.49147  23016056.40047      1891.60200
   1642559.91405  24591039.03305   1273901.20646  24591035.25246     -1241.58300
   2818431.51607  22188230.40007   2190408.67748  22188225.06448     -1963.91100
  -3718622.03106  24058243.90806  -2898698.09447  24058240.17847      1663.24200
   8777808.44506  23492001.62706   6821284.79248  23491998.33048     -3971.74900
 08 11 10  0 51 30.0020000  0  9  3  6 13 16 19 21 23 25 31
  -2186320.00807  20851574.16607  -1702195.98248  20851571.22548       250.19800
    522706.93807  20956452.50207    404365.75548  20956449.53348      -869.99000
  -1302332.07407  22963281.70507  -1015348.82847  22963277.59647      -201.45300
   5458649.32407  21668758.24407   4240343.98848  21668754.38148     -2460.65400
  -5364920.54306  23010675.13506  -4174526.16947  23010670.51047      1886.73000
   1661296.79705  24594604.61905   1288501.39946  24594600.50646     -1249.12600
   2848036.74207  22193864.11907   2213477.67948  22193858.61548     -1973.68200
  -3743545.66406  24053501.18906  -2918119.06647  24053497.45947      1661.57600
   8837450.19907  23503350.65807   6867758.85748  23503347.93948     -3976.11700
 08 11 10  0 51 45.0020000  0  9  3  6 13 16 19 21 23 25 31
  -2189944.68807  20850884.17407  -1705020.39849  20850881.56149       241.64500
    535880.49207  20958959.54907    414630.85848  20958956.23248      -878.23700
  -1299161.50406  22963884.43206  -1012878.25347  22963881.29547      -211.37100
   5495601.31307  21675790.01807   4269137.74148  21675785.85048     -2463.46600
  -5393145.83206  23005304.15006  -4196519.88148  23005299.34648      1881.68600
   1680149.20705  24598191.73605   1303191.60046  24598188.55746     -1256.82700
   2877790.67607  22199525.87707   2236662.57648  22199520.29948     -1983.59600
  -3768441.71106  24048762.91606  -2937518.59447  24048760.16647      1659.73600
   8897159.70307  23514713.00207   6914285.73247  23514709.85447     -3980.63400
 08 11 10  0 52  0.0020000  0  9  3  6 13 16 19 21 23 25 31
  -2193442.62907  20850218.47107  -1707746.06148  20850215.83048       233.19600
    549176.45307  20961489.72107    424991.36748  20961486.33848      -886.39700
  -1295843.52706  22964516.20506  -1010292.82247  22964512.51047      -221.19800
   5532593.89507  21682829.34607   4297963.12648  21682825.15048     -2466.17200
  -5421296.85906  22999947.27506  -4218455.72548  22999942.24848      1876.73500
   1699115.73805  24601800.81405   1317970.68946  24601797.87346     -1264.43500
   2907691.50007  22205215.60407   2259961.91048  22205210.11148     -1993.38800
  -3793311.50806  24044030.35406  -2956897.63947  24044026.93647      1657.98600
   8956935.23406  23526088.50206   6960864.03047  23526085.04147     -3985.03500
 08 11 10  0 52 15.0020000  0  9  3  6 13 16 19 21 23 25 31
  -2196812.12907  20849577.39307  -1710371.64348  20849574.50248       224.63300
    562596.10907  20964043.47107    435448.23748  20964040.32248      -894.64400
  -1292376.34806  22965174.88506  -1007591.13947  22965172.20147      -231.14500
   5569628.51607  21689876.69707   4326821.26048  21689872.63548     -2468.97500
  -5449371.64806  22994605.19706  -4240332.17448  22994600.10748      1871.65300
   1718197.90206  24605432.76006   1332839.96046  24605428.72146     -1272.14400
   2937740.78507  22210934.51007   2283376.92348  22210928.59248     -2003.28600
  -3818153.23806  24039303.37706  -2976254.81747  24039299.54547      1656.11500
   9016777.99206  23537476.45506   7007494.73248  23537472.06848     -3989.51700
 08 11 10  0 52 30.0020000  0  9  3  6 13 16 19 21 23 25 31
  -2200054.10207  20848960.41607  -1712897.85148  20848957.11548       216.13200
    576138.58607  20966620.67407    446000.82248  20966617.44748      -902.83200
  -1288760.91006  22965863.65006  -1004773.90147  22965860.42447      -241.02900
   5606704.10207  21696932.48607   4355711.32248  21696927.44348     -2471.70600
  -5477370.93406  22989276.43206  -4262149.77147  22989272.33847      1866.61900
   1737394.78904  24609085.62704   1347798.50546  24609081.74046     -1279.79200
   2967937.15607  22216680.60407   2306906.55548  22216674.79548     -2013.09100
  -3842967.63706  24034581.40806  -2995590.70347  24034577.20547      1654.29300
   9076687.05106  23548876.46306   7054177.10047  23548872.65047     -3993.93700
 08 11 10  0 52 45.0020000  0  9  3  6 13 16 19 21 23 25 31
  -2203167.66007  20848368.20507  -1715323.99149  20848364.89349       207.57100
    589804.72707  20969221.05707    456649.76948  20969218.45948      -911.07600
  -1284996.09806  22966580.11906  -1001840.29147  22966576.70147      -250.98800
   5643821.69107  21703995.48607   4384634.12748  21703990.62748     -2474.50600
  -5505293.53106  22983962.86106  -4283907.63448  22983958.29148      1861.50700
   1756707.47705  24612760.09605   1362847.37046  24612757.06846     -1287.51300
   2998281.69507  22222454.55707   2330551.64248  22222448.90448     -2022.96900
  -3867753.52006  24029864.96306  -3014904.36647  24029860.76447      1652.39200
   9136663.10906  23560289.44706   7100911.67047  23560285.35447     -3998.40400
 08 11 10  0 53  0.0020000  0  9  3  6 13 16 19 21 23 25 31
  -2206151.45308  20847800.17408  -1717649.01948  20847797.19748       198.92000
    603595.74207  20971845.77507    467396.02248  20971842.70548      -919.40100
  -1281080.58606  22967324.90806   -998789.25647  22967321.32247      -261.03400
   5680982.41007  21711066.98607   4413590.51748  21711062.67048     -2477.38100
  -5533138.00007  22978664.62707  -4305604.59248  22978659.83848      1856.29800
   1776137.32405  24616458.32205   1377987.48346  24616453.81446     -1295.32300
   3028775.50807  22228257.96307   2354313.04548  22228251.79548     -2032.92100
  -3892509.31306  24025153.34606  -3034194.58947  24025150.04547      1650.38600
   9196707.45306  23571715.14306   7147699.44547  23571711.74847     -4002.95600
 08 11 10  0 53 15.0020000  0  9  3  6 13 16 19 21 23 25 31
  -2209006.37508  20847257.16608  -1719873.63448  20847253.97148       190.32800
    617510.66007  20974493.40807    478238.80448  20974490.44748      -927.66100
  -1277015.67606  22968098.80706   -995621.78847  22968094.76047      -270.99400
   5718184.95307  21718146.16607   4442579.51648  21718141.84648     -2480.17000
  -5560905.14107  22973380.35407  -4327241.32148  22973375.76448      1851.14300
   1795683.21105  24620177.22905   1393218.11246  24620174.52946     -1303.05900
   3059417.36707  22234088.47107   2378189.80548  22234083.00648     -2042.79100
  -3917235.79706  24020448.50206  -3053461.97247  24020444.88947      1648.43200
   9256819.05106  23583154.29906   7194539.64447  23583151.23247     -4007.44000
 08 11 10  0 53 30.0020000  0  9  3  6 13 16 19 21 23 25 31
  -2211731.02707  20846738.43207  -1721996.73048  20846735.50248       181.64300
    631550.29307  20977165.09607    489178.79148  20977162.31848      -935.97600
  -1272799.64106  22968901.21306   -992336.56847  22968896.60747      -281.06900
   5755430.45707  21725233.75207   4471601.98048  21725229.34248     -2483.03400
  -5588593.51607  22968111.84607  -4348816.64548  22968107.01048      1845.89200
   1815346.57405  24623919.56405   1408540.23246  24623916.12346     -1310.89100
   3090208.23407  22239947.51807   2402182.68748  22239942.32648     -2052.72400
  -3941931.66806  24015748.61106  -3072705.51447  24015745.94347      1646.39100
   9316998.80106  23594606.51006   7241432.94447  23594602.84247     -4011.98300
 08 11 10  0 53 45.0020000  0  9  3  6 13 16 19 21 23 25 31
  -2214327.10907  20846244.43907  -1724019.65048  20846241.61148       173.07200
    645713.09807  20979859.96307    500214.74348  20979857.10748      -944.18700
  -1268433.90206  22969731.87706   -988934.70247  22969727.41647      -291.04900
   5792717.37107  21732329.35407   4500656.71148  21732324.98648     -2485.79400
  -5616204.35207  22962857.43207  -4370331.56748  22962852.53348      1840.72200
   1835125.81304  24627682.81404   1423952.57946  24627679.75646     -1318.61600
   3121146.41807  22245834.92407   2426290.35848  22245829.79548     -2062.54600
  -3966598.16006  24011055.03306  -3091926.12047  24011051.63547      1644.43300
   9377245.01606  23606070.31406   7288378.02047  23606067.18247     -4016.41400
 08 11 10  0 54  0.0020000  0  9  3  6 13 16 19 21 23 25 31
  -2216793.61307  20845775.12707  -1725941.60548  20845772.22148       164.43400
    660000.31307  20982579.04907    511347.64248  20982576.11548      -952.48100
  -1263917.26206  22970591.60406   -985415.26047  22970587.34647      -301.10900
   5830046.67607  21739432.84607   4529744.47748  21739428.47548     -2488.62000
  -5643736.38706  22957618.24406  -4391785.08448  22957613.12748      1835.46900
   1855022.07804  24631468.83004   1439456.21746  24631465.61546     -1326.41800
   3152232.68807  22251750.93207   2450513.42548  22251745.48248     -2072.41800
  -3991233.98806  24006367.33006  -3111122.86647  24006363.84647      1642.38900
   9437558.73006  23617547.65006   7335375.68747  23617544.53747     -4020.91400
 08 11 10  0 54 15.0020000  0  9  3  6 13 16 19 21 23 25 31
  -2219129.19907  20845330.68207  -1727761.53649  20845327.87749       155.70600
    674412.83207  20985321.30707    522578.18248  20985318.49448      -960.83500
  -1259248.65606  22971479.39306   -981777.39147  22971475.92047      -311.24000
   5867419.39807  21746544.82207   4558866.07948  21746540.30748     -2491.51500
  -5671188.38706  22952394.04906  -4413176.24748  22952389.52948      1830.13300
   1875036.53404  24635277.22104   1455051.84346  24635273.50646     -1334.29700
   3183468.03107  22257694.26007   2474852.64448  22257689.27948     -2082.35600
  -4015837.76606  24001685.46306  -3130294.64347  24001681.59647      1640.25200
   9497940.84006  23629038.22106   7382426.65247  23629034.92447     -4025.47400
 08 11 10  0 54 30.0020000  0  9  3  6 13 16 19 21 23 25 31
  -2221333.27307  20844911.31407  -1729478.98748  20844908.58048       146.93800
    688950.87107  20988088.07207    533906.53448  20988084.97948      -969.20300
  -1254427.59406  22972396.95506   -978020.70447  22972394.06447      -321.40400
   5904835.90607  21753664.79907   4588021.80048  21753660.50248     -2494.43400
  -5698559.52007  22947185.48607  -4434504.37948  22947180.65848      1824.74200
   1895169.73404  24639109.14304   1470740.05346  24639104.68246     -1342.21300
   3214852.77007  22263666.86907   2499308.27748  22263661.22148     -2092.31600
  -4040408.94506  23997009.08006  -3149441.00047  23997006.00247      1638.07900
   9558391.66806  23640542.11106   7429531.17047  23640538.66247     -4030.05500
 08 11 10  0 54 45.0020000  0  9  3  6 13 16 19 21 23 25 31
  -2223405.57008  20844516.68208  -1731093.76649  20844513.93249       138.15300
    703614.94907  20990878.46307    545333.09048  20990875.42848      -977.60500
  -1249453.40206  22973343.66606   -974144.70647  22973340.38947      -331.61300
   5942296.47307  21760793.48607   4617211.84148  21760789.03348     -2497.37100
  -5725849.18407  22941992.37707  -4455769.02948  22941987.72148      1819.31100
   1915422.02004  24642962.26004   1486521.08846  24642959.15846     -1350.15200
   3246387.04707  22269667.76807   2523880.41048  22269662.16248     -2102.28500
  -4064946.71506  23992340.05706  -3168561.32147  23992336.78347      1635.85100
   9618911.43006  23652058.11106   7476689.41647  23652054.88947     -4034.65100
 08 11 10  0 55  0.0020000  0  9  3  6 13 16 19 21 23 25 31
  -2225346.40207  20844147.49407  -1732606.09348  20844144.60048       129.38900
    718404.44507  20993692.65007    556857.37548  20993689.60448      -985.96600
  -1244326.59806  22974319.00206   -970149.78047  22974315.85047      -341.78700
   5979800.57007  21767930.30707   4646435.81448  21767925.99448     -2500.27300
  -5753057.75407  22936815.02507  -4476970.49748  22936810.20948      1813.90500
   1935793.02004  24646839.29104   1502394.60246  24646835.78746     -1358.06700
   3278070.15607  22275696.73607   2548568.55548  22275691.24048     -2112.20700
  -4089451.44906  23987676.66606  -3187655.94747  23987674.04947      1633.64900
   9679499.38706  23663587.52506   7523900.79047  23663584.08847     -4039.19700
 08 11 10  0 55 15.0020000  0  9  3  6 13 16 19 21 23 25 31
  -2227155.81607  20843803.08007  -1734016.02949  20843799.97549       120.62800
    733319.05107  20996530.88507    568479.15848  20996527.57648      -994.30700
  -1239047.26207  22975324.23607   -966036.03647  22975320.29947      -351.95600
   6017347.87907  21775075.29107   4675693.45548  21775070.68948     -2503.15400
  -5780185.06307  22931652.65807  -4498108.64648  22931648.35748      1808.48700
   1956282.63705  24650738.73605   1518360.56346  24650734.62346     -1365.97400
   3309901.85907  22281754.21307   2573372.47248  22281748.69348     -2122.11400
  -4113923.00406  23983020.41606  -3206724.67147  23983017.53347      1631.43700
   9740155.49606  23675130.04106   7571165.27747  23675126.68247     -4043.74100
 08 11 10  0 55 30.0020000  0  9  3  6 13 16 19 21 23 25 31
  -2228835.04308  20843483.66608  -1735324.50648  20843480.59648       111.94800
    748357.52707  20999392.84607    580197.46148  20999389.54148     -1002.56500
  -1233616.39106  22976357.41606   -961804.18247  22976353.85747      -362.05800
   6054937.29307  21782227.76007   4704983.90448  21782223.95148     -2505.96100
  -5807232.03506  22926505.78306  -4519184.19148  22926501.31448      1803.13200
   1976889.95305  24654659.64305   1534418.22146  24654656.10046     -1373.82100
   3341880.77307  22287839.68907   2598291.09948  22287834.30748     -2131.92800
  -4138362.22306  23978369.18906  -3225768.19347  23978365.97547      1629.28100
   9800878.40206  23686685.20506   7618481.81147  23686681.61947     -4048.19400
 08 11 10  0 55 45.0020000  0  9  3  6 13 16 19 21 23 25 31
  -2230383.41408  20843188.85408  -1736531.02749  20843185.89649       103.22500
    763520.32807  21002277.89307    592012.63348  21002275.24448     -1010.85300
  -1228033.46907  22977420.03307   -957453.84947  22977415.93947      -372.19500
   6092569.21507  21789389.12707   4734307.45948  21789384.81448     -2508.79500
  -5834197.93806  22921374.27506  -4540196.56848  22921369.93648      1797.72700
   1997615.32005  24658603.22105   1550567.82046  24658599.79546     -1381.69100
   3374007.25007  22293952.89307   2623324.70448  22293947.66248     -2141.76500
  -4162768.47306  23973724.65006  -3244786.01947  23973722.22947      1627.08300
   9861668.33606  23698253.53306   7665850.57047  23698249.65847     -4052.66200
 08 11 10  0 56  0.0020000  0  9  3  6 13 16 19 21 23 25 31
  -2231799.60507  20842919.35407  -1737634.54248  20842916.97548        94.41300
    778808.78107  21005187.15807    603925.71448  21005184.27948     -1019.23000
  -1222296.94107  22978511.49407   -952983.83047  22978507.67047      -382.43500
   6130244.85207  21796558.68207   4763665.10448  21796554.24848     -2511.70900
  -5861081.19906  22916258.72106  -4561144.54448  22916254.22948      1792.21700
   2018460.03504  24662570.26004   1566810.43345  24662566.43245     -1389.64800
   3406282.41807  22300094.63507   2648474.18448  22300089.39348     -2151.67800
  -4187140.14506  23969086.54106  -3263776.91747  23969084.32647      1624.77800
   9922526.55906  23709834.52506   7713272.55147  23709831.38947     -4057.21500
 08 11 10  0 56 15.0020000  0  9  3  6 13 16 19 21 23 25 31
  -2233082.78107  20842675.35407  -1738634.41748  20842672.24848        85.54500
    794223.41007  21008120.64307    615937.11248  21008117.37348     -1027.64200
  -1216406.07807  22979632.58807   -948393.55447  22979628.27547      -392.72400
   6167965.02307  21803736.32207   4793057.43548  21803732.55348     -2514.67800
  -5887880.80106  22911158.55706  -4582027.33148  22911154.34648      1786.64000
   2039425.01204  24666559.22904   1583146.81645  24666555.51845     -1397.66500
   3438706.85507  22306265.06407   2673739.98048  22306259.50648     -2161.62900
  -4211476.25006  23964455.70506  -3282740.13347  23964452.64347      1622.40700
   9983453.69106  23721428.30706   7760748.19447  23721424.87347     -4061.80900
 08 11 10  0 56 30.0020000  0  9  3  6 13 16 19 21 23 25 31
  -2234234.16807  20842456.17407  -1739531.59848  20842453.40048        76.75900
    809763.06607  21011077.73607    628045.93848  21011074.79548     -1035.97700
  -1210361.94506  22980782.72906   -943683.83047  22980778.90847      -402.94200
   6205728.24607  21810922.50207   4822483.32348  21810918.63948     -2517.54800
  -5914597.82006  22906074.65806  -4602845.77648  22906070.54148      1781.13500
   2060509.00004  24670572.17404   1599575.87145  24670566.83845     -1405.59900
   3471278.99607  22312463.36107   2699120.85748  22312458.02148     -2171.47600
  -4235777.80506  23959831.26806  -3301676.38147  23959828.51447      1620.10400
  10044448.27706  23733035.53306   7808276.43847  23733031.64347     -4066.30600
 08 11 10  0 56 45.0020000  0  9  3  6 13 16 19 21 23 25 31
  -2235252.78107  20842262.47107  -1740325.32748  20842259.27948        67.90800
    825428.56307  21014058.71307    640252.81848  21014055.40848     -1044.36600
  -1204163.46906  22981962.09606   -938853.86847  22981958.12347      -413.23200
   6243535.41007  21818117.13507   4851943.44548  21818112.49848     -2520.47800
  -5941231.11706  22901007.01806  -4623598.97348  22901002.76848      1775.55300
   2081713.04304  24674607.08804   1616098.50846  24674602.38946     -1413.60300
   3503999.72707  22318690.36107   2724617.52648  22318684.85748     -2181.38200
  -4260043.53906  23955213.99406  -3320584.76647  23955210.78347      1617.71600
  10105511.27306  23744655.90806   7855857.94347  23744652.33047     -4070.86600
 08 11 10  0 57  0.0030000  0  9  3  6 13 16 19 21 23 25 31
  -2236138.00007  20842093.51507  -1741015.10148  20842090.62848        59.01500
    841221.44907  21017063.92107    652558.96148  21017060.94448     -1052.85900
  -1197809.70306  22983171.36606   -933902.87647  22983167.08147      -423.58400
   6281389.60907  21825320.58507   4881440.22948  21825316.26148     -2523.61300
  -5967781.58606  22895954.19406  -4644287.63648  22895949.15148      1770.03100
   2103039.30905  24678664.21805   1632716.35945  24678660.21845     -1421.75100
   3536871.65207  22324945.17107   2750231.99348  22324939.22948     -2191.46200
  -4284274.25406  23950603.21806  -3339465.83547  23950600.04647      1615.38100
  10166647.35506  23756288.99906   7903496.43647  23756285.94047     -4075.73900
 08 11 10  0 57 15.0030000  0  9  3  6 13 16 19 21 23 25 31
  -2236889.66807  20841951.14707  -1741600.81348  20841947.77248        50.11100
    857139.45707  21020093.42907    664962.62248  21020090.15948     -1061.20100
  -1191301.46507  22984409.99907   -928831.53047  22984405.70647      -433.88300
   6319285.66407  21832531.89707   4910969.61148  21832527.48348     -2526.40400
  -5994245.57406  22890918.32706  -4664908.91848  22890913.97648      1764.26600
   2124484.68404  24682745.83504   1649427.07146  24682741.08146     -1429.69200
   3569890.04307  22331228.34307   2775960.60948  22331223.27648     -2201.22600
  -4308466.61706  23945999.44406  -3358317.00147  23945996.28847      1612.82400
  10227847.92206  23767934.94406   7951185.19347  23767931.94047     -4080.03800
 08 11 10  0 57 30.0030000  0  9  3  6 13 16 19 21 23 25 31
  -2237508.91807  20841832.85807  -1742083.34148  20841829.79648        41.28300
    873182.43807  21023146.13207    677463.64548  21023142.91748     -1069.53200
  -1184639.15606  22985677.29606   -923640.12247  22985673.90147      -444.15400
   6357224.91407  21839751.24907   4940532.66248  21839747.37448     -2529.28300
  -6020625.54706  22885898.16306  -4685464.71248  22885893.83548      1758.66500
   2146049.65205  24686850.14705   1666230.94945  24686844.59745     -1437.66500
   3603055.94507  22337540.06207   2801804.15448  22337534.32748     -2211.06000
  -4332622.97706  23941402.95206  -3377140.14947  23941399.52647      1610.42400
  10289115.91806  23779594.36606   7998926.47047  23779590.39747     -4084.53300
 08 11 10  0 57 45.0030000  0  9  3  6 13 16 19 21 23 25 31
  -2237994.49208  20841740.74108  -1742461.70848  20841737.07348        32.37200
    889351.68407  21026222.74907    690063.05748  21026219.83948     -1077.95000
  -1177821.53107  22986974.41307   -918327.71847  22986971.63647      -454.50800
   6395208.63707  21846979.60807   4970130.36748  21846975.62448     -2532.24800
  -6046920.00806  22880894.51506  -4705953.89348  22880889.81248      1752.96400
   2167735.55905  24690976.59305   1683129.06246  24690971.00746     -1445.72700
   3636370.40207  22343879.78007   2827763.46348  22343873.88648     -2220.96400
  -4356741.76606  23936813.27206  -3395934.00347  23936810.08947      1607.91900
  10350452.38706  23791266.46806   8046721.10747  23791261.77647     -4089.09800
 08 11 10  0 58  0.0030000  0  9  3  6 13 16 19 21 23 25 31
  -2238346.87107  20841673.42107  -1742736.28348  20841670.38248        23.49200
    905646.27707  21029323.81207    702760.14248  21029320.41348     -1086.30600
  -1170849.27306  22988301.96006   -912894.80347  22988298.61247      -464.81700
   6433235.90207  21854215.82707   4999762.00448  21854211.59348     -2535.15100
  -6073129.57806  22875907.03006  -4726376.93648  22875902.30848      1747.30500
   2189541.61305  24695126.13205   1700120.78346  24695121.24946     -1453.73700
   3669832.37107  22350246.50707   2853837.71348  22350241.07748     -2230.79800
  -4380823.66806  23932230.85806  -3414699.11947  23932227.14447      1605.46000
  10411856.43806  23802950.92106   8094568.41547  23802946.71047     -4093.60300
 08 11 10  0 58 15.0030000  0  9  3  6 13 16 19 21 23 25 31
  -2238566.19907  20841632.09307  -1742907.19249  20841628.74549        14.62200
    922066.15607  21032448.09307    715554.85648  21032445.22948     -1094.65900
  -1163722.28506  22989658.20206   -907341.30847  22989654.69447      -475.13300
   6471306.64807  21861460.46007   5029427.51748  21861456.29648     -2538.05000
  -6099253.92606  22870935.69406  -4746733.55648  22870930.47948      1741.62300
   2211467.92205  24699298.71005   1717206.25546  24699293.67146     -1461.75400
   3703441.76607  22356642.54607   2880026.83048  22356637.09748     -2240.62600
  -4404868.28506  23927654.89706  -3433435.18847  23927651.47647      1602.97400
  10473327.99206  23814648.87406   8142468.30247  23814644.95247     -4098.10400
 08 11 10  0 58 30.0030000  0  9  3  6 13 16 19 21 23 25 31
  -2238653.12107  20841615.34307  -1742974.90548  20841612.17548         5.79500
    938610.44107  21035596.69407    728446.51348  21035593.10148     -1102.95200
  -1156441.13306  22991043.83506   -901667.68647  22991040.19847      -485.41000
   6509420.22707  21868713.08507   5059126.39348  21868708.90948     -2540.90500
  -6125293.50806  22865980.56206  -4767024.13548  22865975.06248      1735.97200
   2233514.02305  24703493.78805   1734385.07746  24703488.14446     -1469.74000
   3737197.62907  22363065.99907   2906330.09348  22363060.44848     -2250.39100
  -4428876.09406  23923086.48306  -3452142.55147  23923082.88647      1600.52100
  10534866.34006  23826359.34306   8190420.24447  23826355.30047     -4102.55700
 08 11 10  0 58 45.0030000  0  9  3  6 13 16 19 21 23 25 31
  -2238605.88307  20841623.97607  -1742938.09749  20841621.53849        -3.14900
    955280.94507  21038769.02207    741436.51448  21038765.49148     -1111.36700
  -1149003.94106  22992458.41306   -895872.46147  22992455.39047      -495.81300
   6547578.25807  21875974.53807   5088859.91848  21875970.05848     -2543.86900
  -6151246.50406  22861041.80406  -4787247.23348  22861036.78448      1730.20000
   2255681.63305  24707712.28805   1751658.49446  24707706.61646     -1477.84100
   3771101.45707  22369517.39007   2932748.65448  22369512.23348     -2260.25500
  -4452845.10506  23918525.28006  -3470819.69447  23918521.66347      1597.93400
  10596472.87506  23838082.71006   8238425.30447  23838078.51947     -4107.10200
 08 11 10  0 59  0.0030000  0  9  3  6 13 16 19 21 23 25 31
  -2238425.01208  20841658.39008  -1742797.15048  20841655.69448       -12.05800
    972076.69507  21041964.86607    754524.11948  21041961.55048     -1119.71700
  -1141411.44106  22993903.24906   -889956.22547  22993900.60847      -506.16700
   6585779.86307  21883244.17907   5118627.42048  21883239.96448     -2546.77400
  -6177113.37106  22856119.97606  -4807403.23048  22856114.60848      1724.45800
   2277969.87505  24711954.23305   1769025.99146  24711949.18346     -1485.88300
   3805152.34007  22375997.45207   2959281.80248  22375991.92548     -2270.05900
  -4476775.84006  23913971.03806  -3489466.99347  23913967.55447      1595.38200
  10658146.81606  23849819.04606   8286482.88147  23849814.16347     -4111.59600
 08 11 10  0 59 15.0030000  0  9  3  6 13 16 19 21 23 25 31
  -2238109.23808  20841719.03008  -1742551.09349  20841715.73349       -21.05200
    988999.16007  21045185.24907    767710.45348  21045181.87848     -1128.16400
  -1133662.07806  22995377.98306   -883917.77547  22995375.09747      -516.62400
   6624026.58607  21890522.57707   5148430.04848  21890518.22248     -2549.78200
  -6202892.40207  22851214.44407  -4827490.78548  22851209.13248      1718.60200
   2300380.34003  24716217.81903   1786488.67146  24716214.30046     -1494.03100
   3839351.53107  22382505.04607   2985930.51548  22382499.71048     -2279.94600
  -4500666.53906  23909424.73306  -3508083.13047  23909421.56547      1592.71300
  10719889.45306  23861567.76506   8334594.02347  23861563.66747     -4116.17600
 08 11 10  0 59 30.0030000  0  9  3  6 13 16 19 21 23 25 31
  -2237661.26207  20841804.08507  -1742202.01448  20841800.90548       -29.86500
   1006045.44107  21048428.89007    780993.27348  21048425.84348     -1136.41900
  -1125758.60206  22996881.99106   -877759.21747  22996878.93747      -526.89800
   6662315.43407  21897808.74907   5178265.51748  21897804.50348     -2552.59000
  -6228586.12106  22846324.96006  -4847511.85548  22846319.48748      1712.91500
   2322910.25803  24720505.91303   1804044.40245  24720500.23745     -1501.99500
   3873696.21107  22389040.85807   3012692.59648  22389035.32348     -2289.64500
  -4524519.77006  23904885.85106  -3526670.02347  23904882.17547      1590.21500
  10781697.92606  23873329.81906   8382756.43847  23873325.27647     -4120.56500
 08 11 10  0 59 45.0030000  0  9  3  6 13 16 19 21 23 25 31
  -2237080.86707  20841914.38207  -1741749.75549  20841911.69049       -38.69300
   1023215.46507  21051696.30407    794372.51548  21051693.28048     -1144.66800
  -1117701.00006  22998415.10106   -871480.57547  22998411.82347      -537.17300
   6700646.39507  21905102.59307   5208133.79848  21905097.93748     -2555.39700
  -6254194.49607  22841451.91307  -4867466.41648  22841446.76148      1707.22500
   2345559.69103  24724814.81203   1821693.32045  24724809.58945     -1509.96200
   3908186.00007  22395604.29607   3039567.73248  22395598.91348     -2299.31900
  -4548335.32406  23900354.00706  -3545227.58247  23900350.50747      1587.70400
  10843571.98806  23885103.47606   8430969.96047  23885099.35147     -4124.93800
 08 11 10  1  0  0.0030000  0  9  3  6 13 16 19 21 23 25 31
  -2236366.89108  20842050.40508  -1741193.40649  20842047.46849       -47.59800
   1040510.32007  21054987.67107    807849.03048  21054984.23748     -1152.99000
  -1109487.85906  22999978.71006   -865080.72347  22999975.28447      -547.54300
   6739020.56607  21912405.09307   5238035.73948  21912400.37048     -2558.27800
  -6279715.88306  22836595.35806  -4887353.18448  22836589.76948      1701.42600
   2368329.82804  24729147.92104   1839436.27745  24729143.33945     -1518.00900
   3942821.87107  22402195.10807   3066556.71848  22402189.65148     -2309.05800
  -4572111.54706  23895829.21806  -3563754.49047  23895826.03447      1585.08200
  10905512.79306  23896890.24106   8479235.49047  23896886.78847     -4129.38700
 08 11 10  1  0 15.0030000  0  9  3  6 13 16 19 21 23 25 31
  -2235520.61307  20842211.33507  -1740533.97248  20842208.64748       -56.41800
   1057928.50807  21058301.92907    821421.63948  21058298.65948     -1161.21300
  -1101120.61706  23001570.46006   -858560.78547  23001567.03847      -557.81600
   6777436.60207  21919715.09307   5267970.30748  21919710.98748     -2561.06900
  -6305151.34807  22831754.89707  -4907173.01948  22831749.64448      1695.69800
   2391219.44902  24733503.91302   1857272.35545  24733499.58945     -1525.97500
   3977602.34407  22408813.55407   3093658.36348  22408807.87848     -2318.69800
  -4595849.71106  23891312.19406  -3582251.75247  23891308.31247      1582.54400
  10967518.88706  23908690.06206   8527551.90747  23908686.39047     -4133.74000
 08 11 10  1  0 30.0030000  0  9  3  6 13 16 19 21 23 25 31
  -2234540.41807  20842397.88207  -1739770.18248  20842395.08148       -65.34600
   1075471.71507  21061640.45207    835091.69148  21061636.97648     -1169.54700
  -1092597.40206  23003192.35806   -851919.33447  23003189.17547      -568.21400
   6815896.02307  21927033.90507   5297938.69448  21927029.57748     -2563.96100
  -6330499.08206  22826930.99906  -4926924.49348  22826926.02648      1689.84900
   2414230.18004  24737883.09304   1875202.72746  24737878.77646     -1534.04900
   4012528.77007  22415460.08507   3120873.75448  22415454.02648     -2328.42800
  -4619547.87906  23886801.97606  -3600717.83947  23886798.35847      1579.87800
  11029591.64806  23920501.65506   8575920.29047  23920498.92147     -4138.18400
 08 11 10  1  0 45.0030000  0  9  3  6 13 16 19 21 23 25 31
  -2233428.58207  20842609.22607  -1738903.80749  20842606.56549       -74.12200
   1093137.66807  21065001.92907    848857.37348  21064999.00748     -1177.73000
  -1083920.43807  23004843.77207   -845158.07447  23004840.41347      -578.46400
   6854396.58607  21934360.43707   5327939.11848  21934356.07748     -2566.70400
  -6355761.16406  22822124.45206  -4946609.21848  22822118.80048      1684.13900
   2437359.75404  24742284.52204   1893225.80846  24742279.31546     -1541.97200
   4047598.75407  22422133.56907   3148201.00548  22422127.78848     -2337.99900
  -4643207.96506  23882300.02206  -3619154.25947  23882296.45247      1577.33900
  11091728.76206  23932326.42906   8624338.79247  23932323.22647     -4142.47400
 08 11 10  1  1  0.0030000  0  9  3  6 13 16 19 21 23 25 31
  -2232184.29707  20842846.31207  -1737934.22548  20842843.53848       -82.95200
   1110926.58607  21068387.29607    862718.87948  21068384.01948     -1185.92800
  -1075088.97306  23006524.49106   -838276.41447  23006521.06247      -588.76400
   6892938.87907  21941694.53807   5357972.07248  21941690.36248     -2569.48600
  -6380936.56606  22817332.91306  -4966226.41148  22817328.95648      1678.36000
   2460609.04304  24746709.35104   1911342.24446  24746703.91346     -1549.95300
   4082812.80107  22428834.21007   3175640.53148  22428828.72648     -2347.60300
  -4666829.10506  23877805.17906  -3637560.33647  23877801.52247      1574.74300
  11153930.70306  23944163.40506   8672807.78647  23944160.04647     -4146.79600
 08 11 10  1  1 15.0030000  0  9  3  6 13 16 19 21 23 25 31
  -2230808.15208  20843108.28808  -1736861.90648  20843105.05848       -91.74300
   1128838.03107  21071795.73307    876675.84148  21071792.40548     -1194.09600
  -1066103.52306  23008234.54606   -831274.77847  23008230.70647      -599.03000
   6931522.29707  21949036.74907   5388037.05948  21949032.89748     -2572.22800
  -6406025.75006  22812558.89006  -4985776.41448  22812553.94448      1672.61200
   2483977.34004  24751155.60804   1929551.18446  24751151.31946     -1557.88600
   4118169.93007  22435562.54607   3203191.53448  22435556.88248     -2357.14200
  -4690411.60906  23873317.89706  -3655936.30147  23873314.40947      1572.16700
  11216196.82406  23956012.07706   8721326.82147  23956008.67147     -4151.07500
 08 11 10  1  1 30.0030000  0  9  3  6 13 16 19 21 23 25 31
  -2229298.77007  20843395.53807  -1735685.74448  20843392.26548      -100.62600
   1146873.23007  21075227.64707    890729.26048  21075224.18748     -1202.34700
  -1056962.78906  23009973.34306   -824152.13347  23009970.03847      -609.38200
   6970147.91807  21956386.92907   5418134.94848  21956382.90948     -2575.04100
  -6431027.25406  22807801.56906  -5005258.09048  22807796.49948      1666.76700
   2507466.13304  24755625.10804   1947854.09046  24755621.34346     -1565.92000
   4153671.50407  22442318.63207   3230855.08848  22442312.33148     -2366.77200
  -4713953.85506  23868837.98306  -3674280.91447  23868834.59747      1569.48300
  11278528.39806  23967873.14006   8769896.84447  23967870.40547     -4155.43800
 08 11 10  1  1 45.0030000  0  9  3  6 13 16 19 21 23 25 31
  -2227655.38707  20843708.00707  -1734405.19149  20843704.93349      -109.55900
   1165032.60507  21078683.14707    904879.41548  21078679.86248     -1210.62500
  -1047666.19106  23011742.06206   -816908.03547  23011739.04247      -619.77300
   7008816.39507  21963745.52207   5448266.21748  21963740.90548     -2577.89800
  -6455940.21906  22803060.42906  -5024670.79348  22803056.06948      1660.86400
   2531075.85902  24760117.74102   1966251.38846  24760113.76546     -1573.98200
   4189317.71507  22449101.66307   3258631.34148  22449095.92548     -2376.41400
  -4737455.15606  23864365.82706  -3692593.62947  23864361.55447      1566.75300
  11340925.63306  23979746.96806   8818518.04847  23979744.19447     -4159.81600
 08 11 10  1  2  0.0030000  0  9  3  6 13 16 19 21 23 25 31
  -2225877.99207  20844046.48307  -1733020.19448  20844043.55048      -118.49300
   1183316.36307  21082162.89707    919126.50548  21082159.43348     -1218.91700
  -1038213.34806  23013541.46806   -809542.17047  23013537.97647      -630.19000
   7047527.85207  21971111.90507   5478430.99648  21971107.37448     -2580.76400
  -6480764.18806  22798337.04606  -5044014.12148  22798332.58548      1654.93100
   2554806.73802  24764632.89702   1984742.95345  24764629.73745     -1582.05900
   4225108.50006  22455912.17106   3286520.25048  22455907.11648     -2386.05200
  -4760914.94506  23859901.87406  -3710873.96047  23859897.52647      1563.98600
  11403388.62106  23991633.44406   8867190.48747  23991630.32347     -4164.19900
 08 11 10  1  2 15.0030000  0  9  3  6 13 16 19 21 23 25 31
  -2223964.23407  20844410.62407  -1731528.95249  20844407.53449      -127.58400
   1201726.62107  21085665.78807    933472.16048  21085662.84748     -1227.35100
  -1028601.84806  23015370.31206   -802052.72247  23015367.30847      -640.76700
   7086284.45707  21978487.02207   5508630.94348  21978482.94048     -2583.77400
  -6505496.79306  22793630.48306  -5063286.27048  22793625.95248      1648.84000
   2578661.09003  24769173.42103   2003330.71945  24769169.36645     -1590.29000
   4261046.00007  22462750.74107   3314523.47148  22462745.64048     -2395.83300
  -4784330.70306  23855445.82706  -3729119.99547  23855442.10847      1561.05100
  11465919.48805  24003532.17105   8915915.81447  24003529.89747     -4168.72400
 08 11 10  1  2 30.0030000  0  9  3  6 13 16 19 21 23 25 31
  -2221916.97707  20844799.77207  -1729933.66948  20844796.62448      -136.48400
   1220260.40607  21089192.49107    947914.07848  21089189.70248     -1235.58600
  -1018834.53906  23017229.36606   -794441.83047  23017225.80047      -651.15400
   7125083.39507  21985870.60807   5538863.87048  21985866.26948     -2586.59600
  -6530140.37506  22788940.73306  -5082489.03848  22788936.49548      1642.90500
   2602636.20303  24773735.36603   2022012.63745  24773731.77645     -1598.34100
   4297127.25006  22469616.92106   3342638.73548  22469611.52648     -2405.41700
  -4807704.98806  23850997.71006  -3747333.72447  23850993.86247      1558.28600
  11528515.28905  24015444.17905   8964691.72547  24015441.83547     -4173.05300
 08 11 10  1  2 45.0030000  0  9  3  6 13 16 19 21 23 25 31
  -2219737.02307  20845214.60807  -1728235.00248  20845211.71448      -145.33000
   1238916.75807  21092742.89707    962451.49448  21092739.74548     -1243.75700
  -1008912.42606  23019116.90506   -786710.31447  23019113.73747      -661.47400
   7163923.68807  21993261.58507   5569129.03148  21993257.37448     -2589.35300
  -6554695.64806  22784267.90506  -5101622.99348  22784264.05448      1637.01800
   2626731.22302  24778319.56902   2040788.07145  24778315.96445     -1606.33500
   4333351.06307  22476510.40507   3370865.06548  22476505.40148     -2414.92100
  -4831038.36706  23846557.60806  -3765515.57647  23846554.48747      1555.55900
  11591175.00806  24027367.55406   9013517.46747  24027364.82347     -4177.31500
 08 11 10  1  3  0.0030000  0  9  3  6 13 16 19 21 23 25 31
  -2217422.69107  20845654.95207  -1726431.61948  20845652.20648      -154.28900
   1257696.96907  21096316.54607    977085.43448  21096313.31548     -1252.01400
   -998833.82407  23021035.37407   -778856.85847  23021031.58547      -671.90700
   7202806.72307  22000660.78807   5599427.49548  22000656.15948     -2592.20200
  -6579161.10506  22779612.82706  -5120686.97548  22779608.65948      1631.03000
   2650947.59803  24782927.71003   2059657.96945  24782924.56545     -1614.42500
   4369718.64807  22483430.67107   3399203.44548  22483425.87448     -2424.50600
  -4854329.25806  23842125.58506  -3783664.29047  23842121.95247      1552.72600
  11653899.99205  24039304.31205   9062394.05347  24039301.24947     -4181.66600
 08 11 10  1  3 15.0030000  0  9  3  6 13 16 19 21 23 25 31
  -2214972.95307  20846121.30407  -1724522.73048  20846118.25348      -163.31600
   1276602.25407  21099914.38207    991816.82848  21099911.13648     -1260.35200
   -988597.35507  23022983.18707   -770880.40247  23022979.45647      -682.43100
   7241733.70307  22008067.97607   5629760.21448  22008063.84348     -2595.13200
  -6603535.18406  22774974.15506  -5139679.74248  22774969.87848      1624.93900
   2675286.59003  24787559.72603   2078623.43546  24787556.40146     -1622.59900
   4406231.06307  22490378.86607   3427654.68648  22490373.71048     -2434.16100
  -4877576.10906  23837701.94406  -3801778.71547  23837698.45247      1549.79000
  11716691.32805  24051252.42905   9111322.34647  24051249.34347     -4186.08900
 08 11 10  1  3 30.0030000  0  9  3  6 13 16 19 21 23 25 31
  -2212388.81307  20846613.01507  -1722509.11448  20846609.93748      -172.27600
   1295631.45307  21103535.49107   1006644.78148  21103532.11648     -1268.61300
   -978204.03507  23024960.96007   -762781.72247  23024957.26147      -692.88800
   7280703.57807  22015483.85807   5660126.34448  22015479.59748     -2597.99200
  -6627818.66007  22770353.28807  -5158601.90348  22770349.19448      1618.89800
   2699747.13303  24792214.37403   2097683.59346  24792210.92146     -1630.70300
   4442887.03507  22497354.32707   3456217.77048  22497349.14048     -2443.73200
  -4900779.62506  23833286.36606  -3819859.35047  23833282.21047      1546.90100
  11779547.78505  24063214.04605   9160301.39947  24063210.32747     -4190.43000
 08 11 10  1  3 45.0030000  0  9  3  6 13 16 19 21 23 25 31
  -2209669.62507  20847130.30407  -1720390.26148  20847127.62048      -181.27900
   1314784.93807  21107180.25707   1021569.56248  21107177.23348     -1276.89900
   -967653.39806  23026968.61606   -754560.46247  23026965.09747      -703.37600
   7319716.81307  22022907.60107   5690526.25848  22022903.92948     -2600.88200
  -6652010.90207  22765749.56907  -5177452.97448  22765745.45648      1612.81600
   2724329.85504  24796892.49104   2116838.90246  24796888.92146     -1638.84800
   4479686.80107  22504357.08507   3484892.90648  22504351.35848     -2453.31800
  -4923939.06606  23828879.30406  -3837905.68347  23828875.50747      1543.96300
  11842469.87106  24075187.51506   9209331.53747  24075184.19047     -4194.80600
 08 11 10  1  4  0.0030000  0  9  3  6 13 16 19 21 23 25 31
  -2206815.11707  20847673.71807  -1718165.96048  20847670.78848      -190.30100
   1334062.97307  21110848.81207   1036591.41248  21110845.71848     -1285.20200
   -956944.98007  23029006.64007   -746216.23047  23029002.94847      -713.89500
   7358773.88707  22030340.39707   5720960.33448  22030336.43348     -2603.80500
  -6676111.35907  22761163.42107  -5196232.53248  22761159.16748      1606.69700
   2749035.03105  24801593.50705   2136089.70446  24801589.90546     -1647.01200
   4516630.30107  22511387.32707   3513680.02748  22511381.73348     -2462.90000
  -4947053.81606  23824480.49106  -3855917.14447  23824476.56547      1540.98300
  11905457.57806  24087173.99106   9258412.85247  24087170.11247     -4199.18000
 08 11 10  1  4 15.0030000  0  9  3  6 13 16 19 21 23 25 31
  -2203825.64507  20848242.89007  -1715836.49648  20848239.92948      -199.29800
   1353465.15207  21114541.40507   1051709.99648  21114537.18748     -1293.47900
   -946079.27007  23031074.19407   -737749.46647  23031070.69847      -724.38100
   7397873.88307  22037780.61607   5751427.85448  22037776.25748     -2606.66600
  -6700120.12107  22756594.64007  -5214940.66048  22756590.01948      1600.58400
   2773862.23805  24806318.55405   2155435.59746  24806314.64746     -1655.14700
   4553717.12107  22518444.81907   3542578.85048  22518439.05448     -2472.45500
  -4970124.05106  23820090.49906  -3873893.95147  23820086.55847      1538.01600
  11968510.43806  24099172.94406   9307544.90547  24099169.08147     -4203.52400
 08 11 10  1  4 30.0030000  0  9  3  6 13 16 19 21 23 25 31
  -2200701.24607  20848836.92907  -1713401.88148  20848834.26148      -208.29300
   1372991.05907  21118256.32707   1066924.99848  21118253.12048     -1301.72700
   -935056.16807  23033171.92907   -729160.04947  23033168.74147      -734.87300
   7437016.82807  22045228.92907   5781928.84648  22045225.24948     -2609.53000
  -6724036.96507  22752043.60107  -5233577.13348  22752038.76948      1594.45600
   2798811.52005  24811066.89005   2174876.58746  24811062.94046     -1663.28500
   4590947.18807  22525529.06907   3571589.27348  22525523.53848     -2482.00400
  -4993149.51206  23815708.50706  -3891835.82547  23815704.85847      1535.03100
  12031628.38306  24111183.78006   9356727.70847  24111180.05447     -4207.86300
 08 11 10  1  4 45.0030000  0  9  3  6 13 16 19 21 23 25 31
  -2197441.74207  20849457.59307  -1710862.01849  20849454.78849      -217.30000
   1392641.12507  21121995.68707   1082236.74448  21121992.33948     -1310.00400
   -923875.45307  23035299.70207   -720447.79047  23035295.85847      -745.38100
   7476203.05107  22052686.41307   5812463.54448  22052682.17148     -2612.41500
  -6747861.45306  22747510.23306  -5252141.66448  22747505.17148      1588.29900
   2823883.00805  24815837.35805   2194412.76946  24815833.76146     -1671.43300
   4628320.35907  22532640.57707   3600711.21648  22532636.05448     -2491.54500
  -5016129.65605  23811335.67105  -3909742.43247  23811332.30847      1532.01000
  12094811.33606  24123207.20206   9405961.14847  24123203.59347     -4212.19700
 08 11 10  1  5  0.0030000  0  9  3  6 13 16 19 21 23 25 31
  -2194048.16407  20850103.13207  -1708217.66649  20850100.35149      -226.23900
   1412413.91407  21125758.10807   1097644.11848  21125755.05448     -1318.18600
   -912538.28907  23037456.88207   -711613.62447  23037453.55447      -755.81100
   7515431.09407  22060150.87407   5843030.86648  22060146.62048     -2615.20300
  -6771594.73807  22742993.71807  -5270635.12648  22742988.99148      1582.21900
   2849075.56305  24820631.19405   2214043.36846  24820627.42946     -1679.50400
   4665835.06307  22539779.64707   3629943.45248  22539774.61248     -2500.98000
  -5039065.58606  23806971.33506  -3927614.57047  23806967.90947      1529.06200
  12158057.95706  24135242.31906   9455244.20547  24135239.44847     -4216.44100
 08 11 10  1  5 15.0030000  0  9  3  6 13 16 19 21 23 25 31
  -2190520.55107  20850774.29607  -1705468.87549  20850771.60449      -235.17400
   1432309.18807  21129544.51507   1113146.92548  21129540.97948     -1326.35200
   -901044.65207  23039643.56207   -702657.55547  23039640.50747      -766.24200
   7554701.08207  22067623.97607   5873630.84048  22067619.13648     -2617.99900
  -6795236.50407  22738495.12407  -5289057.26748  22738489.80448      1576.11800
   2874389.47705  24825448.22605   2233768.50446  24825444.09346     -1687.59400
   4703491.09007  22546945.30407   3659285.80048  22546940.47948     -2510.40200
  -5061956.91006  23802614.85806  -3945451.95647  23802611.72647      1526.08800
  12221368.10906  24147290.15506   9504576.76847  24147286.41747     -4220.67700
 08 11 10  1  5 30.0030000  0  9  3  6 13 16 19 21 23 25 31
  -2186860.34407  20851470.89707  -1702616.76549  20851468.09349      -244.01400
   1452325.54307  21133353.23307   1128744.09448  21133350.02248     -1334.42400
   -889395.85906  23041860.73306   -693580.58447  23041857.33547      -776.58600
   7594011.46107  22075104.51507   5904262.29648  22075100.08548     -2620.69200
  -6818787.99607  22734012.96807  -5307409.06348  22734007.58548      1570.09900
   2899823.09405  24830287.68705   2253586.89845  24830283.58545     -1695.57400
   4741286.67607  22554137.81907   3688736.89648  22554133.23748     -2519.70600
  -5084804.83606  23798267.24906  -3963255.50447  23798264.17547      1523.19500
  12284740.14806  24159349.70206   9553957.53647  24159346.04247     -4224.80300
 08 11 10  1  5 45.0030000  0  9  3  6 13 16 19 21 23 25 31
  -2183066.29307  20852192.93707  -1699660.35849  20852189.92149      -252.93700
   1472463.96507  21137185.50707   1144436.37648  21137182.37448     -1342.56100
   -877590.78107  23044106.95207   -684381.83547  23044103.91747      -787.00500
   7633363.37107  22082593.03807   5934926.11648  22082588.13648     -2623.46100
  -6842247.78507  22729548.93707  -5325689.41848  22729543.44448      1563.98600
   2925377.70305  24835151.14705   2273499.62146  24835146.55046     -1703.64100
   4779222.90207  22561356.87407   3718297.56748  22561351.66748     -2529.08200
  -5107607.95706  23793927.92106  -3981024.16447  23793924.57347      1520.20800
  12348175.26206  24171420.70206   9603387.45647  24171417.31547     -4229.00800
 08 11 10  1  6  0.0030000  0  9  3  6 13 16 19 21 23 25 31
  -2179139.19107  20852940.44407  -1696600.27249  20852937.18749      -261.80700
   1492723.56307  21141040.46807   1160223.07848  21141037.91748     -1350.64000
   -865630.30907  23046383.27207   -675061.98647  23046379.70247      -797.36500
   7672755.73807  22090089.39707   5965621.46348  22090084.56548     -2626.15800
  -6865616.64107  22725101.85107  -5343898.89748  22725096.35448      1557.92400
   2951052.16005  24840037.48305   2293505.66046  24840032.21046     -1711.63000
   4817298.46907  22568602.13207   3747966.83048  22568597.16348     -2538.37100
  -5130366.83206  23789597.16306  -3998758.34747  23789593.95247      1517.25800
  12411672.28506  24183504.08506   9652865.64147  24183500.77647     -4233.13500
 08 11 10  1  6 15.0030000  0  9  3  6 13 16 19 21 23 25 31
  -2175080.52307  20853712.77207  -1693437.66949  20853709.49549      -270.57800
   1513102.88707  21144918.72607   1176103.06948  21144915.80448     -1358.62200
   -853515.61307  23048688.46007   -665621.97147  23048685.34347      -807.64600
   7712187.35907  22097592.69407   5996347.39148  22097588.23348     -2628.77500
  -6888895.55906  22720672.03806  -5362038.30648  22720666.74948      1551.92800
   2976845.35505  24844944.67905   2313604.28945  24844939.94045     -1719.54600
   4855511.93407  22575874.20207   3777743.54048  22575869.31948     -2547.56400
  -5153082.55505  23785274.48305  -4016458.91947  23785270.74147      1514.38200
  12475229.76606  24195598.19406   9702390.89947  24195595.71847     -4237.16500
 08 11 10  1  6 30.0030000  0  9  3  6 13 16 19 21 23 25 31
  -2170891.11307  20854509.83507  -1690173.18949  20854507.22949      -279.29400
   1533600.69507  21148819.40507   1192075.40348  21148816.55048     -1366.52100
   -841247.66807  23051023.14007   -656062.52647  23051019.82347      -817.86300
   7751657.43407  22105103.64007   6027103.29948  22105099.03048     -2631.33800
  -6912085.15206  22716259.14006  -5380108.09748  22716253.71448      1545.97300
   3002756.33605  24849875.36605   2333794.66245  24849870.97945     -1727.39900
   4893862.34007  22583172.03007   3807626.97348  22583167.27648     -2556.69400
  -5175755.69105  23780959.33505  -4034126.27747  23780956.20647      1511.54200
  12538846.67205  24207704.56905   9751962.50847  24207701.42547     -4241.12700
 08 11 10  1  6 45.0030000  0  9  3  6 13 16 19 21 23 25 31
  -2166569.94507  20855332.03007  -1686806.03749  20855329.18349      -288.07800
   1554218.13307  21152742.75707   1208140.93848  21152740.06948     -1374.49600
   -828825.39807  23053386.39007   -646382.83947  23053383.39747      -828.15100
   7791166.60207  22112621.75707   6057889.66848  22112616.96848     -2633.94500
  -6935184.35906  22711863.06206  -5398107.47348  22711858.56548      1539.94700
   3028786.10505  24854829.67905   2354077.58745  24854824.01945     -1735.31800
   4932350.27006  22590496.01506   3837617.54548  22590491.25748     -2565.86200
  -5198385.04306  23776653.69406  -4051759.57347  23776649.79647      1508.62300
  12602523.76606  24219821.40506   9801581.00547  24219818.99147     -4245.14000
 08 11 10  1  7  0.0030000  0  9  3  6 13 16 19 21 23 25 31
  -2162118.21507  20856178.96007  -1683337.15248  20856176.26548      -296.78200
   1574953.80107  21156688.47607   1224298.60448  21156685.55048     -1382.37800
   -816249.76607  23055779.76507   -636583.64747  23055776.58947      -838.37600
   7830713.72307  22120147.25707   6088705.59148  22120142.60148     -2636.47500
  -6958194.03506  22707484.71006  -5416037.08148  22707480.16748      1533.97800
   3054933.48805  24859805.09305   2374452.09245  24859799.66745     -1743.15900
   4970974.28107  22597845.66307   3867714.17248  22597841.02248     -2574.93400
  -5220971.46106  23772355.57706  -4069359.35447  23772351.97247      1505.76100
  12666259.93006  24231950.78006   9851245.51547  24231947.57347     -4249.07800
 08 11 10  1  7 15.0030000  0  9  3  6 13 16 19 21 23 25 31
  -2157535.50807  20857051.02207  -1679766.21448  20857048.35848      -305.51400
   1595807.90607  21160656.99907   1240548.55848  21160654.07748     -1390.27400
   -803520.57807  23058202.11607   -626664.81447  23058198.87447      -848.61200
   7870299.09007  22127680.04607   6119551.32848  22127675.92148     -2639.02400
  -6981113.71106  22703123.05406  -5433896.56148  22703118.32348      1527.97800
   3081198.78905  24864802.58505   2394918.54145  24864797.81545     -1751.02000
   5009734.37507  22605221.67907   3897916.82948  22605216.93348     -2584.00600
  -5243514.36706  23768065.59306  -4086925.23747  23768061.85847      1502.86000
  12730055.24206  24244090.58506   9900956.11747  24244087.17547     -4253.02100
 08 11 10  1  7 30.0030000  0 10  3  6  7 13 16 19 21 23 25 31
  -2152821.68407  20857948.12407  -1676093.09448  20857945.09748      -314.25500
   1616780.82807  21164648.27207   1256891.09748  21164645.27248     -1398.19500
    -66600.26214  25278685.10104    -52169.59055  25278682.05845      2147.82800
   -790637.42207  23060653.53807   -616625.98347  23060650.18347      -858.87700
   7909922.95706  22135220.34306   6150427.06248  22135216.07748     -2641.59100
  -7003942.89506  22698779.16306  -5451685.52048  22698774.48748      1521.94600
   3107582.41405  24869823.69405   2415477.18445  24869817.88645     -1758.90800
   5048630.87506  22612623.75706   3928225.78448  22612618.78048     -2593.10000
  -5266013.24206  23763783.98306  -4104456.81347  23763780.39747      1499.92500
  12793909.85506  24256241.39706   9950712.94947  24256238.54247     -4256.97400
 08 11 10  1  7 45.0030000  0 10  3  6  7 13 16 19 21 23 25 31
  -2147976.13707  20858870.33507  -1672317.34948  20858867.50348      -323.03600
   1637872.55907  21168661.96807   1273326.21048  21168658.63248     -1406.11500
    -98813.50004  25272555.83504    -77270.73845  25272551.47245      2147.54900
   -777599.85907  23063134.67907   -606466.88047  23063131.71447      -869.17100
   7949585.79706  22142767.73306   6181333.15748  22142763.92548     -2644.18900
  -7026680.87106  22694451.80406  -5469403.40948  22694447.37048      1515.86500
   3134085.01205  24874867.19405   2436128.60545  24874861.40545     -1766.84000
   5087663.93406  22620051.25706   3958641.14248  22620046.29648     -2602.20400
  -5288467.19906  23759511.17906  -4121953.39747  23759508.01947      1496.93000
  12857824.15206  24268404.12406  10000516.26147  24268400.81547     -4260.95300
 08 11 10  1  8  0.0030000  0 10  3  6  7 13 16 19 21 23 25 31
  -2143000.50807  20859816.99107  -1668440.22748  20859814.13248      -331.70900
   1659081.50807  21172697.62407   1289852.68148  21172694.47648     -1413.93000
   -131019.73004  25266426.95204   -102366.44946  25266422.91746      2147.08200
   -764409.66807  23065644.80407   -596188.80047  23065641.15947      -879.34600
   7989285.80906  22150322.97606   6212268.23148  22150318.28848     -2646.66700
  -7049329.12107  22690142.36607  -5487051.37848  22690137.58948      1509.88300
   3160704.55905  24879932.22605   2456871.12545  24879926.79645     -1774.63600
   5126831.40606  22627504.90506   3989161.25048  22627499.38248     -2611.16500
  -5310877.83606  23755246.49906  -4139416.23447  23755243.22947      1494.04200
  12921796.02706  24280577.92106  10050364.46247  24280574.35847     -4264.79200
 08 11 10  1  8 15.0030000  0 10  3  6  7 13 16 19 21 23 25 31
  -2137893.85907  20860788.85107  -1664461.02648  20860785.91348      -340.44300
   1680408.50807  21176755.91307   1306471.11848  21176752.65948     -1421.80000
   -163217.77004  25260300.06904   -127455.83946  25260295.97646      2146.53600
   -751065.85207  23068184.01507   -585791.01047  23068180.65547      -889.58800
   8029024.00806  22157884.80406   6243233.05548  22157880.10448     -2649.21300
  -7071886.40206  22685849.44406  -5504628.46048  22685845.14448      1503.81900
   3187442.21504  24885020.04604   2477705.63745  24885014.13645     -1782.51000
   5166134.20306  22634983.88206   4019786.79048  22634978.70648     -2620.18600
  -5333243.71506  23750990.49906  -4156844.19347  23750987.01547      1491.05900
  12985826.45306  24292762.53806  10100258.26647  24292758.97647     -4268.69500
 08 11 10  1  8 30.0030000  0 10  3  6  7 13 16 19 21 23 25 31
  -2132657.90607  20861785.31907  -1660381.06048  20861782.41348      -349.06400
   1701851.92607  21180836.58507   1323180.28248  21180833.32748     -1429.56100
   -195409.03504  25254173.59304   -152539.91445  25254169.92545      2146.08400
   -737570.11706  23070752.04606   -575274.86547  23070748.73347      -899.71600
   8068798.75406  22165453.61606   6274226.36848  22165449.69048     -2651.65000
  -7094354.15607  22681573.66307  -5522135.78048  22681569.94448      1497.85000
   3214296.35204  24890130.91304   2498630.90645  24890124.26545     -1790.27600
   5205570.29306  22642488.00706   4050516.19948  22642483.03848     -2629.07300
  -5355566.40606  23746743.09306  -4174238.44947  23746739.08147      1488.17900
  13049913.70706  24304957.36606  10150196.35547  24304954.53047     -4272.48400
 08 11 10  1  8 45.0030000  0 10  3  6  7 13 16 19 21 23 25 31
  -2127291.81307  20862806.37407  -1656199.67749  20862803.40949      -357.74000
   1723412.17607  21184939.21007   1339980.48348  21184936.30448     -1437.35000
   -227592.30904  25248049.49104   -177617.75246  25248046.17146      2145.55200
   -723921.28907  23073349.42907   -564639.42347  23073346.02647      -909.92200
   8108610.89107  22173029.50707   6305248.80748  22173025.03848     -2654.14200
  -7116731.32006  22677315.81206  -5539572.52248  22677312.12448      1491.81100
   3241267.80104  24895263.49104   2519647.63345  24895256.81945     -1798.09700
   5245140.43807  22650017.96007   4081350.07048  22650012.64748     -2638.01000
  -5377844.55506  23742502.59306  -4191598.04147  23742499.64747      1485.21000
  13114058.46106  24317163.23306  10200179.26247  24317161.33147     -4276.31700
 08 11 10  1  9  0.0030000  0 10  3  6  7 13 16 19 21 23 25 31
  -2121795.77007  20863852.28807  -1651917.04148  20863849.41748      -366.40300
   1745089.17207  21189064.11607   1356871.64548  21189061.46448     -1445.13300
   -259767.86305  25241927.14705   -202689.55746  25241922.77246      2145.03700
   -710119.79307  23075975.66307   -553884.99847  23075971.81947      -920.10000
   8148459.71507  22180612.41307   6336299.82648  22180608.45648     -2656.58800
  -7139018.14107  22673075.24107  -5556938.85248  22673070.87048      1485.78800
   3268356.05904  24900417.17904   2540755.35545  24900410.84345     -1805.88400
   5284843.93407  22657573.83507   4112287.85248  22657567.65548     -2646.90000
  -5400078.49606  23738271.83506  -4208923.16947  23738268.57747      1482.26300
  13178260.15206  24329380.76506  10250206.54547  24329378.74147     -4280.11300
 08 11 10  1  9 15.0030000  0 10  3  6  7 13 16 19 21 23 25 31
  -2116167.84007  20864923.06207  -1647531.63548  20864920.60448      -375.19500
   1766884.40207  21193211.35107   1373854.94048  21193208.59748     -1453.01500
   -291933.28805  25235806.28805   -227753.58446  25235801.80846      2144.36200
   -696163.66807  23078631.49107   -543010.09447  23078627.84347      -930.40800
   8188347.24607  22188202.64007   6367381.00848  22188198.55848     -2659.16900
  -7161212.35207  22668851.39707  -5574233.04048  22668847.11648      1479.61400
   3295563.23004  24905594.80404   2561955.69545  24905588.45245     -1813.81100
   5324682.52707  22665154.31207   4143330.90048  22665148.67948     -2655.90600
  -5422265.84806  23734049.94406  -4226212.03047  23734046.21847      1479.15700
  13242520.69106  24341609.29606  10300279.68647  24341606.73747     -4284.03600
 08 11 10  1  9 30.0030000  0 10  3  6  7 13 16 19 21 23 25 31
  -2110408.48407  20866019.00707  -1643043.83648  20866016.14448      -383.95700
   1788797.67607  21197381.72607   1390930.22348  21197378.65548     -1460.88500
   -324088.68005  25229687.99105   -252809.62146  25229682.71846      2143.69300
   -682053.13707  23081316.39007   -532014.88847  23081313.12047      -940.70200
   8228273.16807  22195800.30407   6398492.11348  22195795.58548     -2661.72800
  -7183314.07807  22664645.96007  -5591455.14148  22664641.23748      1473.44800
   3322888.97304  24910795.12404   2583248.46945  24910788.49945     -1821.71600
   5364655.60507  22672761.23307   4174478.75148  22672755.71448     -2664.87200
  -5444406.64506  23729836.67106  -4243464.58047  23729833.44047      1476.05300
  13306839.55906  24353848.55406  10350398.26547  24353846.65947     -4287.92400
 08 11 10  1  9 45.0030000  0 10  3  6  7 13 16 19 21 23 25 31
  -2104516.73007  20867140.14707  -1638452.84249  20867137.48349      -392.78400
   1810829.46907  21201573.99107   1408097.84448  21201571.22648     -1468.78600
   -356233.09405  25223570.81905   -277857.26446  25223565.82346      2142.96100
   -667787.58207  23084031.04607   -520898.87247  23084027.63647      -951.03700
   8268238.28907  22203405.39707   6429633.77148  22203401.39448     -2664.34100
  -7205322.34006  22660457.95206  -5608604.41448  22660453.40148      1467.21700
   3350334.02705  24916017.39005   2604634.21545  24916011.80045     -1829.67000
   5404763.70707  22680393.46007   4205731.79248  22680388.12448     -2673.87300
  -5466499.84806  23725632.63206  -4260680.03547  23725629.47647      1472.88000
  13371217.27006  24366099.74906  10400562.67047  24366096.83147     -4291.84700
 08 11 10  1 10  0.0030000  0 10  3  6  7 13 16 19 21 23 25 31
  -2098494.38707  20868286.56207  -1633760.10748  20868283.80448      -401.49000
   1832977.76207  21205789.02207   1425356.25648  21205785.82748     -1476.55300
   -388368.20305  25217455.17905   -302897.56546  25217450.53446      2142.34100
   -653369.11707  23086774.88207   -509663.69747  23086771.58547      -961.23100
   8308240.64806  22211017.76506   6460804.42648  22211013.76948     -2666.82400
  -7227238.84407  22656287.17907  -5625682.19948  22656282.46048      1461.10000
   3377896.46504  24921262.42904   2626111.43445  24921257.61245     -1837.49600
   5445004.64806  22688051.54606   4237088.35648  22688045.67548     -2682.72900
  -5488547.12506  23721437.32706  -4277859.72547  23721433.91747      1469.81800
  13435651.82406  24378361.25706  10450771.40547  24378357.70247     -4295.63700
 08 11 10  1 10 15.0030000  0 10  3  6  7 13 16 19 21 23 25 31
  -2092340.62107  20869457.49107  -1628964.97348  20869454.45648      -410.25100
   1855243.70707  21210025.99107   1442706.33848  21210023.24948     -1484.39600
   -420492.81605  25211341.92905   -327929.73246  25211338.08546      2141.64100
   -638796.25407  23089547.85807   -498308.23547  23089545.02247      -971.52400
   8348281.16006  22218637.23306   6492004.82148  22218633.09748     -2669.36700
  -7249062.27707  22652134.26507  -5642687.45548  22652129.29648      1454.89600
   3405577.44904  24926529.77204   2647681.02745  24926526.25345     -1845.39900
   5485379.22706  22695734.32706   4268549.04248  22695729.02248     -2691.63900
  -5510547.08206  23717250.62406  -4295002.55447  23717247.15147      1466.66400
  13500144.14106  24390633.01506  10501025.15047  24390630.55047     -4299.48800
 08 11 10  1 10 30.0030000  0 10  3  6  7 13 16 19 21 23 25 31
  -2086055.99607  20870653.31207  -1624067.85848  20870650.49548      -418.97500
   1877626.52307  21214285.47607   1460147.51048  21214282.23748     -1492.18800
   -452606.96905  25205230.40505   -352953.70946  25205227.57346      2140.94300
   -624069.50807  23092350.58507   -486832.83147  23092347.15947      -981.78300
   8388359.44906  22226263.95206   6523234.65348  22226259.55048     -2671.88600
  -7270792.78507  22647998.79607  -5659620.29548  22647993.96048      1448.70100
   3433376.45304  24931820.24104   2669342.57945  24931816.48745     -1853.26700
   5525886.82406  22703442.67906   4300113.39548  22703437.44048     -2700.50700
  -5532499.89506  23713073.18706  -4312108.63047  23713069.65547      1463.52100
  13564693.65606  24402917.02206  10551323.45447  24402914.16347     -4303.30100
 08 11 10  1 10 45.0030000  0 10  3  6  7 13 16 19 21 23 25 31
  -2079638.51207  20871874.48307  -1619067.21548  20871871.83548      -427.83200
   1900128.15207  21218567.14707   1477681.24348  21218563.95248     -1500.10900
   -484708.60905  25199122.14005   -377967.95646  25199118.44446      2140.10900
   -609187.00807  23095182.28807   -475236.08847  23095178.65947      -992.16700
   8428477.37506  22233897.78006   6554495.37948  22233893.86648     -2674.52800
  -7292428.44107  22643881.89007  -5676479.24148  22643877.01148      1442.37700
   3461295.26204  24937133.55404   2691097.44145  24937129.09745     -1861.25400
   5566528.95306  22711176.69406   4331782.57948  22711171.27248     -2709.47500
  -5554403.37506  23708905.00706  -4329176.27947  23708901.68347      1460.23200
  13629302.13706  24415211.34306  10601667.69147  24415209.00747     -4307.23200
 08 11 10  1 11  0.0030000  0 10  3  6  7 13 16 19 21 23 25 31
  -2073089.04707  20873120.88207  -1613963.73448  20873118.02248      -436.63100
   1922747.31607  21222871.51507   1495306.57048  21222868.38648     -1507.94400
   -516798.40205  25193016.17105   -402972.95946  25193011.81246      2139.32000
   -594149.87107  23098043.98307   -463518.85247  23098040.21047     -1002.47600
   8468633.84006  22241539.40506   6585786.12548  22241535.48748     -2677.09800
  -7313970.03506  22639782.81906  -5693264.88048  22639777.85448      1436.10600
   3489333.01203  24942468.67103   2712945.02745  24942464.37845     -1869.18300
   5607304.37106  22718935.77206   4363555.63848  22718930.32348     -2718.36100
  -5576258.33206  23704746.15506  -4346206.09447  23704742.97247      1456.99700
  13693968.32806  24427517.41306  10652056.89247  24427513.99947     -4311.07900
 08 11 10  1 11 15.0030000  0 10  3  6  7 13 16 19 21 23 25 31
  -2066408.54307  20874392.04607  -1608758.14148  20874388.95248      -445.36700
   1945483.04307  21227198.01507   1513022.72548  21227194.68748     -1515.71500
   -548876.91405  25186911.64005   -427969.28346  25186907.49146      2138.56700
   -578958.86307  23100934.74107   -451681.70347  23100930.87447     -1012.73400
   8508827.85206  22249187.71806   6617106.12248  22249183.49548     -2679.60100
  -7335418.21106  22635700.92106  -5709977.72448  22635696.58948      1429.87800
   3517488.68004  24947825.74904   2734884.61745  24947821.70245     -1877.04500
   5648212.00406  22726719.87406   4395431.70948  22726714.26548     -2727.17600
  -5598065.33606  23700596.68706  -4363198.56447  23700593.36247      1453.80000
  13758691.16806  24439833.52206  10702490.23847  24439829.98347     -4314.85600
 08 11 10  1 11 30.0030000  0 10  3  6  7 13 16 19 21 23 25 31
  -2059595.87107  20875688.31907  -1603449.56848  20875685.24548      -454.17800
   1968336.27307  21231546.99107   1530830.42648  21231543.57748     -1523.54900
   -580942.64105  25180809.96805   -452955.47246  25180805.60846      2137.71500
   -563612.80907  23103855.34307   -439723.73647  23103851.03447     -1023.07000
   8549060.55107  22256844.08507   6648456.27948  22256839.97948     -2682.18000
  -7356771.40206  22631637.74906  -5726616.57248  22631632.86648      1423.54600
   3545763.62903  24953205.95203   2756917.00045  24953202.50345     -1884.99700
   5689252.74207  22734530.03007   4427411.50148  22734524.31948     -2736.04900
  -5619822.84406  23696456.15506  -4380152.44647  23696453.24147      1450.50100
  13823471.89106  24452161.78006  10752968.69547  24452157.72247     -4318.71500
 08 11 10  1 11 45.0030000  0 10  3  6  7 13 16 19 21 23 25 31
  -2052650.59007  20877009.97607  -1598037.65648  20877006.86648      -463.01900
   1991307.81307  21235918.06907   1548730.32848  21235915.24148     -1531.43600
   -612994.92605  25174709.33505   -477931.27646  25174706.01546      2136.81900
   -548111.16007  23106805.21007   -427644.55047  23106800.78447     -1033.44300
   8589332.59807  22264507.60107   6679837.07848  22264503.40948     -2684.80300
  -7378029.04306  22627592.64706  -5743180.96248  22627588.20648      1417.17600
   3574158.32403  24958609.98303   2779042.77745  24958605.94845     -1892.98000
   5730426.81307  22742365.24107   4459495.17848  22742359.50348     -2744.93800
  -5641530.11705  23692325.35105  -4397067.18147  23692322.08947      1447.15200
  13888310.78506  24464499.56206  10803492.47047  24464496.30447     -4322.59300
 08 11 10  1 12  0.0030000  0 10  3  6  7 13 16 19 21 23 25 31
  -2045574.63707  20878356.68707  -1592523.91248  20878353.40548      -471.73000
   2014394.96907  21240311.41307   1566720.32348  21240308.12048     -1539.14400
   -645035.67205  25168613.13205   -502898.01646  25168609.76546      2136.05000
   -532456.00807  23109784.10107   -415445.74647  23109780.00747     -1043.67700
   8629641.80107  22272178.48307   6711246.84348  22272173.69048     -2687.28000
  -7399193.03906  22623565.17906  -5759672.35848  22623560.57348      1410.93300
   3602670.57403  24964035.49103   2801260.11745  24964030.93345     -1900.81700
   5771731.84006  22750225.24906   4491680.91048  22750219.47648     -2753.66800
  -5663188.93805  23688204.06205  -4413944.19047  23688200.36647      1443.92100
  13953205.65606  24476848.49106  10854059.88747  24476846.13647     -4326.32500
 08 11 10  1 12 15.0030000  0 10  3  6  7 13 16 19 21 23 25 31
  -2038367.56307  20879728.27207  -1586908.01348  20879724.92148      -480.47200
   2037598.32406  21244727.00706   1584800.85748  21244723.33948     -1546.89000
   -677064.12105  25162518.00705   -527855.25446  25162514.52646      2135.23000
   -516647.00407  23112792.61607   -403127.04047  23112788.37047     -1053.93400
   8669988.59807  22279855.74907   6742685.92348  22279851.87848     -2689.78600
  -7420262.78506  22619555.45206  -5776090.34948  22619551.09348      1404.65000
   3631300.78902  24969483.78802   2823569.41045  24969479.53045     -1908.68100
   5813167.99607  22758110.46807   4523968.80448  22758104.74548     -2762.41000
  -5684798.58605  23684091.41305  -4430782.87047  23684088.14747      1440.64300
  14018156.60906  24489208.22606  10904670.98647  24489205.58947     -4330.06400
 08 11 10  1 12 30.0030000  0 10  3  6  7 13 16 19 21 23 25 31
  -2031027.24207  20881124.82707  -1581188.27748  20881121.54248      -489.35500
   2060919.86707  21249165.17907   1602973.49448  21249161.83948     -1554.77000
   -709077.64106  25156426.55406   -552800.77346  25156423.06546      2134.23500
   -500681.75407  23115830.71007   -390686.58947  23115827.13247     -1064.35000
   8710375.16807  22287541.36607   6774155.96148  22287537.42148     -2692.43800
  -7441235.68406  22615564.20206  -5792432.82748  22615560.58148      1398.19300
   3660051.40201  24974954.06901   2845972.39845  24974950.84745     -1916.70800
   5854737.39807  22766020.52207   4556360.52248  22766015.62448     -2771.29300
  -5706356.47706  23679989.74106  -4447581.21147  23679985.30447      1437.19300
  14083165.78506  24501579.85106  10955327.45747  24501576.42147     -4333.94500
 08 11 10  1 12 45.0030000  0 10  3  6  7 13 16 19 21 23 25 31
  -2023553.80107  20882547.08507  -1575364.81448  20882544.25748      -498.22900
   2084359.66007  21253625.54607   1621238.27148  21253621.85848     -1562.65300
   -741076.06306  25150337.73306   -577734.63446  25150333.78446      2133.22800
   -484560.43807  23118898.21807   -378124.54947  23118894.81247     -1074.75400
   8750801.37907  22295234.40507   6805656.89948  22295230.14448     -2695.08100
  -7462111.73806  22611591.84306  -5808699.87248  22611587.79648      1391.73700
   3688922.22301  24980447.79601         0.00000         0.00000     -1924.72100
   5896439.71907  22773955.96807   4588855.83848  22773951.56548     -2780.15500
  -5727862.44906  23675897.06906  -4464339.10747  23675892.74947      1433.73200
  14148232.98806  24513961.12406  11006029.14947  24513958.25347     -4337.81400
 08 11 10  1 13  0.0030000  0 10  3  6  7 13 16 19 21 23 25 31
  -2015948.27707  20883994.43707  -1569438.42448  20883991.18748      -507.03500
   2107916.14107  21258108.32707   1639593.98048  21258104.47648     -1570.43200
   -773060.37105  25144250.66305   -602657.44146  25144247.89746      2132.28700
   -468284.24607  23121995.34307   -365441.80247  23121992.08147     -1085.07900
   8791266.08607  22302934.74107   6837187.83348  22302930.53848     -2697.64700
  -7482891.82806  22607637.54606  -5824892.13648  22607633.42948      1385.33900
         0.00000  24985963.14701         0.00000         0.00000         0.00000
   5938273.43807  22781917.17107   4621453.54248  22781911.96848     -2788.91500
  -5749317.38706  23671814.82706  -4481057.24247  23671810.06247      1430.32900
  14213356.89506  24526352.86606  11056775.02647  24526351.56547     -4341.59400
 08 11 10  1 13 15.0030000  0 10  3  6  7 13 16 19 21 23 25 31
  -2008210.67607  20885466.84307  -1563409.12248  20885463.81248      -515.84000
   2131589.39507  21262612.82707   1658040.66748  21262609.28448     -1578.21700
   -805030.18005  25138167.35805   -627568.97346  25138163.43746      2131.32100
   -451853.03907  23125122.21007   -352638.26947  23125118.93347     -1095.41400
   8831769.37507  22310641.81907   6868748.85648  22310637.64448     -2700.21900
  -7503575.68406  22603701.42906  -5841009.41648  22603697.37848      1378.92400
   3747021.21111  24991505.02201         0.00000         0.00000     -1944.75000
   5980238.37907  22789902.33507   4654153.48948  22789898.24548     -2797.66300
  -5770720.88306  23667741.49906  -4497735.29047  23667736.94447      1426.90000
  14278537.45706  24538756.21006  11107565.03447  24538754.84747     -4345.37100
 08 11 10  1 13 30.0030000  0 10  3  6  7 13 16 19 21 23 25 31
  -2000340.74607  20886964.42107  -1557276.70748  20886961.50348      -524.66200
   2155379.46107  21267139.54607   1676578.38548  21267136.52648     -1586.00400
   -836985.09805  25132085.68705   -652468.91446  25132082.76546      2130.32800
   -435266.88307  23128278.49907   -339714.00447  23128275.01547     -1105.74400
   8872311.28907  22318356.94407   6900339.95348  22318352.86248     -2702.79400
  -7524162.82806  22599783.83506  -5857051.33448  22599779.68748      1372.47600
   3776249.50801  24997067.28801         0.00000         0.00000     -1948.55300
   6022334.38707  22797913.06207   4686955.56948  22797908.29648     -2806.40100
  -5792072.53506  23663678.39006  -4514372.92047  23663674.10147      1423.44300
  14343774.71506  24551171.46806  11158399.22847  24551169.03447     -4349.15100
 08 11 10  1 13 45.0030000  0 10  3  6  7 13 16 19 21 23 25 31
  -1992338.64107  20888487.11607  -1551041.29049  20888483.97249      -533.47400
   2179286.02306  21271688.69406   1695206.86348  21271685.99548     -1593.77100
   -868924.85905  25126008.23305   -677356.98946  25126004.72646      2129.31700
   -418525.44907  23131464.49907   -326668.71547  23131460.84747     -1116.09600
   8912891.66807  22326079.49107   6931961.01748  22326075.26148     -2705.35900
  -7544653.27706  22595884.83506  -5873017.91248  22595880.08548      1366.03000
   3805596.68401  25002650.51501         0.00000         0.00000     -1956.47800
   6064561.12107  22805948.95207   4719859.49848  22805943.61648     -2815.11600
  -5813372.16006  23659625.56206  -4530970.02047  23659620.75747      1419.97500
  14409068.24206  24563595.59306  11209277.25147  24563594.01547     -4352.90200
 08 11 10  1 14  0.0030000  0 10  3  6  7 13 16 19 21 23 25 31
  -1984205.97707  20890034.85107  -1544704.13848  20890031.65948      -542.17800
   2203307.66806  21276259.99906   1713925.04448  21276257.26948     -1601.44300
   -900850.80905  25119933.09305   -702234.37946  25119929.65146      2128.39700
   -401630.48807  23134679.42907   -313503.82147  23134675.99547     -1126.33100
   8953509.00407  22333808.39007   6963610.87148  22333803.90948     -2707.82200
  -7565048.28506  22592003.96806  -5888910.11948  22591999.53848      1359.66700
   3835061.54302  25008258.70202         0.00000         0.00000     -1964.32400
   6106916.89507  22814009.21007   4752863.98548  22814003.44848     -2823.71800
  -5834620.94106  23655581.79606  -4547527.50347  23655577.60847      1416.58500
  14474416.52006  24576032.13206  11260197.94947  24576028.74547     -4356.55200
 08 11 10  1 14 15.0030000  0 10  3  6  7 13 16 19 21 23 25 31
  -1975941.07407  20891607.35807  -1538263.96348  20891604.15948      -550.99300
   2227445.68406  21280853.55406   1732733.87348  21280850.75748     -1609.20100
   -932760.89105  25113860.76505   -727099.37546  25113857.51546      2127.33900
   -384580.24207  23137923.89707   -300217.89947  23137920.53847     -1136.68300
   8994165.09407  22341545.28807   6995290.93248  22341540.53448     -2710.40600
  -7585345.95707  22588141.34307  -5904726.47548  22588137.22948      1353.17800
   3864645.65202  25013888.10802         0.00000         0.00000     -1972.27400
   6149403.25807  22822093.82707   4785970.23448  22822088.06248     -2832.42400
  -5855816.86306  23651548.34306  -4564043.80347  23651544.12847      1413.06100
  14539821.20706  24588477.79606  11311162.59347  24588474.62047     -4360.31300
 08 11 10  1 14 30.0030000  0 10  3  6  7 13 16 19 21 23 25 31
  -1967545.58607  20893205.21007  -1531722.02048  20893202.00748      -559.69900
   2251698.14506  21285468.71806   1751631.89248  21285465.62848     -1616.83100
   -964656.65204  25107789.85104   -751953.23946  25107787.91346      2126.38400
   -367376.68807  23141197.49907   -286812.54447  23141194.36647     -1146.90400
   9034857.99207  22349288.66307   7026999.67848  22349284.36648     -2712.86000
  -7605547.88306  22584296.92906  -5920468.21348  22584292.80448      1346.79500
   3894346.95702  25019539.96002         0.00000         0.00000     -1980.08700
   6192017.89807  22830202.89707   4819176.43847  22830197.37047     -2840.97600
  -5876961.37906  23647524.69406  -4580520.04747  23647520.46447      1409.63400
  14605280.27706  24600934.38206  11362169.63747  24600931.12847     -4363.93800
 08 11 10  1 14 45.0030000  0 10  3  6  7 13 16 19 21 23 25 31
  -1959018.48007  20894827.57707  -1525077.52348  20894825.09348      -568.47400
   2276066.20306  21290106.30406   1770619.98748  21290102.71048     -1624.53700
   -996536.62505  25101723.61605   -776794.73146  25101720.56246      2125.33200
   -350018.56607  23144500.86607   -273286.74447  23144497.12447     -1157.20800
   9075588.93406  22357039.27206   7058738.07148  22357035.46048     -2715.39600
  -7625652.60206  22580470.92106  -5936134.22648  22580466.97248      1340.31500
   3924167.00803  25025214.74903         0.00000         0.00000     -1988.00300
   6234761.76607  22838337.10807   4852483.35748  22838331.28448     -2849.59100
  -5898053.10206  23643510.91306  -4596955.13447  23643506.93347      1406.11500
  14670794.75406  24613401.60806  11413219.85447  24613398.21847     -4367.63200
 08 11 10  1 15  0.0030000  0 10  3  6  7 13 16 19 21 23 25 31
  -1950359.71907  20896475.39007  -1518330.43048  20896472.81948      -577.25100
   2300549.79706  21294764.96806   1789698.12148  21294761.83548     -1632.24000
  -1028400.66805  25095660.56905   -801623.81446  25095657.37446      2124.27000
   -332505.86307  23147833.22607   -259640.49047  23147829.89447     -1167.51400
   9116357.80506  22364797.50706   7090506.01748  22364793.46848     -2717.92500
  -7645660.00407  22576664.17107  -5951724.39748  22576659.49948      1333.82700
   3954105.62103  25030911.06203         0.00000         0.00000     -1995.90800
   6277634.55507  22846495.43707   4885890.72148  22846489.78048     -2858.18600
  -5919091.75806  23639507.42106  -4613348.86947  23639503.63647      1402.57700
  14736364.43406  24625878.38206  11464313.07947  24625875.03047     -4371.31200
 08 11 10  1 15 15.0030000  0 10  3  6  7 13 16 19 21 23 25 31
  -1941568.61307  20898148.31907  -1511480.21648  20898145.28848      -586.07400
   2325149.25406  21299445.94406   1808866.52248  21299442.90548     -1639.96400
  -1060247.86705  25089600.31905   -826439.84046  25089597.15146      2123.14700
   -314838.02007  23151195.74107   -245873.34847  23151191.96047     -1177.85600
   9157165.22306  22372562.83506   7122304.00048  22372558.75348     -2720.49500
  -7665569.37906  22572875.44406  -5967238.18348  22572871.17548      1327.29200
   3984163.44504  25036631.69404         0.00000         0.00000     -2003.85500
   6320636.50007  22854678.37407   4919398.72848  22854672.92148     -2866.79600
  -5940076.50806  23635514.20206  -4629700.62247  23635510.31247      1398.98300
  14801989.61706  24638367.17106  11515449.51447  24638363.38647     -4375.01200
 08 11 10  1 15 30.0030000  0 10  3  6  7 13 16 19 21 23 25 31
  -1932647.41407  20899846.05407  -1504528.62749  20899842.97249      -594.74700
   2349862.41806  21304149.16306   1828123.52148  21304146.00348     -1647.54400
  -1092080.10505  25083541.99105   -851244.13746  25083539.27646      2122.14900
   -297017.27007  23154586.53807   -231987.06847  23154583.65147     -1188.05000
   9198008.85507  22380335.10107   7154130.18948  22380331.32348     -2722.90900
  -7685382.55106  22569104.89706  -5982677.01248  22569100.35148      1320.87800
   4014338.32804  25042374.66304         0.00000         0.00000     -2011.65900
   6363765.24207  22862885.36607   4953005.53448  22862880.63648     -2875.24900
  -5961009.16006  23631530.75706  -4646011.76547  23631526.74947      1395.51000
  14867668.06306  24650865.59306  11566627.50547  24650861.82747     -4378.56300
 08 11 10  1 15 45.0030000  0 10  3  6  7 13 16 19 21 23 25 31
  -1923596.37507  20901568.13207  -1497475.86248  20901565.49948      -603.40300
   2374688.92606  21308873.02206   1847468.87148  21308869.70248     -1655.10100
  -1123897.12905  25077488.06905   -876036.62546  25077485.19846      2121.13500
   -279043.62907  23158007.10107   -217981.63847  23158003.91347     -1198.24300
   9238888.68407  22388114.11607   7185984.59548  22388109.71448     -2725.32200
  -7705099.53506  22565352.95206  -5998040.87848  22565348.02648      1314.46600
   4044630.07404  25048138.12404         0.00000         0.00000     -2019.45000
   6407020.46107  22871116.49907   4986710.90448  22871111.83548     -2883.68100
  -5981889.50406  23627557.38206  -4662282.14347  23627553.37047      1392.02300
  14933399.66806  24663373.50706  11617846.88847  24663370.76547     -4382.10700
 08 11 10  1 16  0.0030000  0 10  3  6  7 13 16 19 21 23 25 31
  -1914414.38307  20903315.31207  -1490321.06348  20903312.69448      -612.13300
   2399629.59806  21313619.12406   1866903.17548  21313616.01948     -1662.71100
  -1155697.69105  25071436.13205   -900816.21546  25071434.07346      2120.03700
   -260916.23407  23161456.49907   -203856.40047  23161453.46447     -1208.49300
   9279805.69507  22395900.47607   7217867.98148  22395896.23348     -2727.80100
  -7724719.10506  22561619.28806  -6013328.84548  22561614.15948      1307.97100
   4075039.58203  25053924.35803         0.00000         0.00000     -2027.30100
   6450402.88307  22879372.49907   5020515.36948  22879367.74948     -2892.16100
  -6002716.25006  23623594.17106  -4678510.75747  23623590.10447      1388.45000
  14999185.16806  24675892.50706  11669108.29847  24675889.31247     -4385.70000
 08 11 10  1 16 15.0030000  0 10  3  6  7 13 16 19 21 23 25 31
  -1905102.17207  20905087.70207  -1483064.79248  20905085.24948      -620.81400
   2424683.72706  21318386.60106   1886425.87448  21318383.83548     -1670.27500
  -1187482.22305  25065388.21005   -925583.41646  25065385.96446      2118.96900
   -242635.71907  23164935.06907   -189611.83747  23164931.76147     -1218.70100
   9320759.29706  22403693.88206   7249779.86948  22403689.73748     -2730.24000
  -7744241.77006  22557904.70206  -6028541.30348  22557898.59348      1301.51100
   4105566.18803  25059733.56203         0.00000         0.00000     -2035.10700
   6493911.53507  22887651.95207   5054418.21348  22887646.90948     -2900.57700
  -6023489.77706  23619641.14006  -4694697.93047  23619637.16747      1384.90200
  15065023.66806  24688421.24106  11720410.99247  24688418.29647     -4389.23300
 08 11 10  1 16 30.0030000  0 10  3  6  7 13 16 19 21 23 25 31
  -1895657.77707  20906885.06207  -1475705.51848  20906882.05048      -629.62600
   2449853.17606  21323176.30406   1906038.44448  21323173.23748     -1677.96300
  -1219248.40205  25059343.11605   -950336.27846  25059340.54246      2117.74500
   -224200.10507  23168443.31907   -175246.42347  23168440.37047     -1229.04100
   9361751.28506  22411494.63206   7281721.66348  22411490.53848     -2732.79900
  -7763665.22706  22554208.25706  -6043676.45048  22554202.54248      1294.89700
   4136212.14102  25065565.31202         0.00000         0.00000     -2043.06400
   6537548.09007  22895955.30407   5088420.72148  22895950.72948     -2909.10400
  -6044207.82406  23615698.69406  -4710841.85947  23615694.58547      1381.20300
  15130917.08606  24700960.38206  11771756.45547  24700957.82747     -4392.89500
 08 11 10  1 16 45.0030000  0 10  3  6  7 13 16 19 21 23 25 31
  -1886083.29707  20908706.85107  -1468244.88349  20908703.44449      -638.29900
   2475135.73006  21327987.30406   1925739.13148  21327984.24548     -1685.50400
  -1250998.07405  25053301.67905   -975076.26346  25053298.35146      2116.64500
   -205611.50006  23171980.44406   -160761.80947  23171977.40547     -1239.24000
   9402779.70706  22419301.91306   7313691.86248  22419297.64448     -2735.22800
  -7782991.37906  22550530.43706  -6058735.77848  22550525.10148      1288.41000
   4166975.13302  25071419.61602         0.00000         0.00000     -2050.86600
   6581310.27707  22904283.31207   5122521.10848  22904277.99948     -2917.47900
  -6064872.16006  23611765.93706  -4726943.91847  23611762.43747      1377.62200
  15196863.30906  24713509.69406  11823143.09247  24713507.49147     -4396.41500
 08 11 10  1 17  0.0030000  0 10  3  6  7 13 16 19 21 23 25 31
  -1876376.17207  20910554.09307  -1460680.87848  20910550.81948      -647.14200
   2500534.02306  21332820.53006   1945529.99948  21332817.47648     -1693.22000
  -1282728.23005  25047263.53805   -999801.04346  25047259.92946      2115.34400
   -186867.17606  23175547.20206   -146155.83447  23175544.08147     -1249.62200
   9443847.27307  22427116.54607   7345692.55648  22427112.39448     -2737.83800
  -7802217.27306  22546871.97606  -6073716.99248  22546867.17148      1281.72600
   4197857.59403  25077295.89003         0.00000         0.00000     -2058.83100
   6625200.50407  22912635.05407   5156721.29648  22912629.80848     -2926.01500
  -6085479.78906  23607844.42906  -4743001.79147  23607840.90947      1373.84200
  15262864.73806  24726069.24906  11874572.74547  24726066.76947     -4400.09500
 08 11 10  1 17 15.0030000  0 10  3  6  7 13 16 19 21 23 25 31
  -1866535.81607  20912426.91307  -1453013.06848  20912423.55448      -656.02400
   2526048.07806  21337675.71006   1965411.07448  21337672.58148     -1700.93700
  -1314438.35205  25041229.47605  -1024510.20846  25041225.31946      2114.00800
   -167967.02307  23179143.92107   -131428.47047  23179140.42147     -1260.01000
   9484954.06606  22434939.07706   7377723.82248  22434934.95648     -2740.45300
  -7821342.58206  22543232.30406  -6088619.81148  22543227.33948      1275.02100
   4228859.98801  25083194.15501         0.00000         0.00000     -2066.82600
   6669218.95707  22921011.56907   5191021.39948  22921005.78448     -2934.56400
  -6106030.15206  23603933.91306  -4759015.05347  23603930.38247      1370.02400
  15328921.53106  24738639.03006  11926045.55147  24738636.57747     -4403.78600
 08 11 10  1 17 30.0030000  0 10  3  6  7 13 16 19 21 23 25 31
  -1856563.00007  20914324.37407  -1445242.03949  20914321.46849      -664.85400
   2551677.36706  21342553.05406   1985381.95848  21342549.53048     -1708.61900
  -1346128.61305  25035198.68705  -1049203.86546  25035195.10146      2112.68400
   -148911.34007  23182770.28807   -116579.86847  23182766.58147     -1270.37900
   9526099.64506  22442769.14706   7409785.30148  22442764.39048     -2743.03900
  -7840367.35206  22539612.05406  -6103444.30448  22539607.08948      1268.31800
   4259981.92201  25089116.29601         0.00000         0.00000     -2074.79600
   6713364.57007  22929412.24907   5225420.56748  22929406.65148     -2943.04100
  -6126523.33206  23600034.31906  -4774983.75647  23600030.65547      1366.21200
  15395033.04706  24751219.60106  11977560.97447  24751217.64747     -4407.43400
 08 11 10  1 17 45.0040000  0 10  3  6  7 13 16 19 21 23 25 31
  -1846457.71907  20916247.15207  -1437367.79049  20916244.31649      -673.68500
   2577422.60507  21347452.12907   2005443.18948  21347448.89448     -1716.34900
  -1377801.55505  25029171.82405  -1073884.07646  25029167.36346      2111.52900
   -129699.69907  23186426.14407   -101609.74447  23186422.63747     -1280.77600
   9567286.15607  22450606.50407   7441878.69948  22450601.82848     -2745.76700
  -7859293.55906  22536010.59806  -6118191.97848  22536005.95348      1261.74700
   4291224.57401  25095062.76201         0.00000         0.00000     -2082.84300
   6757639.24207  22937836.94907   5259920.29848  22937831.88748     -2951.64500
  -6146961.16006  23596145.34806  -4790909.32747  23596141.38747      1362.52200
  15461202.82806  24763811.77706  12029121.80447  24763808.76647     -4411.31900
 08 11 10  1 18  0.0040000  0 10  3  6  7 13 16 19 21 23 25 31
  -1836219.79707  20918195.55907  -1429390.17949  20918192.80949      -682.52800
   2603281.91006  21352372.83206   2025593.29448  21352370.06248     -1723.95400
  -1409451.17205  25023148.63705  -1098546.10946  25023145.07046      2109.97400
   -110333.23807  23190111.57407    -86519.00747  23190107.81647     -1291.09700
   9608509.52007  22458450.69107   7474000.79448  22458446.95748     -2748.22400
  -7878116.94907  22532428.84007  -6132859.55648  22532423.59448      1254.89300
   4322585.50402  25101031.12102         0.00000         0.00000     -2090.72900
   6802038.42607  22946286.05907   5294517.06448  22946280.71548     -2959.94600
  -6167339.14106  23592266.76206  -4806788.25647  23592263.42247      1358.53200
  15527423.49206  24776413.33206  12080722.27047  24776410.22747     -4414.71100
 08 11 10  1 18 15.0040000  0 10  3  6  7 13 16 19 21 23 25 31
  -1825849.51206  20920169.12106  -1421309.43748  20920166.37548      -691.35200
   2629255.92606  21357315.38706   2045832.78948  21357312.76948     -1731.60100
  -1441080.23806  25017130.64406  -1123192.08946  25017125.91846      2108.60400
    -90811.63307  23193826.44107    -71307.37247  23193822.51647     -1301.44000
   9649771.44507  22466302.58207   7506152.93748  22466298.26248     -2750.79500
  -7896839.55906  22528865.75406  -6147448.59548  22528861.14848      1248.17400
   4354065.51603  25107021.63703         0.00000         0.00000     -2098.66700
   6846563.93007  22954759.23007   5329212.25448  22954754.39848     -2968.36700
  -6187659.26206  23588400.16806  -4822622.10347  23588396.85247      1354.67500
  15593698.20306  24789024.84806  12132364.87747  24789022.05147     -4418.31400
 08 11 10  1 18 30.0040000  0 10  3  6  7 13 16 19 21 23 25 31
  -1815345.87507  20922167.87107  -1413124.78348  20922164.82048      -700.24200
   2655345.47707  21362280.30107   2066162.30848  21362277.36348     -1739.30300
  -1472687.22706  25011115.60506  -1147820.85847  25011112.08647      2107.13300
    -71133.71907  23197570.87107    -55973.93947  23197567.38347     -1311.86100
   9691073.17606  22474161.92606   7538336.09748  22474158.04748     -2753.44900
  -7915460.05506  22525322.23806  -6161958.06248  22525317.52348      1241.36600
   4385665.91402  25113035.16002         0.00000         0.00000     -2106.69300
   6891216.47307  22963256.09807   5364006.44448  22963251.26648     -2976.83600
  -6207920.12106  23584544.90206  -4838409.76447  23584541.64147      1350.72400
  15660027.96506  24801646.75406  12184050.35647  24801644.06247     -4421.98400
 08 11 10  1 18 45.0040000  0 10  3  6  7 13 16 19 21 23 25 31
  -1804709.00006  20924191.91006  -1404836.30449  20924189.00849      -709.12500
   2681550.32406  21367266.75406   2086581.67048  21367263.70748     -1746.99000
  -1504272.18406  25005104.98806  -1172432.48847  25005101.76647      2105.66400
    -51299.78507  23201345.27707    -40518.93047  23201341.60247     -1322.26200
   9732414.36706  22482029.00406   7570549.99748  22482024.68048     -2756.07900
  -7933978.40206  22521798.42606  -6176387.92048  22521793.64848      1234.55700
   4417386.23403  25119071.54303         0.00000         0.00000     -2114.68800
   6935995.55907  22971777.69907   5398899.22348  22971772.57448     -2985.27200
  -6228121.59806  23580700.14406  -4854151.16847  23580697.49247      1346.76500
  15726412.47706  24814278.97306  12235778.48647  24814276.47747     -4425.63400
 08 11 10  1 19  0.0040000  0 10  3  6  7 13 16 19 21 23 25 31
  -1793940.20307  20926241.16007  -1396445.03648  20926238.27348      -717.92000
   2707869.11306  21372274.73806   2107089.82848  21372271.62548     -1754.58600
  -1535836.02706  24999098.69906  -1197027.68447  24999095.41447      2104.25600
    -31311.14807  23205148.59807    -24943.37847  23205145.05147     -1332.57600
   9773793.68806  22489902.94106   7602793.63248  22489898.84848     -2758.62100
  -7952395.60906  22518294.03506  -6190738.98148  22518288.54348      1227.81400
   4449225.34803  25125129.09803         0.00000         0.00000     -2122.60800
   6980899.80907  22980322.37907   5433889.53948  22980317.63748     -2993.61700
  -6248264.56306  23576867.78506  -4869846.98547  23576864.29347      1342.86400
  15792850.33606  24826922.05106  12287548.21447  24826918.83247     -4429.19100
 08 11 10  1 19 15.0040000  0 10  3  6  7 13 16 19 21 23 25 31
  -1783039.24206  20928315.44106  -1387950.76748  20928312.68748      -726.73100
   2734301.89106  21377305.26206   2127686.80048  21377302.16848     -1762.18500
  -1567378.30105  24993096.55905  -1221606.08047  24993093.59847      2102.81800
    -11167.63707  23208982.09007     -9247.14147  23208978.91047     -1342.90100
   9815211.50006  22497784.95706   7635067.23148  22497780.33248     -2761.18800
  -7970711.27006  22514808.73806  -6205010.92548  22514803.40648      1221.04400
   4481183.43403  25131211.13703         0.00000         0.00000     -2130.53900
   7025929.10907  22988891.24607   5468977.29948  22988886.43748     -3001.95300
  -6268348.60506  23573045.37106  -4885496.88147  23573042.14447      1338.93600
  15859341.64106  24839574.84806  12339359.61247  24839571.37947     -4432.75400
 08 11 10  1 19 30.0040000  0 10  3  6  7 13 16 19 21 23 25 31
  -1772005.71507  20930414.82407  -1379353.20449  20930412.37549      -735.56800
   2760849.09807  21382357.01907   2148372.93548  21382354.19548     -1769.81400
  -1598897.98806  24987099.26206  -1246166.84846  24987095.49246      2101.31300
      9131.24607  23212844.34807      6570.16547  23212841.68747     -1353.25900
   9856668.37106  22505673.69906   7667371.28648  22505669.75448     -2763.79100
  -7988924.66006  22511342.51206  -6219203.17048  22511337.85248      1214.22600
   4513261.19104  25137316.03504         0.00000         0.00000     -2138.51700
   7071083.61307  22997483.82407   5504162.61748  22997479.03148     -3010.30000
  -6288372.84806  23569234.92606  -4901100.17847  23569231.59047      1334.94900
  15925886.86706  24852237.94106  12391212.98847  24852234.55547     -4436.34800
 08 11 10  1 19 45.0040000  0 10  3  6  7 13 16 19 21 23 25 31
  -1760839.43007  20932540.08207  -1370652.20448  20932537.57048      -744.41900
   2787510.68807  21387430.39407   2169148.20048  21387427.60948     -1777.43900
  -1630394.83606  24981104.87106  -1270709.81946  24981102.02346      2099.79000
     29585.57807  23216736.49607     22508.62347  23216734.42647     -1363.62200
   9898164.35506  22513570.23006   7699705.80548  22513565.61748     -2766.39900
  -8007035.54306  22507896.09806  -6233315.53548  22507891.77748      1207.39200
   4545458.47703  25143442.30103         0.00000         0.00000     -2146.48600
   7116363.09407  23006100.62907   5539445.31047  23006095.35547     -3018.63200
  -6308336.84406  23565436.38706  -4916656.51647  23565432.79347      1330.93300
  15992485.68806  24864911.37106  12443108.13946  24864908.58246     -4439.92100
 08 11 10  1 20  0.0040000  0 10  3  6  7 13 16 19 21 23 25 31
  -1749542.67207  20934689.13707  -1361849.51849  20934686.94149      -753.11700
   2814284.36707  21392525.09807   2190010.80148  21392522.13348     -1784.91200
  -1661870.60906  24975115.12106  -1295236.36146  24975111.96946      2098.38500
     50193.32007  23220658.09807     38566.61847  23220655.46147     -1373.84900
   9939697.34407  22521473.80107   7732069.16948  22521469.15648     -2768.86600
  -8025045.78106  22504468.78506  -6247349.46248  22504464.41048      1200.68300
   4577773.07002  25149591.89402         0.00000         0.00000     -2154.30600
   7161765.28107  23014740.35507   5574823.62748  23014734.79348     -3026.81300
  -6328242.41806  23561647.98806  -4932167.34347  23561644.72747      1327.03800
  16059136.04306  24877593.96506  12495043.45046  24877592.09446     -4443.35700
 08 11 10  1 20 15.0040000  0 10  3  6  7 13 16 19 21 23 25 31
  -1738112.99607  20936864.63707  -1352943.28148  20936861.98448      -761.97800
   2841172.37106  21397641.87906   2210962.50648  21397638.62548     -1792.53400
  -1693322.66806  24969129.98806  -1319744.44246  24969126.78946      2096.80400
     70956.78906  23224609.55906     54745.93047  23224606.85947     -1384.23100
   9981269.72706  22529384.59806   7764463.22948  22529379.76248     -2771.49200
  -8042952.85206  22501061.30106  -6261303.02148  22501056.58248      1193.80500
   4610207.47703  25155764.31603         0.00000         0.00000     -2162.29400
   7207292.34007  23023403.40207   5610299.26947  23023397.62547     -3035.13700
  -6348086.89107  23557871.81607  -4947630.56947  23557868.54347      1322.96500
  16125840.14106  24890287.47306  12547020.62047  24890285.31647     -4446.94000
 08 11 10  1 20 30.0040000  0 10  3  6  7 13 16 19 21 23 25 31
  -1726552.37107  20939064.58207  -1343935.01048  20939061.76248      -770.70800
   2868172.76206  21402779.88706   2232001.77048  21402776.96948     -1800.02600
  -1724752.52305  24963149.06605  -1344235.19946  24963145.93746      2095.32400
     91874.06306  23228589.86306     71045.11947  23228587.15247     -1394.48500
  10022879.57006  22537303.22306   7796886.46848  22537298.23048     -2773.99000
  -8060758.37906  22497673.05106  -6275177.44848  22497668.02348      1187.03500
   4642759.73002  25161958.41802         0.00000         0.00000     -2170.15000
   7252942.07007  23032090.11307   5645870.48748  23032084.87948     -3043.31500
  -6367871.77307  23554106.87107  -4963047.34547  23554103.39147      1318.99200
  16192595.73406  24902990.99606  12599037.91446  24902987.36746     -4450.37300
 08 11 10  1 20 45.0040000  0 10  3  6  7 13 16 19 21 23 25 31
  -1714861.44907  20941289.25407  -1334825.20148  20941286.05148      -779.39500
   2895284.67207  21407939.05907   2253127.93648  21407935.78148     -1807.46100
  -1756161.02705  24957172.57405  -1368709.34146  24957168.77346      2093.90000
    112944.35206  23232599.21506     87463.52547  23232596.43447     -1404.68600
  10064526.16807  22545227.97307   7829338.37348  22545222.97348     -2776.44000
  -8078462.87906  22494303.87906  -6288973.13748  22494299.02748      1180.30000
   4675428.65203  25168175.23803         0.00000         0.00000     -2177.92800
   7298713.28507  23040800.17607   5681536.36248  23040795.24248     -3051.41400
  -6387597.56607  23550353.24607  -4978418.08547  23550349.87947      1315.05300
  16259401.99606  24915704.20706  12651094.70846  24915700.32446     -4453.75100
 08 11 10  1 21  0.0040000  0 10  3  6  7 13 16 19 21 23 25 31
  -1703039.10507  20943539.15207  -1325612.97948  20943535.86348      -788.15600
   2922508.84806  21413119.61306   2274341.58748  21413116.95348     -1814.94500
  -1787546.50805  24951199.60505  -1393165.58846  24951195.90646      2092.36500
    134168.52307  23236638.64407    104001.82047  23236635.20747     -1414.94500
  10106210.55506  22553160.44106   7861819.70248  22553155.87548     -2778.95900
  -8096065.25806  22490954.30906  -6302689.25548  22490949.48048      1173.49200
   4708215.59003  25174413.26203         0.00000         0.00000     -2185.79600
   7344606.99207  23049533.47307   5717297.69048  23049528.49648     -3059.58000
  -6407262.96107  23546611.14407  -4993741.76447  23546607.80947      1311.02600
  16326259.85205  24928426.27705  12703191.70246  24928423.59446     -4457.19000
 08 11 10  1 21 15.0040000  0 10  3  6  7 13 16 19 21 23 25 31
  -1691087.95707  20945813.23007  -1316300.39248  20945809.76248      -796.74300
   2949843.01606  21418321.12906   2295640.93748  21418318.14148     -1822.27800
  -1818910.83605  24945230.90205  -1417605.23846  24945227.37546      2090.95500
    155544.27007  23240705.87107    120658.25947  23240702.58647     -1425.05000
  10147930.29706  22561099.51906   7894328.57748  22561095.28548     -2781.31600
  -8113567.42606  22487623.43406  -6316327.29648  22487618.88348      1166.81100
   4741118.40603  25180674.94103         0.00000         0.00000     -2193.52100
   7390620.37507  23058289.80907   5753152.28148  23058285.13348     -3067.55900
  -6426869.83207  23542879.89407  -5009019.84347  23542876.73047      1307.12500
  16393167.02305  24941157.79305  12755327.13346  24941155.80546     -4460.47800
 08 11 10  1 21 30.0040000  0 10  3  6  7 13 16 19 21 23 25 31
  -1679006.00007  20948112.23807  -1306885.86448  20948108.86748      -805.46400
   2977288.89107  21423543.70707   2317027.33748  21423540.71148     -1829.72500
  -1850251.93405  24939266.50405  -1442026.83746  24939262.91446      2089.40700
    177073.47707  23244802.60507    137434.26647  23244799.57447     -1435.28000
  10189687.36306  22569045.51206   7926866.56348  22569040.35548     -2783.80400
  -8130967.36706  22484312.58206  -6329885.67048  22484307.76248      1159.99600
   4774138.91403  25186958.87903         0.00000         0.00000     -2201.36700
   7436754.96107  23067068.73007   5789101.30848  23067064.29748     -3075.63900
  -6446416.05107  23539160.62107  -5024250.66347  23539157.16047      1303.08100
  16460125.17206  24953899.97306  12807502.28547  24953898.06647     -4463.87700
 08 11 10  1 21 45.0040000  0 10  3  6  7 13 16 19 21 23 25 31
  -1666792.91807  20950436.48007  -1297369.17748  20950433.10248      -814.20500
   3004846.68006  21428788.09806   2338500.94048  21428784.88748     -1837.18600
  -1881569.13705  24933306.85505  -1466429.83746  24933303.66446      2087.81400
    198756.48007  23248929.18407    154330.09247  23248925.87547     -1445.53400
  10231482.18006  22576998.76906   7959433.95448  22576994.31648     -2786.32100
  -8148264.58606  22481021.01906  -6343364.01948  22481016.77748      1153.14800
   4807277.28502  25193264.12902         0.00000         0.00000     -2209.22500
   7483011.02007  23075871.03507   5825144.97548  23075866.52348     -3083.73700
  -6465900.91007  23535452.40207  -5039433.67847  23535449.08247      1298.99100
  16527134.44906  24966651.62106  12859717.25446  24966648.60946     -4467.28500
 08 11 10  1 22  0.0040000  0 10  3  6  7 13 16 19 21 23 25 31
  -1654449.60207  20952785.23007  -1287751.00348  20952782.07048      -822.88800
   3032515.58206  21434053.09806   2360061.12448  21434050.11748     -1844.59300
  -1912862.94504  24927351.91804  -1490814.61246  24927348.12146      2086.25400
    220592.64107  23253084.57407    171345.28247  23253081.10547     -1455.74400
  10273313.96907  22584959.17607   7992030.13448  22584954.91848     -2788.78600
  -8165459.50006  22477748.84006  -6356762.63748  22477744.41448      1146.32800
   4840533.01202  25199593.39402         0.00000         0.00000     -2217.04800
   7529387.55107  23084696.19107   5861282.53648  23084691.21548     -3091.76900
  -6485324.82806  23531756.70706  -5054569.16947  23531752.85247      1294.92800
  16594194.02705  24979412.54305  12911971.43846  24979409.32846     -4470.63900
 08 11 10  1 22 15.0040000  0 10  3  6  7 13 16 19 21 23 25 31
  -1641975.59007  20955159.15207  -1278030.98748  20955155.77348      -831.60100
   3060295.82007  21439339.41007   2381708.07048  21439336.58648     -1852.01600
  -1944132.44105  24921402.05905  -1515180.43046  24921397.55546      2084.63300
    242582.17607  23257268.76207    188479.97347  23257265.40647     -1465.96900
  10315183.13707  22592926.64407   8024655.46248  22592921.73448     -2791.27800
  -8182551.56307  22474496.50407  -6370081.12048  22474491.87148      1139.47100
   4873906.11703  25205943.80103         0.00000         0.00000     -2224.87400
   7575884.64107  23093544.60507   5897514.03548  23093539.43748     -3099.80600
  -6504687.07407  23528071.63707  -5069656.64048  23528068.77748      1290.81600
  16661304.11705  24992183.23005  12964264.99746  24992180.95746     -4474.00600
 08 11 10  1 22 30.0040000  0 10  3  6  7 13 16 19 21 23 25 31
  -1629369.41007  20957557.68407  -1268207.98348  20957554.80148      -840.41200
   3088188.66407  21444647.51907   2403442.74948  21444644.51648     -1859.52300
  -1975375.97305  24915456.42605  -1539526.02746  24915452.28946      2082.90200
    264726.41807  23261482.58207    205735.24347  23261479.61347     -1476.28300
  10357091.09407  22600901.35507   8057311.00848  22600897.11348     -2793.86400
  -8199539.20707  22471264.02707  -6383318.23848  22471259.66048      1132.51000
   4907398.23402  25212317.24602         0.00000         0.00000     -2232.80800
   7622503.21507  23102416.02707   5933840.17848  23102410.26948     -3107.90500
  -6523985.93407  23524399.34807  -5084694.70348  23524396.30148      1286.59100
  16728466.00406  25004964.37906  13016598.86946  25004961.49646     -4477.45900
 08 11 10  1 22 45.0040000  0 10  3  6  7 13 16 19 21 23 25 31
  -1616633.52007  20959981.17607  -1258283.91048  20959978.07848      -849.05900
   3116191.58207  21449976.51907   2425263.20648  21449973.15248     -1866.86100
  -2006595.59805  24909515.21505  -1563853.01146  24909511.45746      2081.30800
    287023.05907  23265725.26907    223109.24847  23265722.87547     -1486.44300
  10399035.51207  22608883.17607   8089994.95948  22608878.80948     -2796.29500
  -8216424.53507  22468051.16007  -6396475.62648  22468046.21548      1125.68900
   4941006.89802  25218713.67602         0.00000         0.00000     -2240.57800
   7669240.88707  23111309.77707   5970259.12048  23111304.21148     -3115.84500
  -6543223.45307  23520738.97307  -5099684.98048  23520735.35548      1282.50100
  16795677.12506  25017754.13706  13068971.16546  25017751.08246     -4480.74100
 08 11 10  1 23  0.0040000  0 10  3  6  7 13 16 19 21 23 25 31
  -1603765.84807  20962429.96507  -1248257.14648  20962426.60548      -857.84500
   3144306.47307  21455326.26207   2447170.92548  21455323.56248     -1874.32600
  -2037788.91805  24903579.94105  -1588159.47446  24903575.61746      2079.55500
    309474.02707  23269997.95707    240603.50547  23269994.84447     -1496.73100
  10441018.35906  22616872.11306   8122708.88048  22616867.64848     -2798.85700
  -8233205.37107  22464857.62107  -6409551.59148  22464852.55548      1118.72200
   4974734.02002  25225131.97302         0.00000         0.00000     -2248.47500
   7716099.27007  23120226.35507   6006772.14148  23120220.94948     -3123.89200
  -6562397.29707  23517090.35507  -5114625.62448  23517087.18048      1278.25600
  16862939.57006  25030554.48806  13121383.37147  25030551.01947     -4484.16300
 08 11 10  1 23 15.0040000  0 10  3  6  7 13 16 19 21 23 25 31
  -1590767.12507  20964903.44107  -1238128.27148  20964900.21948      -866.58200
   3172532.50407  21460697.58207   2469165.22448  21460694.58248     -1881.73500
  -2068956.44104  24897648.84804  -1612445.83546  24897644.70746      2077.83500
    332078.45707  23274299.12907    258217.33947  23274296.58647     -1506.96200
  10483039.14107  22624868.56607   8155452.33248  22624863.94548     -2801.38500
  -8249882.06307  22461683.98007  -6422546.41948  22461678.91048      1111.77900
   5008578.84002  25231570.63702         0.00000         0.00000     -2256.32100
   7763077.46907  23129165.88707   6043378.52248  23129160.38348     -3131.88000
  -6581507.81607  23513453.85507  -5129516.93248  23513450.19548      1274.03500
  16930252.28905  25043363.05105  13173834.82147  25043359.77747     -4487.51500
 08 11 10  1 23 30.0040000  0 10  3  6  7 13 16 19 21 23 25 31
  -1577638.62907  20967401.77707  -1227898.26148  20967398.71148      -875.23300
   3200868.62507  21466089.73807   2491245.31948  21466086.71548     -1889.07500
  -2100098.98405  24891722.13705  -1636712.75646  24891718.14846      2076.17000
    354835.30107  23278630.05107    275949.95047  23278626.94147     -1517.12300
  10525096.77007  22632871.62107   8188224.51048  22632867.34448     -2803.84200
  -8266455.61707  22458530.27707  -6435460.86548  22458524.69548      1104.90400
   5042540.46102  25238033.83202         0.00000         0.00000     -2264.10800
   7810174.10207  23138128.38707   6080077.18248  23138122.58248     -3139.77600
  -6600555.75407  23509828.91007  -5144359.47448  23509825.67648      1269.86300
  16997614.08205  25056181.34805  13226324.47447  25056178.94947     -4490.78600
 08 11 10  1 23 45.0040000  0 10  3  6  7 13 16 19 21 23 25 31
  -1564381.14507  20969924.69107  -1217567.75248  20969921.78548      -883.83200
   3229313.65207  21471502.66807   2513410.27948  21471499.45748     -1896.33500
  -2131217.13305  24885800.84005  -1660960.63747  24885797.24247      2074.54300
    377743.57007  23282989.36307    293800.54347  23282985.96547     -1527.21800
  10567190.20707  22640881.65207   8221024.59548  22640877.40248     -2806.22900
  -8282926.77707  22455395.92607  -6448295.51648  22455390.29348      1098.07700
   5076617.68003  25244519.13703         0.00000         0.00000     -2271.81500
   7857387.95707  23147112.60507   6116867.19948  23147107.26948     -3147.59000
  -6619541.62507  23506215.67607  -5159153.65948  23506212.25848      1265.72500
  17065023.91006  25069008.71506  13278851.59847  25069006.75447     -4493.98900
 08 11 10  1 24  0.0040000  0 10  3  6  7 13 16 19 21 23 25 31
  -1550992.86307  20972472.11307  -1207135.32648  20972468.94148      -892.55200
   3257869.48807  21476936.85507   2535661.58848  21476933.41848     -1903.72200
  -2162308.56605  24879884.23805  -1685187.70147  24879880.55947      2072.76200
    400805.24207  23287377.92607    311770.67447  23287373.93047     -1537.44500
  10609321.33207  22648898.90207   8253854.02148  22648895.18448     -2808.74200
  -8299293.44907  22452281.48007  -6461048.75948  22452276.07448      1091.11100
   5110812.48802  25251026.09002         0.00000         0.00000     -2279.65400
   7904720.55107  23156119.91807   6153749.72148  23156114.46548     -3155.50600
  -6638463.30507  23502615.62107  -5173897.80948  23502612.18748      1261.44500
  17132483.59405  25081846.47305  13331417.52646  25081843.94546     -4497.31200
 08 11 10  1 24 15.0040000  0 10  3  6  7 13 16 19 21 23 25 31
  -1537472.78907  20975044.97307  -1196600.20148  20975042.18748      -901.33800
   3286536.84007  21482391.63707   2557999.78948  21482389.10248     -1911.15700
  -2193371.80505  24873972.72305  -1709392.80347  24873970.05147      2070.88300
    424021.16007  23291795.63707    329861.00347  23291791.71147     -1547.72800
  10651491.09807  22656923.58207   8286713.57148  22656919.57048     -2811.31800
  -8315554.50006  22449186.91806  -6473719.69848  22449181.68448      1084.07000
   5145125.84802  25257554.80102         0.00000         0.00000     -2287.55700
   7952172.64107  23165149.66007   6190725.35948  23165144.59848     -3163.47300
  -6657319.47706  23499026.66006  -5188590.93448  23499023.65648      1257.07800
  17199993.84405  25094693.46505  13384022.85146  25094690.67246     -4500.68300
 08 11 10  1 24 30.0040000  0 10  3  6  7 13 16 19 21 23 25 31
  -1523822.03507  20977642.58207  -1185963.25848  20977639.57848      -910.05000
   3315314.51207  21487867.99607   2580423.95348  21487865.11748     -1918.51100
  -2224407.87505  24868067.14405  -1733576.76847  24868063.62547      2069.07100
    447390.25806  23296242.52706    348070.69647  23296238.62947     -1557.94000
  10693698.58207  22664955.55907   8319602.52048  22664951.75848     -2813.83200
  -8331710.69106  22446112.33206  -6486308.92748  22446107.66448      1077.07900
   5179556.61702  25264107.26202         0.00000         0.00000     -2295.38500
   7999742.89807  23174202.46507   6227793.08348  23174197.18448     -3171.35100
  -6676110.90207  23495450.43407  -5203233.59948  23495447.62548      1252.76200
  17267553.58205  25107549.52705  13436666.79546  25107546.84846     -4503.98300
 08 11 10  1 24 45.0040000  0 10  3  6  7 13 16 19 21 23 25 31
  -1510039.71507  20980265.18407  -1175223.77748  20980262.19548      -918.82100
   3344203.41407  21493365.30107   2602934.78048  21493362.54748     -1925.92700
  -2255415.36305  24862166.57405  -1757738.41947  24862163.05947      2067.16600
    470913.33206  23300718.84806    366400.35647  23300714.40247     -1568.20500
  10735944.80907  22672994.84007   8352521.63648  22672990.84048     -2816.41500
  -8347760.86707  22443058.30907  -6498815.54548  22443053.01648      1070.01200
   5214105.98801  25270682.60501         0.00000         0.00000     -2303.29100
   8047431.96507  23183277.22307   6264953.38948  23183272.23448     -3179.27100
  -6694836.27706  23491887.19906  -5217824.77547  23491884.28947      1248.35800
  17335163.55906  25120415.09006  13489349.87647  25120413.12147     -4507.33200
 08 11 10  1 25  0.0040000  0 10  3  6  7 13 16 19 21 23 25 31
  -1496126.46107  20982912.75407  -1164382.28148  20982910.16448      -927.55000
   3373202.59807  21498883.91807   2625531.54648  21498881.07048     -1933.27900
  -2286394.65606  24856271.73806  -1781878.09347  24856267.99647      2065.28600
    494589.78507  23305223.94907    384849.53547  23305220.05547     -1578.43000
  10778229.11307  22681041.36307   8385470.44648  22681037.58648     -2818.95400
  -8363705.34407  22440024.09807  -6511239.80548  22440019.62548      1062.96500
   5248773.23001  25277279.26901         0.00000         0.00000     -2311.14900
   8095238.85207  23192374.35507   6302205.49348  23192369.46548     -3187.12600
  -6713495.85206  23488336.58206  -5232364.70347  23488333.54747      1243.97200
  17402823.14806  25133290.14406  13542071.56547  25133287.91047     -4510.63900
 08 11 10  1 25 15.0040000  0 10  3  6  7 13 16 19 21 23 25 31
  -1482081.88707  20985585.59807  -1153438.45948  20985582.21148      -936.30500
   3402312.65607  21504423.31607   2648214.70748  21504420.09048     -1940.67100
  -2317344.86305  24850381.87105  -1805995.13547  24850378.29347      2063.34700
    518420.12507  23309759.59007    403418.61747  23309755.10547     -1588.68900
  10820552.04707  22689095.19907   8418449.35348  22689091.46148     -2821.52900
  -8379543.50007  22437009.99607  -6523581.21648  22437005.17648      1055.87700
   5283559.18801  25283895.94901         0.00000         0.00000     -2319.06400
   8143163.89107  23201494.06607   6339549.68148  23201489.32448     -3195.00300
  -6732088.75006  23484798.71506  -5246852.66348  23484795.75448      1239.52700
  17470532.59406  25146175.58206  13594832.14447  25146171.74647     -4513.96300
 08 11 10  1 25 30.0040000  0 10  3  6  7 13 16 19 21 23 25 31
  -1467906.02007  20988283.19107  -1142392.32148  20988280.48048      -945.05800
   3431533.13707  21509983.83207   2670983.90548  21509981.02748     -1948.03200
  -2348265.90605  24844497.55105  -1830089.44147  24844493.98047      2061.40300
    542403.91007  23314323.23007    422107.28647  23314319.30547     -1598.91900
  10862913.26207  22697155.72307   8451458.08648  22697152.27348     -2824.08100
  -8395275.53906  22434016.33206  -6535839.93848  22434011.58248      1048.80300
   5318462.34411  25290539.84001         0.00000         0.00000     -2326.97800
   8191206.53907  23210636.21507   6376985.49347  23210631.13747     -3202.84300
  -6750615.02006  23481273.09806  -5261288.72048  23481270.35248      1235.08500
  17538291.44106  25159070.12906  13647631.16547  25159066.44547     -4517.25700
 08 11 10  1 25 45.0040000  0 10  3  6  7 13 16 19 21 23 25 31
  -1453599.48807  20991005.66807  -1131244.37048  20991002.60248      -953.76900
   3460863.33607  21515565.37907   2693838.61848  21515562.45348     -1955.34700
  -2379157.97704  24838619.23004  -1854161.14347  24838616.21547      2059.47100
    566540.71907  23318916.49607    440915.19947  23318912.50047     -1609.12100
  10905312.44107  22705224.65207   8484496.40148  22705220.46148     -2826.61200
  -8410901.80907  22431042.96507  -6548016.23248  22431038.11748      1041.75100
   5353482.69901  25297205.30101         0.00000         0.00000     -2334.69000
   8239365.98407  23219800.74607   6414512.33847  23219795.68047     -3210.63000
  -6769074.79306  23477760.64406  -5275672.93348  23477757.76948      1230.65200
  17606098.99206  25171973.17606  13700468.20047  25171970.40247     -4520.50300
 08 11 10  1 26  0.0040000  0 10  3  6  7 13 16 19 21 23 25 31
  -1439162.27007  20993752.79307  -1119994.58048  20993749.48048      -962.48100
   3490303.26607  21521167.64407   2716778.82748  21521164.29748     -1962.66200
  -2410020.58205  24832746.21505  -1878209.93247  24832743.23047      2057.50700
    590830.32007  23323538.64407    459842.16547  23323534.94547     -1619.30700
  10947749.56607  22713300.21507   8517564.27448  22713295.75848     -2829.14200
  -8426421.85907  22428089.59807  -6560109.77748  22428084.35548      1034.67000
   5388620.27701  25303891.86301         0.00000         0.00000     -2342.50500
   8287642.05107  23228986.60507   6452130.04948  23228981.54748     -3218.40400
  -6787467.66406  23474260.52706  -5290005.03748  23474257.55548      1226.19100
  17673955.22306  25184885.48806  13753343.15147  25184882.90647     -4523.74900
 08 11 10  1 26 15.0040000  0 10  3  6  7 13 16 19 21 23 25 31
  -1424593.37507  20996525.43407  -1108642.19948  20996522.17248      -971.26000
   3519853.95707  21526790.74607   2739805.33748  21526787.26648     -1970.04600
  -2440852.42605  24826879.44905  -1902234.72347  24826876.59047      2055.45600
    615273.89807  23328189.69907    478889.09847  23328186.60247     -1629.57200
  10990225.76207  22721383.26907   8550662.61348  22721378.19948     -2831.74600
  -8441834.49207  22425156.62907  -6572119.61948  22425151.34848      1027.50900
   5423876.52701  25310598.30101         0.00000         0.00000     -2350.41700
   8336035.53507  23238196.69907   6489839.25748  23238191.28948     -3226.23200
  -6805792.19106  23470773.62906  -5304283.90347  23470770.74647      1221.63500
  17741861.08206  25197807.55106  13806256.77147  25197805.22347     -4527.05700
 08 11 10  1 26 30.0040000  0 10  3  6  7 13 16 19 21 23 25 31
  -1409893.95307  20999322.80107  -1097188.09348  20999318.93448      -979.96100
   3549514.01607  21532435.07407   2762917.06548  21532431.76948     -1977.33700
  -2471654.29305  24821017.78505  -1926236.14947  24821015.05947      2053.45800
    639870.32806  23332869.98006    498055.13647  23332867.22347     -1639.76200
  11032740.00007  22729473.65207   8583790.58548  22729468.83648     -2834.28300
  -8457140.52007  22422243.85507  -6584046.38148  22422238.49248      1020.40200
   5459249.92601  25317330.91001         0.00000         0.00000     -2358.22700
   8384544.93407  23247427.46507   6527638.78248  23247422.48448     -3233.96000
  -6824049.14506  23467298.97306  -5318510.08648  23467295.97348      1217.13000
  17809815.52306  25210739.46506  13859208.20847  25210736.11347     -4530.29600
 08 11 10  1 26 45.0040000  0 10  3  6  7 13 16 19 21 23 25 31
  -1395064.66807  21002144.41807  -1085632.81448  21002141.03548      -988.61900
   3579282.66407  21538099.90207   2786113.42548  21538096.66448     -1984.57700
  -2502426.60206  24815162.25406  -1950214.55647  24815158.99647      2051.48700
    664618.74607  23337579.69907    517339.62447  23337576.78147     -1649.89500
  11075291.49207  22737570.40207   8616947.58548  22737565.97348     -2836.76600
  -8472340.51207  22419351.90207  -6595890.53348  22419346.30548      1013.33300
   5494740.04702  25324084.91002         0.00000         0.00000     -2366.00800
   8433169.19107  23256680.28507   6565527.78848  23256674.94948     -3241.61700
  -6842238.93006  23463837.86306  -5332683.94148  23463834.69548      1212.65200
  17877817.52306  25223678.59806  13912196.74247  25223675.44547     -4533.46700
 08 11 10  1 27  0.0040000  0 10  3  6  7 13 16 19 21 23 25 31
  -1380106.12507  21004991.02707  -1073976.78948  21004987.84048      -997.23600
   3609159.42207  21543784.77707   2809394.02048  21543782.05148     -1991.78400
  -2533169.25806  24809311.81606  -1974169.86847  24809309.03147      2049.51000
    689518.73407  23342317.95707    536742.21347  23342314.97347     -1659.99900
  11117879.96907  22745674.24607   8650133.41348  22745669.90648     -2839.23200
  -8487434.68007  22416479.57407  -6607652.22048  22416473.71548      1006.27800
   5530346.37903  25330860.17603         0.00000         0.00000     -2373.75500
   8481907.64507  23265954.90207   6603505.80048  23265949.76948     -3249.23000
  -6860361.66806  23460389.11306  -5346805.54347  23460385.77347      1208.18300
  17945866.57006  25236628.63706  13965221.94947  25236624.80547     -4536.60300
 08 11 10  1 27 15.0040000  0 10  3  6  7 13 16 19 21 23 25 31
  -1365018.37907  21007862.28507  -1062220.09648  21007858.80548     -1005.85000
   3639143.91407  21549490.69907   2832758.55048  21549487.83648     -1998.96600
  -2563882.19506  24803467.26906  -1998102.00047  24803464.05547      2047.52900
    714570.31307  23347085.26207    556262.93247  23347081.86747     -1670.10500
  11160505.25807  22753785.94107   8683347.91148  22753781.56248     -2841.68600
  -8502422.88307  22413627.09807  -6619331.33548  22413621.57848       999.21400
   5566068.67604  25337658.56604         0.00000         0.00000     -2381.48600
   8530760.01207  23275251.23007   6641572.57248  23275246.42248     -3256.82400
  -6878416.98806  23456952.90206  -5360874.62547  23456950.06247      1203.68800
  18013962.42206  25249586.42606  14018283.58547  25249583.35247     -4539.72300
 08 11 10  1 27 30.0040000  0 10  3  6  7 13 16 19 21 23 25 31
  -1349800.68407  21010757.99607  -1050362.15248  21010754.96548     -1014.51300
   3669236.94507  21555217.14407   2856207.67148  21555213.71548     -2006.20200
  -2594564.24606  24797629.20706  -2022010.07547  24797625.63347      2045.47000
    739774.05107  23351881.18407    575902.21347  23351877.85947     -1680.24900
  11203168.23807  22761904.91007   8716591.79348  22761900.10948     -2844.19900
  -8517304.18407  22410795.22307  -6630927.12948  22410790.01248       992.08700
   5601907.41004  25344478.69904         0.00000         0.00000     -2389.24900
   8579726.71507  23284569.29307   6679728.43248  23284564.57048     -3264.44700
  -6896403.89506  23453530.12906  -5374890.39148  23453527.28948      1199.12700
  18082105.75006  25262553.22306  14071382.25547  25262550.84047     -4542.88900
 08 11 10  1 27 45.0040000  0 10  3  6  7 13 16 19 21 23 25 31
  -1334453.40207  21013678.41807  -1038403.22248  21013675.64448     -1023.15200
   3699437.82007  21560964.52707   2879740.82948  21560960.85948     -2013.39200
  -2625215.50806  24791796.48006  -2045894.15847  24791792.91847      2043.41700
    765129.25807  23356706.41007    595659.50947  23356702.62147     -1690.34700
  11245868.37507  22770030.51207   8749864.61548  22770025.66048     -2846.67600
  -8532078.95306  22407983.55906  -6642439.94048  22407978.27748       984.98500
   5637862.42603  25351319.75403         0.00000         0.00000     -2397.00100
   8628807.14507  23293908.94107   6717972.92948  23293904.43448     -3272.02900
  -6914322.44506  23450120.32406  -5388852.89448  23450117.66048      1194.57000
  18150295.77306  25275529.87906  14124517.30447  25275527.19147     -4546.00200
 08 11 10  1 28  0.0040000  0 10  3  6  7 13 16 19 21 23 25 31
  -1318976.53107  21016623.44107  -1026343.33448  21016620.74248     -1031.79100
   3729746.49207  21566732.08207   2903357.97548  21566728.25048     -2020.57800
  -2655835.46506  24785969.72306  -2069753.84847  24785965.77747      2041.33000
    790636.00407  23361560.01907    615534.87847  23361556.73047     -1700.45000
  11288605.84807  22778162.78507   8783166.53548  22778158.40648     -2849.16500
  -8546746.78907  22405192.06607  -6653869.40948  22405187.10948       977.85600
   5673933.76604  25358184.87104         0.00000         0.00000     -2404.75600
   8678001.02307  23303270.27707   6756305.79448  23303265.75848     -3279.59200
  -6932172.25006  23446723.36306  -5402761.82948  23446720.60548      1189.98700
  18218532.57006  25288515.59006  14177688.80447  25288512.13347     -4549.12000
 08 11 10  1 28 15.0040000  0 10  3  6  7 13 16 19 21 23 25 31
  -1303369.75007  21019593.51907  -1014182.18748  21019590.93748     -1040.45200
   3760163.37907  21572520.01207   2927059.44448  21572516.52348     -2027.79200
  -2686423.47706  24780148.78506  -2093588.64947  24780144.98447      2039.20100
    816294.85507  23366442.57407    635528.79447  23366438.93447     -1710.59000
  11331381.10207  22786302.76907   8816497.89648  22786298.11748     -2851.68400
  -8561307.11706  22402421.79306  -6665215.11548  22402416.71548       970.68900
   5710121.54303  25365070.79303         0.00000         0.00000     -2412.51800
   8727308.50407  23312652.97307   6794727.21148  23312648.49248     -3287.16500
  -6949952.47706  23443340.19906  -5416616.54747  23443336.98047      1185.34800
  18286816.47306  25301508.73006  14230897.00347  25301506.59447     -4552.26000
 08 11 10  1 28 30.0040000  0 10  3  6  7 13 16 19 21 23 25 31
  -1287633.12107  21022588.01207  -1001919.89248  21022585.08248     -1049.10900
   3790688.32807  21578328.16807   2950845.12448  21578325.38348     -2034.99700
  -2716979.12106  24774334.47306  -2117398.22747  24774330.42247      2037.04300
    842105.59407  23371354.85507    655641.06447  23371350.45747     -1720.71600
  11374194.30107  22794449.73007   8849858.81948  22794445.14148     -2854.21300
  -8575759.71107  22399671.76907  -6676476.86648  22399666.11748       963.50600
   5746425.71903  25371979.05103         0.00000         0.00000     -2420.27800
   8776729.17607  23322057.94107   6833236.80848  23322052.85548     -3294.71100
  -6967662.84406  23439970.62906  -5430416.83348  23439966.87148      1180.69100
  18355147.28506  25314511.98006  14284141.71947  25314510.35247     -4555.38700
 08 11 10  1 28 45.0040000  0 10  3  6  7 13 16 19 21 23 25 31
  -1271767.10207  21025607.27707   -989556.74848  21025604.02748     -1057.73500
   3821320.74607  21584157.73007   2974714.53448  21584154.63748     -2042.16100
  -2747502.43406  24768526.16806  -2141182.60147  24768521.80547      2034.88800
    868067.79707  23376294.92607    675871.34547  23376290.96547     -1730.81400
  11417044.87907  22802603.88707   8883248.87348  22802599.57048     -2856.70500
  -8590104.74607  22396941.98807  -6687654.80348  22396936.09448       956.33600
   5782846.39103  25378908.87903         0.00000         0.00000     -2428.04500
   8826262.41007  23331483.92607   6871834.12547  23331478.46147     -3302.21600
  -6985303.44106  23436613.40206  -5444162.74847  23436609.50047      1176.04000
  18423524.51206  25327524.14406  14337422.64747  25327521.86747     -4558.48200
 08 11 10  1 29  0.0040000  0 10  3  6  7 13 16 19 21 23 25 31
  -1255771.73007  21028650.97307   -977092.82748  21028647.87548     -1066.35800
   3852060.39107  21590007.05907   2998667.50248  21590004.34848     -2049.31000
  -2777993.27306  24762723.53506  -2164941.67947  24762719.38347      2032.72300
    894181.20707  23381264.79307    696219.44247  23381260.98847     -1740.89400
  11459932.89107  22810765.01907   8916668.09448  22810760.98848     -2859.20100
  -8604342.07007  22394232.66007  -6698748.81748  22394226.69148       949.15500
   5819382.96904  25385862.22304         0.00000         0.00000     -2435.77200
   8875907.79707  23340930.66807   6910518.82947  23340925.61747     -3309.69200
  -7002873.94906  23433269.68406  -5457854.04448  23433266.38748      1171.36700
  18491948.11706  25340544.67606  14390739.69847  25340542.68747     -4561.57400
 08 11 10  1 29 15.0040000  0 10  3  6  7 13 16 19 21 23 25 31
  -1239646.64807  21031719.69107   -964527.82648  21031716.51648     -1075.00500
   3882907.60207  21595877.30907   3022704.29848  21595874.20348     -2056.48100
  -2808450.77706  24756927.50406  -2188674.76447  24756923.30147      2030.50000
    920446.17607  23386262.44907    716685.64947  23386258.64847     -1750.99800
  11502858.73007  22818933.83207   8950116.77948  22818929.95348     -2861.72300
  -8618471.25007  22391543.80107  -6709758.55748  22391538.23448       941.94500
   5856035.69503  25392837.08203         0.00000         0.00000     -2443.51500
   8925665.51207  23350399.09007   6949291.08347  23350394.22347     -3317.18100
  -7020373.65606  23429939.81606  -5471490.17548  23429936.41448      1166.64700
  18560418.05906  25353574.41006  14444092.87847  25353572.06647     -4564.66300
 08 11 10  1 29 30.0040000  0 10  3  6  7 13 16 19 21 23 25 31
  -1223394.58607  21034812.02707   -951863.87648  21034809.28148     -1083.47100
   3913859.42207  21601767.50407   3046822.61148  21601764.21948     -2063.45500
  -2838877.23406  24751137.59806  -2212383.67247  24751133.29347      2028.43000
    946860.11307  23391288.18407    737267.93747  23391284.89847     -1760.92900
  11545819.90207  22827109.26207   8983593.01448  22827104.79348     -2864.07800
  -8632494.63707  22388874.52707  -6720685.85448  22388869.54748       934.89200
   5892802.05103  25399832.76203         0.00000         0.00000     -2451.09000
   8975532.66007  23359888.10507   6988148.59947  23359883.41847     -3324.47700
  -7037804.78506  23426622.42606  -5485072.86748  23426619.50448      1162.07500
  18628931.63306  25366611.33206  14497480.04147  25366609.44547     -4567.57200
 08 11 10  1 29 45.0040000  0 10  3  6  7 13 16 19 21 23 25 31
  -1207012.22707  21037929.23807   -939098.39848  21037926.67248     -1092.15700
   3944919.21906  21607677.55906   3071025.04748  21607674.63748     -2070.65300
  -2869269.16406  24745354.34806  -2236065.68347  24745350.01247      2026.12900
    973426.08207  23396344.01207    757968.68747  23396340.89147     -1771.06500
  11588819.57407  22835291.79307   9017099.24848  22835287.84048     -2866.64500
  -8646408.89506  22386227.13706  -6731528.14548  22386222.22348       927.61700
   5929685.50804  25406852.12904         0.00000         0.00000     -2458.89700
   9025512.03107  23369399.16007   7027093.55047  23369394.22347     -3331.95800
  -7055163.90206  23423319.73006  -5498599.45147  23423315.93747      1157.27400
  18697491.84806  25379658.50406  14550903.53947  25379655.97747     -4570.68100
 08 11 10  1 30  0.0040000  0 10  3  6  7 13 16 19 21 23 25 31
  -1190500.71107  21041071.98807   -926232.25848  21041068.55148     -1100.76800
   3976085.64107  21613608.55107   3095310.57348  21613605.00048     -2077.76100
  -2899627.25806  24739576.77706  -2259721.29147  24739573.02347      2023.87300
   1000142.92606  23401428.09006    778787.02447  23401424.85547     -1781.12300
  11631856.72307  22843481.27707   9050634.67048  22843476.97348     -2869.14300
  -8660214.82407  22383599.89407  -6742286.00048  22383594.66448       920.39500
   5966684.44903  25413893.56603         0.00000         0.00000     -2466.59600
   9075602.30907  23378931.12907   7066124.93847  23378926.12947     -3339.35200
  -7072451.65206  23420029.53506  -5512070.41448  23420026.54348      1152.51700
  18766097.58606  25392713.77706  14604362.49847  25392710.84847     -4573.71600
 08 11 10  1 30 15.0040000  0 10  3  6  7 13 16 19 21 23 25 31
  -1173858.44907  21044238.36307   -913264.27548  21044235.47748     -1109.48400
   4007360.23007  21619560.12907   3119680.37748  21619556.64448     -2084.97300
  -2929949.48406  24733806.85506  -2283349.00847  24733803.07447      2021.48200
   1027012.16007  23406541.16007    799724.09747  23406538.06247     -1791.28200
  11674933.06307  22851678.05907   9084200.64548  22851674.29348     -2871.75600
  -8673910.45307  22380993.87907  -6752957.91448  22380989.15248       913.04200
   6003800.89104  25420956.17604         0.00000         0.00000     -2474.42900
   9125804.89807  23388484.41807   7105243.82847  23388479.54347     -3346.83900
  -7089666.07807  23416753.52707  -5525484.24648  23416750.51648      1147.62800
  18834750.50006  25405777.92606  14657858.23347  25405774.52347     -4576.86100
 08 11 10  1 30 30.0040000  0 10  3  6  7 13 16 19 21 23 25 31
  -1157084.89107  21047430.28507   -900193.94948  21047427.05148     -1118.23700
   4038743.60507  21625532.10507   3144134.95248  21625528.15648     -2092.22500
  -2960234.80506  24728043.90206  -2306947.91847  24728039.46547      2019.02100
   1054034.54306  23411683.01206    820780.50447  23411680.19547     -1801.49200
  11718049.41807  22859882.84807   9117797.79448  22859879.20348     -2874.42400
  -8687495.03107  22378408.80907  -6763543.29748  22378403.89848       905.63900
   6041035.34004  25428042.06604         0.00000         0.00000     -2482.29700
   9176120.16807  23398059.39407   7144450.52547  23398054.04347     -3354.35100
  -7106806.06307  23413492.24607  -5538840.07748  23413489.02348      1142.66600
  18903451.00406  25418851.28506  14711391.02647  25418847.66847     -4580.03400
 08 11 10  1 30 45.0040000  0 10  3  6  7 13 16 19 21 23 25 31
  -1140179.91407  21050647.11307   -887021.24748  21050644.27748     -1126.99800
   4070235.66007  21631524.85507   3168674.22248  21631521.40648     -2099.47000
  -2990483.02006  24722287.69106  -2330517.94947  24722283.64447      2016.54800
   1081209.87506  23416854.16806    841956.09047  23416851.46547     -1811.68900
  11761205.72307  22868095.42607   9151426.07948  22868091.50048     -2877.08700
  -8700968.43407  22375844.74607  -6774042.03948  22375840.34048       898.22700
   6078387.85903  25435149.40203         0.00000         0.00000     -2490.16800
   9226547.83607  23407655.66007   7183744.80447  23407650.66847     -3361.84500
  -7123871.34406  23410244.82406  -5552137.67147  23410241.83647      1137.68500
  18972198.94106  25431933.49606  14764960.81547  25431930.71147     -4583.19600
 08 11 10  1 31  0.0040000  0 11  3  6  7 13 16 19 21 23 25 27 31
  -1123144.00807  21053889.23007   -873746.50348  21053885.96948     -1135.72700
   4101835.92207  21637538.59807   3193297.80148  21637535.01248     -2106.68400
  -3020693.80106  24716538.40206  -2354058.79347  24716534.40647      2014.05200
   1108538.03906  23422054.64406    863250.77647  23422051.72347     -1821.87800
  11804401.79307  22876315.50407   9185085.34548  22876311.37948     -2879.73800
  -8714330.57806  22373302.11306  -6784454.10048  22373297.54348       890.81000
   6115858.02303  25442280.76903         0.00000         0.00000     -2498.01100
   9277087.51207  23417272.55907   7223126.37547  23417268.01647     -3369.31200
  -7140861.65606  23407011.47306  -5565376.86447  23407008.20347      1132.68800
    -58813.46912  26125506.48002    -45677.07755  26125503.58245      1896.65600
  19040994.08206  25445025.19106  14818567.37246  25445021.87146     -4586.34300
 08 11 10  1 31 15.0040000  0 11  3  6  7 13 16 19 21 23 25 27 31
  -1105979.71507  21057155.16007   -860371.73648  21057152.14848     -1144.28600
   4133541.66007  21643571.79307   3218003.57648  21643568.37548     -2113.71600
  -3050869.43406  24710795.95706  -2377572.24347  24710792.14447      2011.70900
   1136016.16806  23427284.05106    884662.31647  23427280.26247     -1831.87500
  11847634.95307  22884542.87107   9218773.52548  22884538.53148     -2882.21100
  -8727583.94106  22370780.42606  -6794781.38648  22370775.51948       883.55800
   6153443.07402  25449432.26202         0.00000         0.00000     -2505.67000
   9327736.12907  23426910.44907   7262592.83447  23426906.11347     -3376.57400
  -7157779.38306  23403792.50406  -5578559.51348  23403788.88348      1127.84800
    -87259.20302  26120093.50402    -67842.64346  26120090.07046      1896.38200
  19109833.44906  25458124.33206  14872208.39646  25458121.64846     -4589.29100
 08 11 10  1 31 30.0040000  0 11  3  6  7 13 16 19 21 23 25 27 31
  -1088686.14507  21060446.27707   -846896.21548  21060443.14148     -1152.90500
   4165353.63707  21649624.99607   3242792.11848  21649622.19948     -2120.79800
  -3081008.71506  24705060.78506  -2401057.36947  24705057.17247      2009.28500
   1163645.11306  23432541.51906    906191.36047  23432537.82847     -1841.93000
  11890906.17207  22892776.82407   9252491.34348  22892772.07448     -2884.74800
  -8740727.49606  22368279.19106  -6805023.11248  22368274.16048       876.23700
   6191144.00001  25456607.08201         0.00000         0.00000     -2513.39500
   9378494.23407  23436569.84807   7302144.59647  23436565.48047     -3383.87400
  -7174623.43406  23400586.84806  -5591684.74948  23400583.76648      1122.93700
   -115696.32803  26114682.10503    -90001.31946  26114679.01946      1895.80800
  19178717.82006  25471232.72306  14925884.49246  25471230.31646     -4592.29100
 08 11 10  1 31 45.0040000  0 11  3  6  7 13 16 19 21 23 25 27 31
  -1071267.01207  21063761.05907   -833322.85348  21063757.81648     -1161.27600
   4197268.01207  21655698.62907   3267660.46048  21655695.42648     -2127.62500
  -3111115.00006  24699331.49606  -2424516.80747  24699327.99247      2007.08600
   1191420.87506  23437827.35506    927834.79647  23437823.40647     -1851.71700
  11934211.83607  22901017.26907   9286236.03148  22901012.47748     -2887.04400
  -8753764.75007  22365797.74607  -6815181.98748  22365793.05148       869.15000
   6228957.12101  25463802.12901         0.00000         0.00000     -2520.87500
   9429357.81307  23446248.66007   7341778.52747  23446244.12947     -3390.90500
  -7191397.04706  23397395.05906  -5604755.08648  23397391.92248      1118.24100
   -144128.42201  26109270.60501   -112156.17646  26109268.81646      1895.47300
  19247643.50006  25484348.67606  14979592.78046  25484346.27346     -4595.04500
 08 11 10  1 32  0.0040000  0 11  3  6  7 13 16 19 21 23 25 27 31
  -1053722.23407  21067099.87907   -819651.59648  21067096.60248     -1169.65200
   4229284.91807  21661791.19907   3292608.70248  21661787.82048     -2134.46000
  -3141187.69506  24693608.83206  -2447950.07147  24693605.37547      2004.84600
   1219343.78906  23443140.43406    949592.91947  23443136.85547     -1861.52800
  11977552.22307  22909264.85507   9320007.75748  22909260.14148     -2889.35900
  -8766695.06306  22363337.64406  -6825257.55248  22363332.15648       862.02100
         0.00000  25471019.10501         0.00000         0.00000         0.00000
   9480326.84007  23455947.30907   7381494.66947  23455943.51947     -3397.93500
  -7208099.59407  23394216.61307  -5617770.05048  23394213.44948      1113.50300
   -172554.85202  26103861.93402   -134306.64446  26103859.39446      1895.09500
  19316610.58205  25497473.47305  15033333.27846  25497470.35546     -4597.80500
 08 11 10  1 32 15.0040000  0 11  3  6  7 13 16 19 21 23 25 27 31
  -1036050.22706  21070462.42606   -805881.19548  21070459.46948     -1178.13400
   4261405.80906  21667903.33206   3317637.96448  21667900.20348     -2141.39300
  -3171224.85506  24687893.47306  -2471355.60747  24687889.68047      2002.47700
   1247415.44906  23448481.98006    971466.92847  23448478.80547     -1871.44400
  12020929.00807  22917518.91807   9353807.84248  22917514.74648     -2891.78600
  -8779516.88706  22360897.53506  -6835248.57248  22360892.48448       854.78800
         0.00000  25478254.55101         0.00000         0.00000         0.00000
   9531402.71107  23465667.08207   7421294.04547  23465662.52347     -3405.05800
  -7224729.18007  23391052.15207  -5630728.16547  23391048.74247      1108.63900
   -200973.70302  26098454.36302   -156451.24846  26098451.73046      1894.59000
  19385620.41805  25510605.19105  15087107.12846  25510603.44146     -4600.65600
 08 11 10  1 32 30.0040000  0 11  3  6  7 13 16 19 21 23 25 27 31
  -1018251.05507  21073849.54307   -792011.71448  21073846.43748     -1186.61100
   4293630.68807  21674035.44907   3342748.27148  21674032.11348     -2148.32500
  -3201225.89106  24682183.99606  -2494733.01047  24682180.43747      2000.06900
   1275635.67606  23453852.15206    993456.72347  23453849.19947     -1881.34800
  12064342.30507  22925780.79307   9387636.36548  22925775.94548     -2894.22000
  -8792229.97706  22358478.40206  -6845154.87448  22358473.03148       847.53900
         0.00000  25485517.51201         0.00000         0.00000         0.00000
   9582585.13307  23475407.01907   7461176.42447  23475402.57847     -3412.16100
  -7241285.37907  23387901.42607  -5643629.09948  23387898.25048      1103.74700
   -229384.73403  26093048.43403   -178589.66146  26093044.72746      1894.06900
  19454672.98005  25523745.05905  15140914.27046  25523744.10546     -4603.50400
 08 11 10  1 32 45.0040000  0 10  3  6  7 13 16 19 23 25 27 31
  -1000323.89506  21077260.95706   -778042.49348  21077257.47748     -1195.14400
   4325960.06606  21680187.30106   3367939.98948  21680184.44948     -2155.29200
  -3231189.90206  24676482.17606  -2518081.58647  24676478.65647      1997.60100
   1304005.26206  23459250.55906   1015562.88047  23459248.27347     -1891.30600
  12107792.82407  22934049.02707   9421493.90948  22934044.68748     -2896.70100
  -8804833.37907  22356080.12107  -6854975.70048  22356075.04748       840.22700
   9633874.44107  23485166.84807   7501142.12447  23485162.16047     -3419.28700
  -7257767.12107  23384765.69107  -5656472.01048  23384761.70748      1098.78300
   -257786.81303  26087643.58203   -200721.10046  26087639.99246      1893.47200
  19523768.88706  25536894.24606  15194755.19646  25536891.40646     -4606.39400
 08 11 10  1 33  0.0040000  0 10  3  6  7 13 16 19 23 25 27 31
   -982272.23007  21080696.06607   -763976.25848  21080693.03148     -1203.44400
   4358390.32807  21686358.73807   3393210.32048  21686355.71548     -2162.01700
  -3261120.03506  24670787.01906  -2541403.75047  24670782.62947      1995.34200
   1332520.69507  23464677.36307   1037782.69547  23464674.55147     -1901.02900
  12151277.22307  22942323.98007   9455377.84948  22942320.05548     -2898.96000
  -8817330.37106  22353701.84006  -6864713.61648  22353697.34448       833.13300
   9685267.05907  23494946.74607   7541188.32047  23494942.24247     -3426.17400
  -7274177.49207  23381641.94907  -5669259.30948  23381639.13348      1094.02500
   -286183.02004  26082238.91004   -222848.05346  26082236.37146      1893.08000
  19592904.50806  25550049.78506  15248627.07046  25550047.14446     -4609.04100
 08 11 10  1 33 15.0040000  0 10  3  6  7 13 16 19 23 25 27 31
   -964093.42207  21084155.05907   -749810.95148  21084152.44548     -1211.92100
   4390924.16007  21692549.80907   3418561.35648  21692546.55148     -2168.92200
  -3291013.22706  24665098.16806  -2564697.13847  24665094.94947      1992.87900
   1361184.52006  23470131.62906   1060118.12747  23470128.58247     -1910.92200
  12194798.21107  22950605.79307   9489290.29648  22950601.46548     -2901.39900
  -8829717.96907  22351344.06607  -6874366.27848  22351340.23448       825.84000
   9736765.31607  23504745.95707   7581316.82147  23504741.75847     -3433.21700
  -7290513.49607  23378533.80907  -5681988.65548  23378530.41048      1089.06700
   -314570.48405  26076837.82405   -244968.15746  26076834.83646      1892.49800
  19662082.50406  25563214.58206  15302531.96746  25563210.85546     -4611.86600
 08 11 10  1 33 30.0040000  0 10  3  6  7 13 16 19 23 25 27 31
   -945785.09007  21087639.27707   -735544.72648  21087636.31248     -1220.55500
   4423563.73807  21698761.09007   3443994.79348  21698757.76648     -2175.97200
  -3320866.57406  24659417.55106  -2587959.47547  24659413.51947      1990.22300
   1389998.88706  23475615.05906   1082570.87947  23475611.47347     -1920.95800
  12238358.30507  22958894.38707   9523233.22848  22958890.53948     -2904.00600
  -8841993.56306  22349008.54306  -6883931.67348  22349004.23048       818.37300
   9788371.30507  23514566.86307   7621529.25947  23514562.62947     -3440.39900
  -7306772.23407  23375439.70707  -5694657.80848  23375436.78148      1083.91600
   -342946.42204  26071437.76904   -267079.27946  26071434.82046      1891.72900
  19731305.03906  25576386.63706  15356471.56546  25576384.31246     -4614.83600
 08 11 10  1 33 45.0040000  0 10  3  6  7 13 16 19 23 25 27 31
   -927349.65607  21091147.84807   -721179.43848  21091144.34848     -1229.02900
   4456306.72307  21704991.80107   3469508.81348  21704988.51648     -2182.86600
  -3350682.00406  24653743.87106  -2611192.26647  24653739.84047      1987.69500
   1418961.58606  23481126.60506   1105139.20247  23481122.78547     -1930.84700
  12281955.30107  22967190.74607   9557204.90048  22967186.93448     -2906.46600
  -8854159.29706  22346693.58206  -6893411.46648  22346688.68048       811.04900
   9840082.50807  23524407.13707   7661823.68447  23524402.64147     -3447.41400
  -7322955.64807  23372360.38707  -5707268.25248  23372356.47748      1078.89400
   -371312.71104  26066039.67604   -289182.81746  26066037.40246      1891.08600
  19800569.83605  25589567.04305  15410444.14246  25589564.62146     -4617.65300
 08 11 10  1 34  0.0040000  0 10  3  6  7 13 16 19 23 25 27 31
   -908786.61307  21094680.00407   -706714.73348  21094676.93448     -1237.53600
   4489153.56307  21711242.28507   3495103.75748  21711239.30148     -2189.78900
  -3380458.54706  24648077.49606  -2634394.75347  24648073.29747      1985.10300
   1448073.05506  23486666.69106   1127823.44447  23486662.52347     -1940.76500
  12325589.67607  22975494.60507   9591205.71348  22975489.55148     -2908.95800
  -8866214.46107  22344399.83207  -6902805.09648  22344394.40648       803.67800
   9891899.11707  23534267.68407   7702200.28047  23534262.92647     -3454.44100
  -7339062.86307  23369295.37107  -5719819.31948  23369291.62548      1073.81400
   -399668.60204  26060643.16004   -311278.34146  26060641.29746      1890.39300
  19869877.29306  25602756.00406  15464449.88646  25602753.57446     -4620.49700
 08 11 10  1 34 15.0040000  0 10  3  6  7 13 16 19 23 25 27 31
   -890096.98407  21098236.67607   -692151.38348  21098233.34448     -1245.97500
   4522102.84407  21717512.22307   3520778.52048  21717509.17248     -2196.61900
  -3410197.20306  24642418.73806  -2657567.71947  24642414.48047      1982.57700
   1477331.96506  23492234.33206   1150622.61047  23492230.35247     -1950.59400
  12369260.32806  22983804.48806   9625234.78648  22983800.18748     -2911.37700
  -8878160.14507  22342126.37107  -6912113.40348  22342120.81248       796.37900
   9943819.65207  23544147.66807   7742657.84447  23544142.55947     -3461.36900
  -7355094.89507  23366244.51907  -5732311.78948  23366240.82448      1068.80200
   -428015.18405  26055249.56605   -333366.54146  26055247.31646      1889.77200
  19939225.94506  25615953.12106  15518487.77346  25615949.96546     -4623.24300
 08 11 10  1 34 30.0040000  0 10  3  6  7 13 16 19 23 25 27 31
   -871281.78507  21101817.20707   -677490.20448  21101813.71548     -1254.34700
   4555153.94107  21723801.76207   3546532.62648  21723798.61348     -2203.40700
  -3439898.11706  24636767.40206  -2680711.28247  24636762.64847      1980.06100
   1506737.45706  23497829.99606   1173535.95247  23497826.33247     -1960.36600
  12412966.75406  22992121.61306   9659291.72348  22992117.71148     -2913.76200
  -8889996.60507  22339873.71507  -6921336.61348  22339868.70348       789.09700
   9995843.26607  23554047.74607   7783195.71847  23554042.36347     -3468.24100
  -7371051.80506  23363207.98806  -5744745.74748  23363204.03548      1063.79400
   -456352.53905  26049857.09005   -355447.56846  26049854.65646      1889.15700
  20008615.16806  25629156.68406  15572557.21046  25629154.59846     -4625.94800
 08 11 10  1 34 45.0040000  0 10  3  6  7 13 16 19 23 25 27 31
   -852339.66407  21105421.67607   -662730.10048  21105418.19548     -1262.80800
   4588307.84007  21730110.52707   3572366.82948  21730107.68048     -2210.26000
  -3469559.71906  24631122.32406  -2703824.20647  24631118.25447      1977.44000
   1536291.03106  23503453.80906   1196564.72047  23503449.99247     -1970.23800
  12456710.21107  23000445.73007   9693377.55048  23000441.58648     -2916.23000
  -8901722.56306  22337642.39406  -6930473.70648  22337637.01948       781.73000
  10047970.87907  23563966.64407   7823814.61447  23563961.73047     -3475.17400
  -7386932.12106  23360185.96506  -5757120.01948  23360182.50448      1058.68800
   -484679.24205  26044466.77705   -377520.27546  26044464.27346      1888.44700
  20078046.00406  25642370.01906  15626659.12946  25642366.25046     -4628.72200
 08 11 10  1 35  0.0040000  0 10  3  6  7 13 16 19 23 25 27 31
   -833272.30107  21109049.86307   -647872.40548  21109046.48048     -1271.15800
   4621562.74207  21736439.03507   3598279.74348  21736435.45348     -2216.99300
  -3499183.35506  24625485.17606  -2726907.54947  24625481.14847      1974.90900
   1565990.72306  23509105.16806   1219707.33447  23509101.24647     -1979.97900
  12500488.90607  23008776.46507   9727490.81448  23008772.45348     -2918.58000
  -8913339.44907  22335431.99607  -6939525.80948  22335426.98848       774.45900
  10100200.34807  23573905.90207   7864512.90047  23573900.28947     -3481.96500
  -7402737.16806  23357178.73006  -5769435.64748  23357174.39448      1053.67000
   -512996.57405  26039077.57405   -399585.70646  26039075.09446      1887.82200
  20147516.50406  25655589.56606  15680791.99146  25655585.91046     -4631.36700
 08 11 10  1 35 15.0040000  0 10  3  6  7 13 16 19 23 25 27 31
   -814079.50407  21112702.24607   -632916.97748  21112698.98448     -1279.52000
   4654918.66407  21742786.57407   3624271.38248  21742783.43748     -2223.72800
  -3528768.43806  24619855.49606  -2749960.84947  24619851.29747      1972.33900
   1595836.61306  23514784.37906   1242963.87247  23514781.21547     -1989.72600
  12544303.20307  23017114.03507   9761631.80448  23017109.86748     -2920.95300
  -8924846.90607  22333242.16007  -6948492.65948  22333237.00048       767.16400
  10152531.71507  23583864.59807   7905290.57547  23583858.35247     -3488.75800
  -7418466.29306  23354184.98806  -5781692.10048  23354181.28148      1048.60800
   -541304.04705  26033691.41805   -421643.51146  26033688.32846      1887.16500
  20217026.74206  25668817.11306  15734955.72346  25668814.00446     -4634.01600
 08 11 10  1 35 30.0040000  0 10  3  6  7 13 16 19 23 25 27 31
   -794760.63307  21116378.62907   -617863.30948  21116375.28148     -1287.92500
   4688376.39507  21749152.95707   3650342.33048  21749150.05948     -2230.51500
  -3558313.60506  24614233.42606  -2772983.05947  24614228.75847      1969.67800
   1625829.44906  23520491.67606   1266334.91647  23520489.06647     -1999.52200
  12588154.13306  23025458.62106   9795801.36448  23025454.54348     -2923.39500
  -8936243.85207  22331073.45707  -6957373.38848  22331068.46148       759.79600
  10204965.60207  23593842.21507   7946148.16047  23593835.74647     -3495.59200
  -7434118.32406  23351206.89406  -5793888.48248  23351203.20748      1043.46900
   -569600.43805  26028306.87905   -443692.60846  26028304.45346      1886.42600
  20286577.68806  25682052.29306  15789151.21446  25682049.55946     -4636.73000
 08 11 10  1 35 45.0040000  0 10  3  6  7 13 16 19 23 25 27 31
   -775316.08207  21120078.55907   -602711.70148  21120075.12948     -1296.30300
   4721935.41807  21755539.44907   3676492.21848  21755536.06648     -2237.26800
  -3587819.06606  24608619.05106  -2795974.32847  24608614.46547      1967.03100
   1655968.65606  23526227.16806   1289820.00147  23526224.15247     -2009.28000
  12632041.17606  23033810.25406   9829999.04448  23033805.83248     -2925.80300
  -8947530.52007  22328925.44107  -6966168.18848  22328920.77748       752.44500
  10257501.10507  23603839.31607   7987084.89947  23603833.68747     -3502.36700
  -7449693.35906  23348242.99606  -5806024.86148  23348239.17648      1038.33600
   -597885.97305  26022923.34805   -465733.26746  26022921.08246      1885.70200
  20356168.55506  25695295.07406  15843377.82746  25695292.69946     -4639.39100
 08 11 10  1 36  0.0040000  0  9  3  6  7 13 16 19 23 25 27
   -755745.96107  21123802.62107   -587462.25648  21123799.36348     -1304.67500
   4755595.37507  21761944.28507   3702720.74748  21761941.46948     -2243.99700
  -3617284.52706  24603011.30106  -2818934.41347  24603007.14447      1964.36400
   1686254.12906  23531991.09006   1313419.06747  23531987.19147     -2019.03200
  12675964.31607  23042168.51207   9864224.85648  23042163.66848     -2928.20900
  -8958706.90607  22326799.07407  -6974877.04348  22326793.93048       745.09200
  10310137.96907  23613855.87107   8028100.62547  23613849.48047     -3509.12400
  -7465191.25807  23345293.66807  -5818101.13548  23345290.22748      1033.19300
   -626160.47305  26017542.98805   -487765.39346  26017540.51646      1884.96700
 08 11 10  1 36 15.0040000  0  9  3  6  7 13 16 19 23 25 27
   -736049.97707  21127550.75407   -572114.73748  21127547.26248     -1313.06600
   4789356.73407  21768368.94907   3729028.30448  21768366.15248     -2250.75700
  -3646709.17606  24597411.70706  -2841862.69647  24597408.45347      1961.64300
   1716686.19906  23537781.80906   1337132.34947  23537778.80947     -2028.80500
  12719924.07006  23050533.51206   9898479.20548  23050529.44148     -2930.65000
  -8969772.43407  22324692.91807  -6983499.53148  22324688.25448       737.70200
  10362876.29307  23623891.67607   8069195.40447  23623886.07047     -3515.88800
  -7480611.08206  23342359.26206  -5830116.58048  23342355.88348      1027.98800
   -654423.19505  26012165.29305   -509788.25446  26012162.53146      1884.18200
 08 11 10  1 36 30.0040000  0  9  3  6  7 13 16 19 23 25 27
   -716228.82407  21131322.15207   -556669.67748  21131319.26648     -1321.41000
   4823218.75406  21774812.79306   3755414.30348  21774809.43048     -2257.46800
  -3676093.05106  24591820.52706  -2864759.19247  24591816.98047      1958.92500
   1747264.28906  23543600.55906   1360959.43147  23543597.38347     -2038.53900
  12763920.03106  23058905.57406   9932761.75748  23058901.55948     -2933.06400
  -8980727.23007  22322608.56607  -6992035.73748  22322603.14448       730.32000
  10415715.28507  23633946.49607   8110368.61747  23633940.83647     -3522.59900
  -7495952.91806  23339439.91806  -5842071.24748  23339436.68448      1022.78900
   -682674.21905  26006788.78505   -531802.03846  26006787.03946      1883.40200
 08 11 10  1 36 45.0040000  0  9  3  6  7 13 16 19 23 25 27
   -696280.62107  21135118.51207   -541125.62848  21135115.45748     -1329.88000
   4857183.07407  21781275.87907   3781880.00448  21781272.66848     -2264.28800
  -3705434.28906  24586237.46506  -2887622.48647  24586233.48047      1956.08300
   1777989.91407  23549447.65207   1384901.46947  23549444.31247     -2048.37500
  12807953.95306  23067285.31606   9967073.89348  23067280.79348     -2935.59500
  -8991569.45707  22320545.15207  -7000484.20948  22320539.93748       722.81500
  10468656.18407  23644021.14407   8151621.26747  23644015.74247     -3529.39300
  -7511214.79706  23336535.76206  -5853963.62348  23336532.38748      1017.45900
   -710911.59004  26001415.64404   -553805.13446  26001412.75446      1882.49100
 08 11 10  1 37  0.0040000  0 10  3  6  7 13 16 19 21 23 25 27
   -676206.50007  21138938.74607   -525483.46248  21138935.14848     -1338.27500
   4891248.33207  21787758.48007   3808424.35648  21787755.05148     -2271.01700
  -3734733.74606  24580661.54306  -2910453.21847  24580657.97747      1953.29700
   1808861.72707  23555322.53507   1408957.44447  23555318.62947     -2058.12100
  12852024.71906  23075671.44906  10001414.75648  23075666.95348     -2938.05100
  -9002300.23407  22318502.99607  -7008845.84048  22318497.91048       715.38500
         0.00000  25619886.80101         0.00000         0.00000         0.00000
  10521697.50007  23654114.10507   8192952.16747  23654109.07847     -3536.08800
  -7526397.57807  23333646.51907  -5865794.35648  23333642.52348      1012.18500
   -739136.32003  25996044.63703   -575798.46546  25996042.62146      1881.64900
 08 11 10  1 37 15.0040000  0 10  3  6  7 13 16 19 21 23 25 27
   -656003.91807  21142782.98807   -509741.18848  21142779.91848     -1346.83900
   4925417.21507  21794260.31607   3835049.45548  21794257.29348     -2277.92600
  -3763987.97305  24575094.62105  -2933248.70547  24575090.84047      1950.28200
   1839882.43807  23561225.29307   1433129.42047  23561221.46947     -2068.04700
  12896135.16406  23084065.40206  10035786.52748  23084061.55948     -2940.69600
  -9012916.50807  22316482.48007  -7017118.24748  22316477.74248       707.75200
     50481.01603  25627554.95703         0.00000         0.00000     -2690.45300
  10574841.97707  23664227.13707   8234363.44947  23664222.55547     -3542.96500
  -7541498.08207  23330773.23007  -5877560.98448  23330769.62148      1006.70000
   -767345.19504  25990676.74604   -597779.33746  25990674.54346      1880.59200
 08 11 10  1 37 30.0040000  0 10  3  6  7 13 16 19 21 23 25 27
   -635674.76207  21146651.54307   -493900.28748  21146648.65248     -1355.27700
   4959687.59007  21800781.69907   3861753.65148  21800778.88748     -2284.69200
  -3793198.39106  24569536.53506  -2956010.04747  24569532.63747      1947.36100
   1871050.05907  23567156.23007   1457415.88847  23567152.57447     -2077.84100
  12940283.37507  23092466.76907  10070187.72048  23092462.68048     -2943.21400
  -9023420.14107  22314484.20707  -7025302.89948  22314478.98048       700.24200
     90893.87503  25635244.59003         0.00000         0.00000     -2694.19100
  10628087.24607  23674359.84007   8275853.25747  23674354.59447     -3549.68500
  -7556517.89107  23327915.06607  -5889264.71748  23327911.32448      1001.32100
   -795539.75004  25985311.16804   -619749.15846  25985308.49646      1879.63700
 08 11 10  1 37 45.0040000  0 10  3  6  7 13 16 19 21 23 25 27
   -615221.41407  21150543.62107   -477962.60348  21150540.53148     -1363.55700
   4994056.99607  21807322.13707   3888535.00248  21807318.71548     -2291.29400
  -3822367.18406  24563984.92606  -2978738.96147  24563981.30547      1944.58600
   1902362.05907  23573114.20707   1481814.82747  23573110.74647     -2087.46700
  12984466.99607  23100874.89407  10104616.50448  23100870.32448     -2945.57500
  -9033813.39107  22312506.71507  -7033401.52748  22312501.39848       692.88300
    131417.23003  25642956.14403         0.00000         0.00000     -2701.55700
  10681430.66807  23684510.53507   8317419.53147  23684505.57847     -3556.22800
  -7571459.02707  23325071.84007  -5900907.14848  23325068.45748       996.07600
   -823722.20704  25979948.43404   -641709.44945  25979945.14145      1878.83000
 08 11 10  1 38  0.0040000  0 10  3  6  7 13 16 19 21 23 25 27
   -594639.64507  21154460.43407   -461924.86148  21154457.12148     -1372.11800
   5028529.77007  21813882.23807   3915396.90048  21813878.70348     -2298.18500
  -3851489.57806  24558443.49606  -3001431.72547  24558440.41447      1941.49300
   1933822.90207  23579101.27707   1506329.76547  23579097.85947     -2097.39000
  13028690.58607  23109289.65207  10139076.45548  23109286.14148     -2948.23900
  -9044091.52006  22310550.91806  -7041410.44848  22310545.51648       685.20900
    172055.38304  25650688.56604         0.00000         0.00000     -2709.21000
  10734876.28107  23694680.66807   8359065.47747  23694675.80147     -3563.04100
  -7586316.69507  23322244.80107  -5912484.55548  23322241.12548       990.51100
   -851887.69904  25974587.51204   -663656.57746  25974585.59846      1877.69900
 08 11 10  1 38 15.0050000  0 10  3  6  7 13 16 19 21 23 25 27
   -573931.16007  21158400.90707   -445788.37048  21158397.51348     -1380.56600
   5063105.00407  21820461.63407   3942338.63848  21820458.31348     -2305.01600
  -3880570.21906  24552909.51706  -3024091.93547  24552906.23547      1938.70900
   1965431.39506  23585116.29806   1530959.73247  23585112.66947     -2107.23300
  13072954.13707  23117713.03207  10173567.51948  23117708.85648     -2950.90300
  -9054257.95707  22308616.29807  -7049332.34848  22308611.23148       677.76300
    212808.09804  25658444.35204         0.00000         0.00000     -2716.84800
  10788424.42207  23704870.87607   8400791.25147  23704865.86847     -3569.87600
  -7601094.55507  23319432.32107  -5923999.76848  23319428.47048       985.19100
   -880040.82401  25969230.64901   -685594.01445  25969227.78645      1876.87500
 08 11 10  1 38 30.0050000  0 10  3  6  7 13 16 19 21 23 25 27
   -553100.18407  21162365.09507   -429556.43948  21162361.71248     -1388.73200
   5097776.64807  21827059.47007   3969355.49948  21827056.41548     -2311.44300
  -3909606.14806  24547384.12606  -3046717.29847  24547381.56047      1935.72900
   1997181.82807  23591158.29007   1555700.32947  23591154.32947     -2116.69600
  13117250.36707  23126142.14207  10208084.06948  23126138.22448     -2953.08200
  -9064312.68006  22306702.79006  -7057167.19348  22306697.26348       670.31500
    253668.44504  25666220.00904         0.00000         0.00000     -2724.02300
  10842066.19107  23715078.68807   8442590.03347  23715073.34947     -3576.11800
  -7615791.62507  23316635.80607  -5935452.03048  23316632.18548       979.80500
   -908178.93402  25963877.10202   -707519.87646  25963873.25946      1875.87400
 08 11 10  1 38 45.0050000  0 10  3  6  7 13 16 19 21 23 25 27
   -532144.32807  21166352.55607   -413227.18948  21166349.21248     -1397.05700
   5132547.73007  21833676.21207   3996449.85648  21833673.14948     -2318.07200
  -3938597.98806  24541867.22006  -3069308.33847  24541863.97747      1932.78900
   2029077.26607  23597228.12607   1580553.88947  23597224.02047     -2126.36300
  13161583.41807  23134579.11007  10242629.27848  23134575.06748     -2955.53700
  -9074255.18807  22304810.85207  -7064914.58348  22304805.59148       662.83400
    294640.05904  25674016.56304         0.00000         0.00000     -2731.44100
  10895805.88707  23725304.97707   8484465.11747  23725300.22447     -3582.64600
  -7630407.60907  23313854.21207  -5946841.09548  23313850.57548       974.39900
   -936302.56303  25958525.24303   -729434.33245  25958520.98545      1874.90900
 08 11 10  1 39  0.0050000  0 10  3  6  7 13 16 19 21 23 25 27
   -511065.53107  21170363.94607   -396802.15948  21170360.54848     -1405.25300
   5167416.48007  21840311.50107   4023620.31048  21840308.21648     -2324.58300
  -3967547.12106  24536358.86006  -3091866.08047  24536355.29047      1929.94200
   2061115.86307  23603324.57907   1605519.02347  23603320.89247     -2135.90700
  13205951.50007  23143021.96207  10277201.79648  23143017.91148     -2957.87200
  -9084087.07007  22302939.47007  -7072575.77848  22302934.71248       655.45900
    335721.02304  25681833.92304         0.00000         0.00000     -2738.73100
  10949641.46507  23735549.80607   8526414.91348  23735544.72748     -3589.03900
  -7644943.91007  23311087.82907  -5958168.08248  23311084.45848       969.08700
   -964413.21503  25953175.86803   -751338.65145  25953171.78245      1874.04300
 08 11 10  1 39 15.0050000  0 10  3  6  7 13 16 19 21 23 25 27
   -489862.62507  21174398.43107   -380280.41048  21174395.34548     -1413.52700
   5202383.83207  21846965.76707   4050867.60548  21846962.11448     -2331.15700
  -3996451.90206  24530857.99306  -3114389.28247  24530854.55647      1926.98500
   2093298.51207  23609448.82107   1630596.39947  23609445.23147     -2145.51000
  13250355.80107  23151471.45407  10311802.56348  23151467.15748     -2960.28700
  -9093806.94907  22301089.65707  -7080149.70748  22301085.03648       647.99200
    376912.53904  25689671.86804         0.00000         0.00000     -2746.10100
  11003573.81607  23745812.88407   8568440.10747  23745807.72447     -3595.49000
  -7659398.92607  23308337.02407  -5969431.73648  23308333.95048       963.66800
   -992509.40602  25947829.18802   -773231.85345  25947825.52845      1873.07900
 08 11 10  1 39 30.0050000  0 10  3  6  7 13 16 19 21 23 25 27
   -468535.27707  21178457.06307   -363661.70748  21178453.50948     -1421.82300
   5237449.95707  21853638.29807   4078191.85648  21853635.25148     -2337.74200
  -4025311.87106  24525366.00106  -3136877.55347  24525362.56347      1923.99800
   2125625.28907  23615600.29007   1655786.07547  23615596.93847     -2155.11800
  13294796.60207  23159928.25907  10346431.73248  23159924.13048     -2962.72000
  -9103414.46506  22299261.63406  -7087636.07148  22299256.54048       640.50100
    418214.73803  25697532.00903         0.00000         0.00000     -2753.48000
  11057602.75407  23756094.29007   8610540.56847  23756088.97447     -3601.92900
  -7673772.13307  23305602.00907  -5980631.64248  23305598.31348       958.21400
  -1020590.48003  25942485.91503   -795113.23645  25942482.15745      1872.07200
 08 11 10  1 39 45.0050000  0 10  3  6  7 13 16 19 21 23 25 27
   -447083.78907  21182539.07107   -346946.24648  21182535.64248     -1430.09900
   5272614.39107  21860329.86007   4105592.71548  21860326.58748     -2344.29600
  -4054126.93806  24519882.97706  -3159330.82447  24519879.37247      1921.00400
   2158095.86307  23621779.14207   1681087.82747  23621775.86447     -2164.70500
  13339273.70307  23168391.78207  10381089.20448  23168388.31348     -2965.14000
  -9112909.94906  22297454.68806  -7095035.14648  22297449.75148       633.03200
    459627.17204  25705412.50104         0.00000         0.00000     -2760.82900
  11111727.69507  23766393.72007   8652715.85047  23766388.70047     -3608.32900
  -7688063.45307  23302882.63407  -5991767.72248  23302879.00548       952.75500
  -1048656.51604  25937145.01704   -816982.82945  25937141.09945      1871.06900
 08 11 10  1 40  0.0050000  0 10  3  6  7 13 16 19 21 23 25 27
   -425510.97707  21186644.36007   -330136.27048  21186640.94648     -1438.18800
   5307874.34807  21867039.66507   4133068.01048  21867036.44648     -2350.66400
  -4082899.21506  24514407.46206  -3181750.78647  24514404.51747      1918.15200
   2190707.55106  23627984.89206   1706499.53447  23627981.26747     -2174.11300
  13383784.54307  23176862.00907  10415772.97448  23176857.86848     -2967.38900
  -9122295.46107  22295669.25907  -7102348.52848  22295663.65348       625.70100
    501147.27004  25713313.58704         0.00000         0.00000     -2768.00700
  11165945.77307  23776710.53207   8694963.69847  23776706.07947     -3614.53900
  -7702275.16807  23300178.16507  -6002841.79448  23300174.89548       947.44800
  -1076709.71103  25931806.11003   -838842.45545  25931803.12245      1870.21300
 08 11 10  1 40 15.0050000  0 10  3  6  7 13 16 19 21 23 25 27
   -403817.32007  21190772.57907   -313232.12048  21190769.28248     -1446.24400
   5343229.51607  21873767.47707   4160617.49248  21873764.36448     -2357.01100
  -4111628.61305  24508940.19605  -3204137.33147  24508937.35647      1915.29300
   2223459.96906  23634217.10206   1732020.89647  23634214.29847     -2183.49500
  13428329.06307  23185338.79007  10450482.99448  23185334.56748     -2969.63500
  -9131571.22307  22293904.14907  -7109576.36848  22293898.58748       618.38400
    542774.77304  25721235.08704         0.00000         0.00000     -2775.16700
  11220256.39807  23787045.47007   8737283.65647  23787041.10647     -3620.70800
  -7716407.11707  23297489.00107  -6013853.70148  23297485.75148       942.13000
  -1104750.09803  25926470.65703   -860692.08146  25926467.37246      1869.35900
 08 11 10  1 40 30.0050000  0 10  3  6  7 13 16 19 21 23 25 27
   -382002.09407  21194923.69607   -296233.24748  21194920.42348     -1454.34800
   5378680.41407  21880513.60207   4188241.56748  21880510.36048     -2363.39300
  -4140314.21506  24503481.70406  -3226489.70747  24503478.88047      1912.37300
   2256353.68407  23640476.99307   1757652.35147  23640473.76747     -2192.91400
  13472908.06307  23193821.58707  10485219.86348  23193817.94248     -2971.93300
  -9140736.27007  22292159.73507  -7116717.96848  22292154.51748       611.00300
    584510.19904  25729177.04004         0.00000         0.00000     -2782.36200
  11274660.05507  23797398.18107   8779676.10047  23797393.26347     -3626.91000
  -7730458.25407  23294814.93807  -6024802.63048  23294811.70048       936.74200
  -1132776.51204  25921136.69604   -882530.83146  25921133.56046      1868.42800
 08 11 10  1 40 45.0050000  0 10  3  6  7 13 16 19 21 23 25 27
   -360064.71107  21199098.07107   -279139.17248  21199095.17748     -1462.49200
   5414227.41806  21887277.85206   4215940.53248  21887274.89548     -2369.80000
  -4168954.94106  24498031.57906  -3248807.14347  24498028.83347      1909.38200
   2289388.98407  23646763.79007   1783394.13647  23646760.04447     -2202.35300
  13517521.74607  23202311.79007  10519983.76448  23202307.52448     -2974.24600
  -9149790.21506  22290436.85206  -7123772.96448  22290431.68148       603.59600
    626353.97703  25737138.56303         0.00000         0.00000     -2789.58500
  11329156.72707  23807768.79007   8822141.03247  23807763.33347     -3633.11100
  -7744427.78107  23292156.82907  -6035687.96448  23292153.84148       931.30200
  -1160788.35205  25915807.45405   -904358.19746  25915803.24746      1867.45600
 08 11 10  1 41  0.0050000  0 10  3  6  7 13 16 19 21 23 25 27
   -338005.14807  21203295.83707   -261949.91348  21203292.75948     -1470.63800
   5449870.54307  21894060.80607   4243714.39048  21894057.32148     -2376.20800
  -4197550.16006  24492589.36006  -3271089.12747  24492586.95447      1906.34800
   2322565.96106  23653077.00106   1809246.33247  23653073.11847     -2211.79800
  13562170.53907  23210808.00907  10554775.01248  23210803.14548     -2976.58600
  -9158732.64807  22288734.82907  -7130741.08948  22288730.13048       596.16200
    668306.31604  25745121.83704         0.00000         0.00000     -2796.82300
  11383746.27707  23818157.00107   8864678.31847  23818151.61447     -3639.30300
  -7758315.15607  23289514.00907  -6046509.30648  23289511.08748       925.82500
  -1188784.98005  25910478.79005   -926173.74546  25910475.57146      1866.44200
 08 11 10  1 41 15.0050000  0 10  3  6  7 13 16 19 21 23 25 27
   -315824.46107  21207517.03207   -244666.24648  21207513.66548     -1478.71300
   5485608.57407  21900861.16507   4271562.21048  21900858.49348     -2382.53500
  -4226100.62506  24487156.90706  -3293336.23147  24487153.77847      1903.36400
   2355883.46906  23659416.82906   1835207.99747  23659412.95847     -2221.16700
  13606853.65607  23219310.96207  10589593.02647  23219305.47447     -2978.87400
  -9167564.41007  22287054.41507  -7137622.95948  22287049.57548       588.78400
    710365.92204  25753126.22004   5486879.54755  25753123.36045     -2803.97400
  11438427.54707  23828562.37607   8907287.06547  23828557.21247     -3645.41800
  -7772120.96907  23286886.94607  -6057267.07848  23286883.42748       920.38800
  -1216767.18405  25905154.02405   -947978.02546  25905150.98546      1865.48000
 08 11 10  1 41 30.0050000  0 10  3  6  7 13 16 19 21 23 25 27
   -293522.33207  21211761.29007   -227287.96648  21211757.67348     -1486.80900
   5521442.13707  21907680.18107   4299484.46248  21907676.58748     -2388.90400
  -4254605.34806  24481732.61006  -3315547.69047  24481729.43847      1900.31500
   2389341.94507  23665784.62607   1861279.52347  23665780.09147     -2230.56500
  13651571.65607  23227820.57907  10624438.20048  23227815.88048     -2981.20000
  -9176284.61306  22285394.70406  -7144417.93048  22285390.02848       581.34700
    752533.36304  25761150.22004   5519737.29745  25761147.49745     -2811.16300
  11493200.74207  23838985.61007   8949967.48247  23838980.28247     -3651.54600
  -7785844.40207  23284275.47707  -6067960.66148  23284271.88048       914.89600
  -1244734.01205  25899832.73505   -969770.40546  25899829.32146      1864.45500
 08 11 10  1 41 45.0050000  0 10  3  6  7 13 16 19 21 23 25 27
   -271100.38307  21216027.70407   -209816.31048  21216024.43148     -1494.79700
   5557369.21507  21914516.60207   4327479.59548  21914513.69648     -2395.13900
  -4283065.76206  24476317.20406  -3337724.63647  24476313.93547      1897.36100
   2422939.41006  23672177.84506   1887459.36347  23672173.91947     -2239.83100
  13696322.78107  23236336.11807  10659309.19448  23236332.03648     -2983.40800
  -9184894.93006  22283756.78206  -7151127.25248  22283751.31348       574.02100
    794806.85504  25769194.50104   5552677.64145  25769191.11845     -2818.23300
  11548063.80907  23849425.54807   8992717.88947  23849420.63047     -3657.53800
  -7799486.70707  23281679.57107  -6078591.03648  23281676.00148       909.48700
  -1272686.85505  25894512.83705   -991551.80246  25894510.17746      1863.52300
 08 11 10  1 42  0.0050000  0 10  3  6  7 13 16 19 21 23 25 27
   -248557.81307  21220317.47007   -192250.67148  21220314.61048     -1502.83800
   5593390.81607  21921371.57107   4355548.35348  21921368.43548     -2401.44000
  -4311480.40606  24470909.40706  -3359865.90147  24470906.94647      1894.31000
   2456676.90207  23678597.35207   1913748.29147  23678594.03647     -2249.16600
  13741108.19907  23244858.75907  10694206.92248  23244854.25148     -2985.69500
  -9193394.25407  22282139.39907  -7157750.10248  22282134.05648       566.62200
    837187.34003  25777259.95403   5585701.34045  25777254.91945     -2825.36600
  11603017.45707  23859882.61807   9035538.92647  23859877.73947     -3663.57700
  -7813046.62507  23279099.20407  -6089157.19148  23279095.01748       903.99500
  -1300624.39805  25889196.75105  -1013321.29946  25889194.04446      1862.50300
 08 11 10  1 42 15.0050000  0 10  3  6  7 13 16 19 21 23 25 27
   -225894.18807  21224630.05607   -174590.69148  21224626.85248     -1510.90800
   5629507.17207  21928244.21207   4383690.98048  21928240.79048     -2407.75700
  -4339848.40606  24465511.84506  -3381970.80747  24465508.86447      1891.20000
   2490554.70706  23685043.98506   1940146.58347  23685041.29047     -2258.52000
  13785928.24207  23253387.48507  10729131.62048  23253383.39948     -2988.00300
  -9201781.77307  22280543.31307  -7164285.82148  22280537.64948       559.16800
    879675.25804  25785345.12604   5618808.86345  25785340.15745     -2832.52800
  11658061.91806  23870357.28206   9078430.71047  23870352.37647     -3669.63100
  -7826523.26607  23276534.53207  -6099658.46548  23276530.75548       898.44300
  -1328545.78104  25883883.61004  -1035078.21346  25883880.94246      1861.42600
