     2              OBSERVATION DATA                        RINEX VERSION / TYPE
DAT2RINW 3.10 001   .                   04NOV08 23:03:34    PGM / RUN BY / DATE 
.                   .                                       OBSERVER / AGENCY   
0220363320          TRIMBLE 5700        Nav 2.23 Sig 2.23   REC # / TYPE / VERS 
0                   TRM39105.00     NONE                    ANT # / TYPE        
----------------------------------------------------------- COMMENT             
Offset from BOTTOM OF ANTENNA to PHASE CENTER is  46.0 mm   COMMENT             
----------------------------------------------------------- COMMENT             
0171                                                        MARKER NAME
0171                                                        MARKER NUMBER       
 -3108107.4329  3988759.8738  3874490.7700                  APPROX POSITION XYZ 
        1.3682        0.0000        0.0000                  ANTENNA: DELTA H/E/N
*** Above antenna height is from mark to BOTTOM OF ANTENNA. COMMENT             
----------------------------------------------------------- COMMENT             
Note: The above offsets are CORRECTED.                      COMMENT             
Raw Offsets: H=      1.4100 E=      0.0000 N=      0.0000   COMMENT             
----------------------------------------------------------- COMMENT             
     1     1     0                                          WAVELENGTH FACT L1/2
     5    L1    C1    L2    P2    D1                        # / TYPES OF OBSERV 
    15                                                      INTERVAL            
  2008    11     4     0    30    0.000000                  TIME OF FIRST OBS   
  2008    11     4     8    40    0.000000                  TIME OF LAST OBS    
    19                                                      # OF SATELLITES     
     3  1228  1228  1228  1228  1228                        PRN / # OF OBS      
     4   435   435   435   435   435                        PRN / # OF OBS      
     6  1080  1080  1080  1080  1080                        PRN / # OF OBS      
     7  1112  1112  1112  1112  1112                        PRN / # OF OBS      
     8   948   948   948   948   948                        PRN / # OF OBS      
    11  1407  1407  1407  1407  1407                        PRN / # OF OBS      
    13   789   789   788   788   789                        PRN / # OF OBS      
    16   844   852   810   810   844                        PRN / # OF OBS      
    17   773   773   773   773   773                        PRN / # OF OBS      
    19  1498  1499  1496  1496  1498                        PRN / # OF OBS      
    20   841   841   841   841   841                        PRN / # OF OBS      
    21   518   518   518   518   518                        PRN / # OF OBS      
    23   791   791   777   777   791                        PRN / # OF OBS      
    25  1178  1178  1178  1178  1178                        PRN / # OF OBS      
    27  1062  1062  1062  1062  1062                        PRN / # OF OBS      
    28  1033  1033  1033  1033  1033                        PRN / # OF OBS      
    29    40    40    40    40    40                        PRN / # OF OBS      
    31   422   422   422   422   422                        PRN / # OF OBS      
    32   915   915   915   915   915                        PRN / # OF OBS      
                                                            END OF HEADER       
 08 11  4  0 30  0.0000000  0  7  3  6 13 16 21 23 31
  -3303837.34407  21387442.64107  -2555760.20348  21387440.31348      3340.70600
  -2402185.03507  20886372.55507  -1855826.31349  20886371.43849      2331.96800
  -2988418.18006  23250604.30506  -2311862.62147  23250602.04747      2983.26900
    -29702.53507  20435853.93807    -23425.82849  20435850.45749      -119.31600
  -1720507.72304  24133815.40604  -1339602.13346  24133811.45346      1688.55100
  -1662626.65607  21615992.11707  -1284007.49248  21615987.26648      1465.86000
   1180692.18407  21532880.67207    911821.47349  21532877.76649     -1445.33000
 08 11  4  0 30 15.0000000  0  7  3  6 13 16 21 23 31
  -3353860.26607  21377923.78907  -2594739.10248  21377921.84048      3334.86100
  -2437057.10507  20879736.35207  -1882999.34449  20879735.79349      2324.80500
  -3033066.21106  23242108.00006  -2346653.28547  23242105.07847      2976.53500
    -27854.27707  20436206.32807    -21985.63749  20436202.71549      -123.21700
  -1745756.88305  24129010.93005  -1359276.78546  24129008.10546      1683.27700
  -1684470.50407  21611835.58607  -1301028.68048  21611831.06348      1456.25700
   1202448.28507  21537020.39807    928774.27348  21537017.64548     -1450.40700
 08 11  4  0 30 30.0000000  0  7  3  6 13 16 21 23 31
  -3403792.82007  21368421.93807  -2633647.58648  21368420.31648      3328.83700
  -2471819.48407  20873121.57007  -1910086.90249  20873120.44549      2317.49200
  -3077610.71506  23233631.25806  -2381363.28947  23233628.79347      2969.63400
    -25945.50808  20436569.46908    -20498.28149  20436565.85249      -127.25100
  -1770924.59404  24124220.82004  -1378887.94146  24124218.94946      1677.84700
  -1706168.27707  21607706.28107  -1317936.03148  21607701.78548      1446.51800
   1224282.60907  21541175.44507    945788.02748  21541172.25448     -1455.62200
 08 11  4  0 30 45.0000000  0  7  3  6 13 16 21 23 31
  -3453634.34807  21358937.68007  -2672485.13348  21358935.91048      3322.76800
  -2506471.44907  20866527.70307  -1937088.43449  20866526.21949      2310.13100
  -3122050.69106  23225174.77306  -2415991.84447  23225172.38347      2962.66500
    -23975.78907  20436944.16407    -18963.44549  20436940.59449      -131.31500
  -1796010.04705  24119448.60905  -1398435.05146  24119445.25846      1672.36400
  -1727718.99607  21603605.50807  -1334728.79748  21603601.50048      1436.71500
   1246195.68007  21545345.13307    962863.14548  21545341.93448     -1460.87100
 08 11  4  0 31  0.0000000  0  7  3  6 13 16 21 23 31
  -3503385.36707  21349470.07807  -2711252.15648  21349468.21548      3316.73500
  -2541013.75007  20859954.07807  -1964004.52049  20859952.71149      2302.82000
  -3166386.98806  23216738.06306  -2450539.59847  23216736.05547      2955.75300
    -21946.20307  20437330.09407    -17381.94549  20437326.93049      -135.30600
  -1821013.93405  24114689.39105  -1417918.58246  24114687.07446      1666.92600
  -1749123.49607  21599532.45307  -1351407.63748  21599528.33648      1426.96700
   1268186.66007  21549530.06307    979998.96948  21549527.34448     -1466.06500
 08 11  4  0 31 15.0000000  0  7  3  6 13 16 21 23 31
  -3553047.02007  21340019.98407  -2749949.55148  21340018.15248      3310.77700
  -2575447.42207  20853401.87507  -1990835.93849  20853400.39149      2295.57800
  -3210620.43406  23208320.40606  -2485007.22347  23208318.32447      2948.89600
    -19858.05107  20437727.60207    -15754.81649  20437724.02349      -139.21000
  -1845937.01205  24109946.70305  -1437339.19546  24109942.94146      1661.53900
  -1770382.92207  21595487.07807  -1367973.42248  21595482.85948      1417.29500
   1290254.20707  21553729.47707    997194.45748  21553726.51648     -1471.17000
 08 11  4  0 31 30.0000000  0  7  3  6 13 16 21 23 31
  -3602615.16807  21330587.18807  -2788574.07848  21330585.33648      3304.54300
  -2609768.59807  20846870.83607  -2017579.71149  20846869.86349      2288.07800
  -3254747.01606  23199923.46106  -2519391.57047  23199921.03547      2941.77200
    -17707.74207  20438136.96907    -14079.24649  20438133.14149      -143.35400
  -1870775.21905  24105220.60905  -1456693.64146  24105216.07846      1655.88000
  -1791493.44507  21591469.96107  -1384423.17648  21591465.63348      1407.36800
   1312402.08207  21557943.54707   1014452.53948  21557940.90648     -1476.52500
 08 11  4  0 31 45.0000000  0  7  3  6 13 16 21 23 31
  -3652094.31307  21321171.60907  -2827129.25848  21321170.06648      3298.61000
  -2643981.73007  20840360.13307  -2044239.28549  20840358.64849      2280.87600
  -3298770.73006  23191545.89106  -2553695.75447  23191543.69947      2934.91400
    -15499.95707  20438557.07007    -12358.89849  20438553.10949      -147.18600
  -1895533.10905  24100509.39105  -1475985.49646  24100505.32446      1650.52600
  -1812459.48007  21587479.94507  -1400760.34448  21587476.10548      1397.73600
   1334625.73807  21562172.89107   1031769.65648  21562170.44148     -1481.57700
 08 11  4  0 32  0.0000000  0  7  3  6 13 16 21 23 31
  -3701482.44107  21311773.36707  -2865613.52048  21311771.62548      3292.54200
  -2678084.94507  20833870.27307  -2070813.22349  20833868.53949      2273.54800
  -3342689.97306  23183188.56306  -2587918.53947  23183186.43847      2927.94900
    -13233.12507  20438987.96907    -10592.53549  20438984.66849      -151.12200
  -1920208.79705  24095814.32005  -1495213.36346  24095810.52746      1645.04600
  -1833279.02707  21583517.79707  -1416983.38348  21583513.80548      1387.97000
   1356926.83207  21566416.69507   1049147.12148  21566413.90648     -1486.74000
 08 11  4  0 32 15.0000000  0  8  3  6 13 16 19 21 23 31
  -3750776.42207  21302393.27307  -2904024.40248  21302391.38748      3286.26500
  -2712075.31607  20827402.43007  -2097299.21949  20827400.84449      2266.02500
  -3386501.21906  23174851.26606  -2622057.15247  23174849.05147      2920.75000
    -10904.61707  20439431.20307     -8778.11349  20439427.96549      -155.23400
   -178478.07415  24121220.17205   -125540.37156  24121214.87546         0.00000
  -1944799.20305  24091133.83605  -1514374.67646  24091131.04346      1639.36000
  -1853949.20707  21579584.54707  -1433090.01648  21579580.81348      1378.01200
   1379307.99207  21570675.75007   1066586.98048  21570673.21148     -1492.07700
 08 11  4  0 32 30.0000000  0  8  3  6 13 16 19 21 23 31
  -3799981.77307  21293029.62507  -2942366.22348  21293028.19548      3280.35700
  -2745958.42607  20820954.88307  -2123701.63749  20820952.97349      2258.87400
  -3430210.19506  23166534.32006  -2656116.06647  23166531.42647      2913.93200
     -8520.25407  20439884.97707     -6920.16849  20439881.80549      -158.95800
   -240521.10906  24109413.82006   -173885.58646  24109408.27346      4136.20200
  -1969309.73805  24086470.60905  -1533473.75846  24086467.12146      1634.03600
  -1874475.70707  21575678.23407  -1449084.69148  21575674.16848      1368.43300
   1401763.50007  21574948.83607   1084084.76248  21574945.84848     -1497.03400
 08 11  4  0 32 45.0000000  0  8  3  6 13 16 19 21 23 31
  -3849093.75807  21283684.11707  -2980635.29348  21283682.55148      3274.13200
  -2779729.60507  20814528.03107  -2150016.84449  20814526.19149      2251.41200
  -3473812.23806  23158237.07806  -2690091.68047  23158234.55147      2906.80300
     -6075.57007  20440350.04707     -5015.21549  20440347.60949      -162.97900
   -302540.82405  24097611.56305   -222212.61746  24097605.87946      4134.64800
  -1993735.56605  24081822.00805  -1552506.85546  24081818.25046      1628.38900
  -1894854.00407  21571800.57807  -1464963.89148  21571796.26648      1358.55300
   1424297.96507  21579237.39807   1101644.07848  21579233.87548     -1502.29800
 08 11  4  0 33  0.0000000  0  8  3  6 13 16 19 21 23 31
  -3898113.27007  21274355.71907  -3018832.30548  21274354.37148      3267.96700
  -2813389.95707  20808122.90607  -2176245.68449  20808120.69149      2244.02300
  -3517308.21506  23149960.14806  -2723984.64147  23149957.34447      2899.73200
     -3572.09807  20440826.67207     -3064.46549  20440823.45749      -166.89800
   -364538.42206  24085813.89806   -270522.44946  24085808.46946      4133.17300
  -2018077.87105  24077189.50005  -1571474.89546  24077186.57446      1622.82000
  -1915085.27007  21567950.78107  -1480728.51648  21567946.18048      1348.75100
   1446909.85907  21583540.16407   1119263.72748  21583537.07048     -1507.46000
 08 11  4  0 33 15.0000000  0  8  3  6 13 16 19 21 23 31
  -3947039.93807  21265045.46107  -3056956.98848  21265043.53548      3261.77800
  -2846939.04307  20801738.26607  -2202387.81349  20801736.59849      2236.60600
  -3560697.34806  23141702.91406  -2757794.34847  23141700.32447      2892.60900
     -1009.58207  20441314.64107     -1067.71549  20441311.08649      -170.83400
   -426512.96106  24074020.91406   -318814.26647  24074014.98447      4131.63600
  -2042335.77705  24072573.56305  -1590377.13746  24072571.02046      1617.19400
  -1935168.83607  21564128.93007  -1496378.03548  21564124.50048      1338.90400
   1469599.86707  21587857.85207   1136944.24648  21587854.59048     -1512.66700
 08 11  4  0 33 30.0000000  0  8  3  6 13 16 19 21 23 31
  -3995874.37507  21255752.70307  -3095009.78548  21255750.61748      3255.62900
  -2880377.76207  20795375.21107  -2228443.96549  20795373.45349      2229.24800
  -3603980.19506  23133466.73406  -2791521.24647  23133464.10247      2885.52300
      1610.76207  20441812.91407       974.11349  20441809.26649      -174.69000
   -488465.31306  24062231.43006   -367088.82447  24062226.85247      4130.15700
  -2066510.30905  24067973.11705  -1609214.43046  24067971.00046      1611.63500
  -1955105.65607  21560335.19507  -1511913.20748  21560330.50448      1329.12100
   1492366.80107  21592190.32807   1154684.69948  21592186.72748     -1517.79600
 08 11  4  0 33 45.0000000  0  8  3  6 13 16 19 21 23 31
  -4044615.96907  21246477.58607  -3132990.25448  21246475.80948      3249.44000
  -2913705.11707  20789033.35207  -2254413.33649  20789031.65649      2221.82400
  -3647155.81606  23125250.64806  -2825164.57847  23125248.06647      2878.37500
      4289.60907  20442322.94507      3061.52349  20442319.34849      -178.59000
   -550394.39106  24050446.82006   -415345.25047  24050442.50447      4128.60500
  -2090600.21106  24063389.18006  -1627985.77346  24063386.60246      1605.99300
  -1974894.80107  21556569.46107  -1527333.32048  21556564.50048      1319.27600
   1515211.33607  21596537.34407   1172485.62948  21596534.15648     -1522.96900
 08 11  4  0 34  0.0000000  0  8  3  6 13 16 19 21 23 31
  -4093263.38307  21237219.75807  -3170897.33648  21237218.89148      3243.16100
  -2946920.37107  20782712.47707  -2280295.34448  20782711.14148      2214.35000
  -3690223.11706  23117055.08606  -2858723.50047  23117052.77347      2871.15300
      7027.75807  20442843.91407      5195.14149  20442840.52049      -182.54300
   -612299.21106  24038666.72706   -463582.75447  24038662.45347      4126.98800
  -2114604.64105  24058821.71905  -1646690.52046  24058818.65646      1600.29500
  -1994535.44507  21552832.19507  -1542637.71548  21552827.45348      1309.37600
   1538134.19507  21600899.60907   1190347.58248  21600896.44148     -1528.19100
 08 11  4  0 34 15.0000000  0  8  3  6 13 16 19 21 23 31
  -4141814.20306  21227980.85906  -3208729.13748  21227979.80148      3236.72100
  -2980021.13307  20776413.72707  -2306088.14848  20776411.84848      2206.71700
  -3733179.58606  23108880.74206  -2892196.07447  23108877.90247      2863.76500
      9827.07407  20443376.63307      7376.42649  20443372.91849      -186.62100
   -674177.52006  24026891.78106   -511799.60947  24026888.26647      4125.22100
  -2138521.52306  24054269.96906  -1665327.03546  24054268.09046      1594.45900
  -2014025.33207  21549123.07007  -1557824.64548  21549118.70748      1299.32600
   1561137.52707  21605277.19507   1208272.25848  21605273.55548     -1533.55500
 08 11  4  0 34 30.0000000  0  8  3  6 13 16 19 21 23 31
  -4190269.22707  21218759.96907  -3246486.28948  21218758.91448      3230.33500
  -3013008.16807  20770136.56307  -2331792.33248  20770134.28548      2199.13600
  -3776025.88306  23100727.74206  -2925582.78947  23100724.68847      2856.42000
     12686.66407  20443920.64807      9604.67649  20443917.10549      -190.63900
   -736029.76606  24015121.74206   -559996.15647  24015117.87547      4123.48300
  -2162351.26606  24049735.64106  -1683895.66846  24049732.77046      1588.64900
  -2033365.18007  21545442.84407  -1572894.65248  21545438.21948      1289.32300
   1584220.35207  21609669.67207   1226258.86749  21609666.61749     -1538.85500
 08 11  4  0 34 45.0000000  0  8  3  6 13 16 19 21 23 31
  -4238627.65607  21209557.87507  -3284168.18448  21209556.29348      3223.89500
  -3045880.88307  20763881.11707  -2357407.43848  20763878.47348      2191.51400
  -3818761.22306  23092595.50006  -2958883.05947  23092592.15247      2849.02300
     15606.65207  20444476.75807     11879.98849  20444473.13749      -194.66600
   -797855.05906  24003357.25806   -608171.69147  24003353.46547      4121.68600
  -2186093.09006  24045217.40606  -1702395.78546  24045214.52346      1582.78800
  -2052554.43807  21541790.92207  -1587847.32448  21541786.61348      1279.28400
   1607383.00407  21614077.06307   1244307.68848  21614074.62948     -1544.17700
 08 11  4  0 35  0.0000000  0  8  3  6 13 16 19 21 23 31
  -4286890.51207  21200373.56307  -3321775.60548  21200372.48048      3217.52400
  -3078640.47307  20757647.18007  -2382934.38749  20757645.28549      2183.97300
  -3861386.74206  23084483.83606  -2992097.73847  23084480.80547      2841.70100
     18585.66007  20445043.06307     14201.29349  20445039.53549      -198.60100
   -859654.62105  23991596.78905   -656327.19147  23991592.76647      4119.97100
  -2209748.11306  24040716.28906  -1720828.30146  24040712.80946      1577.00200
  -2071594.31607  21538167.92207  -1602683.59848  21538163.98848      1269.32500
   1630624.17607  21618499.69507   1262417.68048  21618497.13348     -1549.41100
 08 11  4  0 35 15.0000000  0  8  3  6 13 16 19 21 23 31
  -4335058.17207  21191207.73407  -3359308.84848  21191206.57848      3211.17700
  -3111287.69507  20751434.74207  -2408373.77748  20751432.85248      2176.48200
  -3903902.77706  23076393.39806  -3025227.10547  23076390.58647      2834.40200
     21622.86307  20445621.10207     16567.94149  20445617.98449      -202.48000
   -921428.95306  23979841.39806   -704463.00047  23979837.82047      4118.28900
  -2233316.88706  24036231.18806  -1739193.56646  24036228.37546      1571.25200
  -2090485.58606  21534572.82006  -1617404.07448  21534568.59848      1259.41800
   1653943.18007  21622937.32807   1280588.32848  21622934.97348     -1554.60000
 08 11  4  0 35 30.0000000  0  8  3  6 13 16 19 21 23 31
  -4383129.55906  21182059.86706  -3396767.06648  21182059.41848      3204.75900
  -3143820.95707  20745244.04707  -2433724.37148  20745241.62548      2168.88400
  -3946307.78106  23068324.18006  -3058269.97747  23068321.41847      2827.00000
     24719.42207  20446210.39107     18980.83649  20446207.44949      -206.43700
   -983176.45305  23968091.44505   -752577.93047  23968087.59447      4116.50000
  -2256797.93006  24031762.82806  -1757490.47346  24031760.18046      1565.40300
  -2109226.84807  21531006.64107  -1632007.66048  21531002.54348      1249.41700
   1677341.24607  21627389.88307   1298820.58248  21627387.49248     -1559.87100
 08 11  4  0 35 45.0000000  0  8  3  6 13 16 19 21 23 31
  -4431107.80107  21172929.96107  -3434152.69548  21172929.02048      3198.54900
  -3176243.74607  20739074.02307  -2458988.87948  20739071.81648      2161.51900
  -3988604.94106  23060274.61706  -3091228.80547  23060272.09847      2819.81100
     27871.60507  20446810.35207     21437.07849  20446807.35549      -210.14600
  -1044900.32005  23956345.21905   -800674.43046  23956342.11346      4114.92400
  -2280194.48406  24027310.26606  -1775721.55147  24027307.44147      1559.77000
  -2127821.38307  21527468.43807  -1646496.90648  21527463.93048      1239.63600
   1700814.58607  21631856.70307   1317111.48449  21631854.60949     -1564.88900
 08 11  4  0 36  0.0000000  0  8  3  6 13 16 19 21 23 31
  -4478985.48407  21163819.53907  -3471459.97348  21163818.05548      3191.84600
  -3208549.02007  20732927.03107  -2484161.81649  20732924.77349      2153.68500
  -4030787.05906  23052248.08606  -3124097.97747  23052244.93447      2812.14100
     31086.22307  20447421.83607     23941.96949  20447418.94549      -214.30800
  -1106593.53503  23944605.08603   -848747.03546  23944601.87146      4112.88100
  -2303499.37506  24022875.51606  -1793881.21146  24022873.08246      1553.65900
  -2146262.23407  21523959.20307  -1660866.40248  21523954.46148      1229.39000
   1724370.28907  21636338.96107   1335466.57048  21636336.42648     -1570.38000
 08 11  4  0 36 15.0000000  0  8  3  6 13 16 19 21 23 31
  -4526763.50407  21154727.60907  -3508689.59448  21154725.53948      3185.20100
  -3240737.47307  20726801.27307  -2509243.71949  20726799.39849      2145.89700
  -4072854.81306  23044242.36706  -3156878.04747  23044239.57847      2804.51700
     34362.34007  20448045.71107     26494.78549  20448042.45749      -218.40800
  -1168256.37504  23932870.93004   -896795.98446  23932867.30146      4110.85600
  -2326713.32406  24018458.46106  -1811970.01246  24018455.48446      1547.59700
  -2164550.16007  21520479.20307  -1675116.74248  21520474.66848      1219.19500
   1748007.40607  21640837.10207   1353885.09449  21640835.07049     -1575.80800
 08 11  4  0 36 30.0000000  0  8  3  6 13 16 19 21 23 31
  -4574442.95707  21145654.68807  -3545842.41448  21145652.66448      3178.63000
  -3272810.19907  20720698.43807  -2534235.45749  20720696.22349      2138.18200
  -4114808.91006  23036258.83606  -3189569.53947  23036256.01647      2796.94000
     37698.56607  20448680.55507     29094.44549  20448677.19149      -222.41500
  -1229889.82805  23921142.06305   -944822.01646  23921139.21946      4108.89700
  -2349837.24606  24014057.58606  -1829988.64846  24014055.75846      1541.59500
  -2182686.24607  21517027.79707  -1689248.75848  21517022.57848      1209.07200
   1771724.78907  21645350.66407   1372366.15649  21645348.89549     -1581.15900
 08 11  4  0 36 45.0000000  0  8  3  6 13 16 19 21 23 31
  -4622025.94107  21136599.79707  -3582920.06348  21136597.83248      3172.19900
  -3304769.71107  20714616.35207  -2559138.96149  20714614.54349      2130.63400
  -4156651.73006  23028296.74206  -3222174.34047  23028293.81647      2789.52100
     41092.25807  20449326.26607     31738.87549  20449322.89549      -226.24600
  -1291496.27705  23909419.52305   -992827.01647  23909415.14147      4107.09700
  -2372873.40606  24009674.74206  -1847938.89846  24009671.84446      1535.74400
  -2200673.00807  21513604.98407  -1703264.41448  21513599.80148      1199.11700
   1795519.82407  21649878.56307   1390907.71948  21649876.27348     -1586.33600
 08 11  4  0 37  0.0000000  0  8  3  6 13 16 19 21 23 31
  -4669510.85507  21127563.57807  -3619921.27748  21127561.89148      3165.66100
  -3336614.33207  20708556.75007  -2583952.94949  20708554.78949      2122.97500
  -4198381.53106  23020356.36706  -3254691.05947  23020353.35947      2781.98700
     44544.68807  20449983.42207     34429.07049  20449980.30949      -230.16200
  -1353074.01205  23897702.46105  -1040809.65647  23897698.09847      4105.18200
  -2395820.32806  24005307.48406  -1865819.60546  24005305.13746      1529.79500
  -2218508.99207  21510211.05507  -1717162.58648  21510206.07448      1189.06600
   1819393.78907  21654421.66407   1409510.79748  21654419.39848     -1591.59800
 08 11  4  0 37 15.0000000  0  8  3  6 13 16 19 21 23 31
  -4716895.63707  21118546.75007  -3656844.47748  21118545.17648      3158.98500
  -3368342.33607  20702518.90607  -2608676.07049  20702517.51249      2115.20000
  -4239996.24606  23012436.37506  -3287118.10247  23012434.21947      2774.31400
     48057.41007  20450651.59407     37166.25449  20450648.55949      -234.18200
  -1414621.08205  23885990.01605  -1088768.37947  23885986.35247      4103.13800
  -2418675.89806  24000958.31306  -1883629.13346  24000955.52346      1523.70500
  -2236192.20307  21506846.15607  -1730941.71148  21506840.92248      1178.88100
   1843348.31607  21658980.08607   1428176.64848  21658977.62948     -1596.96800
 08 11  4  0 37 30.0000000  0  8  3  6 13 16 19 21 23 31
  -4764180.78906  21109548.19506  -3693690.04348  21109546.36348      3152.34300
  -3399954.01207  20696503.20307  -2633308.53949  20696501.73849      2107.44500
  -4281496.21906  23004539.72706  -3319455.75047  23004537.02047      2766.66500
     51629.73007  20451331.47707     39949.87549  20451327.78949      -238.15500
  -1476137.59005  23874284.60205  -1136703.29747  23874280.18847      4101.10100
  -2441440.37506  23996626.36706  -1901367.68446  23996623.29346      1517.63200
  -2253723.07807  21503510.62507  -1744602.13348  21503504.98848      1168.72500
   1867382.98807  21663553.90607   1446904.95748  21663550.71148     -1602.31100
 08 11  4  0 37 45.0000000  0  8  3  6 13 16 19 21 23 31
  -4811366.21907  21100569.40607  -3730457.91448  21100567.76248      3145.69500
  -3431449.68007  20690509.86707  -2657850.61749  20690508.69149      2099.71100
  -4322881.59006  22996664.80506  -3351704.06647  22996661.55147      2759.02500
     55261.30107  20452022.64807     42779.66849  20452019.29349      -242.10500
  -1537623.57405  23862583.08605  -1184614.43447  23862579.52747      4099.06600
  -2464113.93806  23992311.68806  -1919035.40246  23992308.51646      1511.57100
  -2271102.02307  21500203.28907  -1758144.16848  21500198.02748      1158.59600
   1891497.34807  21668142.17207   1465695.36348  21668138.94148     -1607.62400
 08 11  4  0 38  0.0000000  0  8  3  6 13 16 19 21 23 31
  -4858453.96107  21091608.70307  -3767149.66048  21091606.91448      3139.18300
  -3462831.33607  20684537.57807  -2682303.84849  20684536.49649      2092.11000
  -4364153.97306  22988810.39106  -3383864.36747  22988807.91047      2751.49200
     58949.76607  20452724.30507     45653.79749  20452721.05149      -245.89800
  -1599081.09005  23850889.00005  -1232503.39147  23850884.43447      4097.16800
  -2486698.60506  23988013.75006  -1936633.82046  23988010.43446      1505.64500
  -2288331.11307  21496925.01607  -1771569.43448  21496919.67248      1148.60600
   1915689.18407  21672745.81307   1484546.12948  21672743.25048     -1612.78900
 08 11  4  0 38 15.0000000  0  8  3  6 13 16 19 21 23 31
  -4905441.87106  21082667.17206  -3803763.60248  21082665.62148      3132.52700
  -3494096.85907  20678588.22707  -2706666.60549  20678586.19949      2084.36800
  -4405311.05506  22980979.07006  -3415934.80547  22980976.24247      2743.80500
     62697.02707  20453437.50007     48573.73449  20453434.55149      -249.81700
  -1660507.76205  23839198.88305  -1280368.30547  23839194.98847      4095.11100
  -2509192.03906  23983733.44506  -1954161.14546  23983730.77346      1499.56200
  -2305408.09807  21493675.20307  -1784876.17648  21493669.63348      1138.46600
   1939960.52307  21677364.37507   1503458.84448  21677361.46148     -1618.08900
 08 11  4  0 38 30.0000000  0  8  3  6 13 16 19 21 23 31
  -4952330.11707  21073744.82807  -3840299.89848  21073742.90248      3125.88300
  -3525246.65207  20672660.53907  -2730939.16848  20672658.82448      2076.65300
  -4446353.14506  22973168.47706  -3447915.64547  22973166.44147      2736.13900
     66502.50007  20454161.94507     51539.03149  20454158.60949      -253.69800
  -1721903.84405  23827516.44505  -1328209.39847  23827511.28147      4093.07200
  -2531594.55106  23979469.82006  -1971617.62946  23979467.53546      1493.50100
  -2322333.46507  21490454.21107  -1798064.77048  21490448.72748      1128.35800
   1964310.72707  21681998.13307   1522433.01248  21681995.34848     -1623.34700
 08 11  4  0 38 45.0000000  0  8  3  6 13 16 19 21 23 31
  -4999117.03507  21064841.62507  -3876757.25048  21064839.27348      3119.12800
  -3556279.19507  20666755.22707  -2755120.36348  20666753.19548      2068.83600
  -4487278.52006  22965380.47706  -3479805.54347  22965378.28547      2728.35800
     70367.50007  20454897.26607     54550.72349  20454894.31349      -257.66700
  -1783267.56605  23815839.42205  -1376025.27747  23815834.06347      4090.91500
  -2553904.50806  23975224.53906  -1989002.00046  23975221.97346      1487.33000
  -2339105.83207  21487262.57807  -1811134.15248  21487256.97348      1118.15800
   1988741.19507  21686647.23407   1541469.72348  21686644.52348     -1628.69800
 08 11  4  0 39  0.0000000  0  8  3  6 13 16 19 21 23 31
  -5045804.37506  21055957.35906  -3913136.99648  21055954.98448      3112.48900
  -3587196.30107  20660872.20307  -2779211.62148  20660869.41448      2061.14000
  -4528088.85506  22957614.67206  -3511605.80147  22957612.59447      2720.68900
     74289.94107  20455643.60207     57607.16849  20455640.62949      -261.49600
  -1844600.55905  23804167.35905  -1423817.19547  23804162.82847      4088.86600
  -2576123.66006  23970996.42206  -2006315.62146  23970993.59446      1481.27700
  -2355726.80507  21484099.33607  -1824085.55948  21484094.46548      1108.06500
   2013250.14107  21691311.20307   1560567.57448  21691308.40648     -1633.93000
 08 11  4  0 39 15.0000000  0  8  3  6 13 16 19 21 23 31
  -5092391.86306  21047091.85206  -3949438.93048  21047090.10948      3105.83300
  -3617997.71507  20655010.93807  -2803212.71948  20655008.10948      2053.42800
  -4568784.03106  22949870.35206  -3543316.32447  22949868.03147      2713.01200
     78269.59807  20456400.78907     60708.20749  20456397.72349      -265.31000
  -1905902.67605  23792502.32805  -1471585.06647  23792497.37147      4086.80800
  -2598251.73406  23966786.03906  -2023558.28546  23966782.67246      1475.20500
  -2372196.34007  21480965.70307  -1836918.96948  21480960.59048      1097.96900
   2037837.24207  21695990.17207   1579726.34448  21695986.89848     -1639.14000
 08 11  4  0 39 30.0000000  0  8  3  6 13 16 19 21 23 31
  -5138874.49607  21038246.55507  -3985659.16448  21038245.60248      3098.84200
  -3648678.76207  20649172.32807  -2827120.02748  20649170.11348      2045.40300
  -4609358.59006  22942149.75806  -3574932.85547  22942146.93847      2704.97100
     82311.14507  20457169.68007     63857.46549  20457166.66849      -269.43600
  -1967168.75805  23780843.72705  -1519324.85947  23780839.32047      4084.40500
  -2620283.70706  23962593.78906  -2040726.07447  23962590.25847      1468.79800
  -2388509.69107  21477861.03107  -1849630.68048  21477856.64848      1087.55700
   2062507.25407  21700684.59407   1598949.71948  21700681.39848     -1644.66700
 08 11  4  0 39 45.0000000  0  8  3  6 13 16 19 21 23 31
  -5185255.28907  21029420.48407  -4021800.04748  21029419.38748      3092.05300
  -3679242.43807  20643356.44507  -2850935.86748  20643354.48048      2037.57800
  -4649815.58206  22934451.03906  -3606457.78147  22934448.17647      2697.13300
     86411.34407  20457949.97707     67052.43449  20457947.02049      -273.34700
  -2028401.77705  23769190.85905  -1567038.88347  23769187.37947      4082.20100
  -2642222.55106  23958418.44506  -2057821.25847  23958415.29747      1462.59000
  -2404670.00406  21474785.96106  -1862223.13748  21474782.02348      1077.35400
   2087257.01607  21705394.34407   1618235.25048  21705391.59848     -1649.98400
 08 11  4  0 40  0.0000000  0  8  3  6 13 16 19 21 23 31
  -5231533.41407  21020613.99207  -4057860.92248  21020612.66448      3085.20800
  -3709687.92207  20637563.21107  -2874659.61349  20637560.98849      2029.69900
  -4690154.01606  22926774.98406  -3637890.32047  22926772.06647      2689.22900
     90570.71907  20458741.41407     70293.50049  20458738.48049      -277.29200
  -2089600.70705  23757545.26605  -1614726.35547  23757541.97347      4079.92900
  -2664067.35906  23954262.19506  -2074843.17647  23954259.37147      1456.32100
  -2420676.34806  21471739.80506  -1874695.62548  21471736.20348      1067.09000
   2112087.19507  21710119.64107   1637583.42648  21710116.51648     -1655.34500
 08 11  4  0 40 15.0000000  0  8  3  6 13 16 19 21 23 31
  -5277710.13706  21011826.96906  -4093842.77748  21011825.15648      3078.44800
  -3740016.72707  20631791.85907  -2898292.44949  20631789.71949      2021.92000
  -4730375.32006  22919120.75006  -3669231.60247  22919118.13747      2681.42000
     94787.56607  20459544.04707     73579.36349  20459540.97349      -281.12300
  -2150766.90605  23745905.75805  -1662388.29347  23745902.38347      4077.74700
  -2685819.56306  23950122.11706  -2091792.94147  23950119.33247      1450.14700
  -2436530.35206  21468722.83606  -1887049.39148  21468719.39548      1056.93400
   2136996.09407  21714859.70307   1656992.94949  21714856.89849     -1660.59300
 08 11  4  0 40 30.0000000  0  8  3  6 13 16 19 21 23 31
  -5323782.02707  21003059.89807  -4129742.94948  21003058.32448      3071.45900
  -3770225.48807  20626042.89807  -2921831.73049  20626040.92249      2013.91700
  -4770475.90606  22911489.92206  -3700478.79347  22911487.66447      2673.37200
     99064.98007  20460357.94507     76912.40649  20460355.16449      -285.16100
  -2211896.84805  23734272.60205  -1710022.00047  23734269.86347      4075.32900
  -2707475.71506  23946002.27306  -2108667.88347  23945998.16447      1443.74300
  -2452228.75007  21465735.84407  -1899281.92648  21465731.95348      1046.56000
   2161986.94907  21719615.48407   1676466.33649  21719612.82849     -1666.05700
 08 11  4  0 40 45.0000000  0  8  3  6 13 16 19 21 23 31
  -5369751.04707  20994312.22707  -4165562.96148  20994310.76648      3064.60100
  -3800316.42607  20620316.85907  -2945279.20749  20620314.87949      2006.06300
  -4810457.74606  22903881.15606  -3731633.46547  22903879.43847      2665.45600
    103400.47307  20461182.56307     80290.70749  20461180.12549      -289.03300
  -2272992.47305  23722646.97705  -1757628.97747  23722644.09847      4073.04200
  -2729037.89106  23941898.60906  -2125469.55547  23941894.89547      1437.47800
  -2467773.72306  21462777.16406  -1911394.89848  21462772.94948      1036.33200
   2187057.36307  21724386.25007   1696001.71549  21724383.42249     -1671.36100
 08 11  4  0 41  0.0000000  0  8  3  6 13 16 19 21 23 31
  -5415616.81607  20985584.44507  -4201302.52348  20985582.70748      3057.71800
  -3830289.12507  20614613.24207  -2968634.56349  20614610.84049      1998.18000
  -4850320.27306  22896296.14106  -3762695.18847  22896293.56647      2657.50200
    107794.37107  20462018.78907     83714.52749  20462016.52049      -292.92700
  -2334053.27705  23711027.00005  -1805208.82047  23711024.23847      4070.72000
  -2750505.43806  23937813.39106  -2142197.50046  23937810.52046      1431.17000
  -2483164.87106  21459848.78906  -1923388.01248  21459844.52348      1026.07700
   2212207.65607  21729172.14107   1715599.34449  21729169.52749     -1676.68600
 08 11  4  0 41 15.0000000  0  9  3  6 13 16 19 21 23 25 31
  -5461378.69907  20976876.32807  -4236961.14148  20976874.30548      3050.79200
  -3860143.09007  20608932.38307  -2991897.39149  20608930.52749      1990.26400
  -4890062.78506  22888733.25806  -3793663.37547  22888730.28147      2649.50100
    112246.87107  20462866.28907     87184.02049  20462863.22749      -296.83300
  -2395078.71105  23699414.72705  -1852761.09047  23699411.69547      4068.36200
  -2771877.84006  23933746.67206  -2158851.32447  23933743.64547      1424.82700
  -2498401.73806  21456949.50806  -1935260.89848  21456944.78948      1015.79100
   -148701.02716  24476726.60906    -99835.80156  24476724.10546         0.00000
   2237438.25407  21733973.39807   1735259.53549  21733970.58649     -1682.04000
 08 11  4  0 41 30.0000000  0  9  3  6 13 16 19 21 23 25 31
  -5507038.22307  20968187.60207  -4272539.98048  20968185.80548      3043.96800
  -3889879.92207  20603273.65607  -3015068.95349  20603272.17649      1982.45500
  -4929686.82806  22881192.94506  -3824539.27347  22881190.79747      2641.60300
    116756.14807  20463724.45307     90697.73849  20463721.33249      -300.61800
  -2456069.96505  23687807.96105  -1900286.74247  23687804.91047      4066.08400
  -2793156.64806  23929697.27306  -2175432.20746  23929694.85246      1418.58700
  -2513486.09806  21454079.18006  -1947014.94948  21454074.31648      1005.62400
   -200307.96905  24466905.84405   -140049.01246  24466904.08646      3440.46300
   2262747.16007  21738789.34407   1754980.75849  21738786.76649     -1687.26000
 08 11  4  0 41 45.0000000  0  9  3  6 13 16 19 21 23 25 31
  -5552593.07007  20959518.88307  -4308037.26249  20959517.05949      3036.99000
  -3919497.52707  20597637.28907  -3038147.59449  20597636.35949      1974.50700
  -4969190.12106  22873675.97706  -3855321.05547  22873673.45747      2633.55300
    121324.21907  20464593.57007     94257.27049  20464590.00449      -304.53800
  -2517024.80905  23676209.20305  -1947784.02347  23676205.12147      4063.65600
  -2814339.54705  23925666.01605  -2191938.33246  23925663.86746      1412.19300
  -2528415.62507  21451237.88307  -1958648.33648  21451233.09048       995.30200
   -251913.61706  24457085.56306   -180261.19146  24457083.09046      3440.37700
   2288136.42207  21743620.71907   1774764.57848  21743618.04748     -1692.61700
 08 11  4  0 42  0.0000000  0  9  3  6 13 16 19 21 23 25 31
  -5598043.78507  20950869.70307  -4343453.41049  20950867.75049      3030.04800
  -3948996.32807  20592024.03107  -3061133.67249  20592022.46949      1966.58700
  -5008573.01206  22866181.36706  -3886009.01647  22866178.83647      2625.52600
    125950.19907  20465474.30507     97861.92249  20465470.63749      -308.39900
  -2577943.65205  23664616.02305  -1995253.24647  23664612.78947      4061.25600
  -2835426.96905  23921652.85905  -2208370.03946  23921651.58246      1405.82800
  -2543190.91006  21448426.40606  -1970161.54348  21448421.60948       985.01900
   -303518.55106  24447265.28106   -220472.80546  24447263.34046      3440.32900
   2313605.44907  21748467.53107   1794610.55548  21748464.62548     -1697.93500
 08 11  4  0 42 15.0000000  0  9  3  6 13 16 19 21 23 25 31
  -5643390.41407  20942240.29707  -4378788.44149  20942238.58649      3023.10900
  -3978376.62107  20586433.09407  -3084027.41849  20586431.14549      1958.68600
  -5047835.42206  22858710.13306  -3916603.08647  22858706.91447      2617.49400
    130633.49607  20466365.67207    101511.25049  20466362.03549      -312.22000
  -2638826.46905  23653031.13305  -2042694.40247  23653026.80547      4058.85400
  -2856419.05105  23917657.71905  -2224727.49646  23917656.96546      1399.47200
  -2557812.43807  21445644.43807  -1981554.93848  21445639.80548       974.76800
   -355122.91405  24437445.64105   -260684.00046  24437443.55546      3440.29100
   2339153.71907  21753328.90607   1814518.28948  21753326.62948     -1703.21800
 08 11  4  0 42 30.0000000  0  9  3  6 13 16 19 21 23 25 31
  -5688631.25007  20933631.66407  -4414041.03948  20933630.02048      3016.05600
  -4007637.04307  20580865.17207  -3106827.73449  20580863.21949      1950.69500
  -5086975.60206  22851261.82806  -3947101.92247  22851258.79747      2609.34500
    135375.54707  20467267.78107    105206.35249  20467264.77749      -316.13700
  -2699671.64805  23641452.28105  -2090106.24247  23641448.30947      4056.34500
  -2877314.35905  23913682.21105  -2241009.55546  23913680.30146      1393.02100
  -2572278.56607  21442891.07007  -1992827.23448  21442886.92248       964.40900
   -406725.12105  24427626.25005   -300893.51246  24427624.13346      3440.14700
   2364782.71107  21758205.96907   1834488.90648  21758203.57448     -1708.59900
 08 11  4  0 42 45.0000000  0  9  3  6 13 16 19 21 23 25 31
  -5733767.30907  20925042.54707  -4449211.99249  20925040.66049      3009.07100
  -4036778.58207  20575319.82807  -3129535.43449  20575317.56649      1942.76900
  -5125995.17606  22843836.87506  -3977506.77047  22843833.53947      2601.30500
    140174.91007  20468181.00007    108946.12149  20468177.96949      -319.95800
  -2760480.21905  23629881.01605  -2137489.55547  23629876.29347      4053.90500
  -2898113.46106  23909723.91406  -2257216.64846  23909721.96546      1386.60700
  -2586590.64106  21440167.34406  -2003979.50048  21440163.30948       954.13800
   -458326.39805  24417806.72705   -341102.32046  24417804.51246      3440.08500
   2390490.89107  21763097.63307   1854521.25448  21763095.18448     -1713.87900
 08 11  4  0 43  0.0000000  0  9  3  6 13 16 19 21 23 25 31
  -5778798.77707  20916473.14107  -4484301.43849  20916471.74249      3002.09800
  -4065801.48807  20569797.03107  -3152150.68449  20569794.91849      1934.86000
  -5164893.31306  22836434.50806  -4007817.01247  22836431.51247      2593.20900
    145031.30107  20469105.44507    112730.32449  20469102.38349      -323.75900
  -2821252.08605  23618316.72705  -2184844.26247  23618311.85247      4051.45800
  -2918816.61706  23905784.81306  -2273349.00446  23905781.46146      1380.21000
  -2600748.79306  21437473.70306  -2015011.83248  21437469.19148       943.87700
   -509926.73006  24407987.37506   -381310.35546  24407984.83246      3440.02200
   2416278.14807  21768004.85207   1874615.21148  21768002.56648     -1719.15100
 08 11  4  0 43 15.0000000  0  9  3  6 13 16 19 21 23 25 31
  -5823725.22307  20907924.08607  -4519309.05149  20907922.27349      2995.09600
  -4094705.29307  20564296.31307  -3174673.11749  20564295.09849      1926.92000
  -5203669.37906  22829054.90606  -4038032.12547  22829053.19547      2585.07100
    149944.86707  20470040.00807    116559.07849  20470037.34049      -327.57100
  -2881986.65605  23606758.71905  -2232169.91047  23606753.98847      4048.97100
  -2939423.35506  23901862.74206  -2289406.18846  23901859.39546      1373.78300
  -2614752.62107  21434808.74207  -2025923.91448  21434804.68048       933.58900
   -561525.60206  24398168.53906   -421517.23446  24398166.43046      3439.92500
   2442144.77707  21772927.25807   1894771.01248  21772924.95348     -1724.44200
 08 11  4  0 43 30.0000000  0  9  3  6 13 16 19 21 23 25 31
  -5868546.80907  20899394.41407  -4554234.94948  20899392.66448      2988.10600
  -4123490.51607  20558818.72707  -3197103.16849  20558817.22349      1919.01500
  -5242323.78106  22821700.18006  -4068152.44147  22821697.38347      2576.96000
    154915.02007  20470985.99207    120431.91449  20470982.89149      -331.34300
  -2942684.11306  23595208.54706  -2279466.62947  23595204.52747      4046.49700
  -2959934.02706  23897959.96106  -2305388.54346  23897956.19946      1367.37800
  -2628602.53907  21432173.12507  -2036716.05548  21432168.76648       923.32800
   -613123.29706  24388349.68806   -461723.23046  24388348.41446      3439.84600
   2468090.08607  21777864.15607   1914988.13748  21777862.02748     -1729.68700
 08 11  4  0 43 45.0000000  0  9  3  6 13 16 19 21 23 25 31
  -5913261.84007  20890885.64107  -4589077.83248  20890883.94148      2981.00200
  -4152155.46907  20553364.11707  -3219439.48449  20553362.68849      1910.99700
  -5280854.97706  22814367.55506  -4098176.75847  22814364.72347      2568.74600
    159943.05107  20471942.32007    124349.84849  20471939.74249      -335.20200
  -3003342.78905  23583665.85205  -2326733.13347  23583661.93047      4043.91200
  -2980347.03106  23894075.47706  -2321294.78146  23894072.34046      1360.86700
  -2642297.09407  21429567.29707  -2047387.13348  21429563.05948       912.97000
   -664718.32806  24378531.29706   -501927.15646  24378529.47746      3439.66900
   2494115.47707  21782817.18807   1935267.64548  21782814.48848     -1735.02600
 08 11  4  0 44  0.0000000  0  9  3  6 13 16 19 21 23 25 31
  -5957869.86307  20882396.84407  -4623837.31348  20882395.34048      2973.86800
  -4180699.97307  20547932.19507  -3241681.94549  20547930.84049      1902.96700
  -5319262.60906  22807059.15606  -4128104.78947  22807056.32447      2560.50900
    165028.94907  20472910.46107    128312.88749  20472907.22349      -339.06000
  -3063962.14106  23572130.43806  -2373968.99247  23572127.18047      4041.29000
  -3000661.94906  23890209.73406  -2337124.57447  23890206.75847      1354.32800
  -2655836.12507  21426991.25807  -2057937.03148  21426986.67648       902.60200
   -716310.26606  24368713.60206   -542128.65246  24368712.30146      3439.46300
   2520221.20707  21787785.07807   1955609.76248  21787782.73048     -1740.38200
 08 11  4  0 44 15.0000000  0  9  3  6 13 16 19 21 23 25 31
  -6002370.71507  20873928.28107  -4658513.28548  20873927.26648      2966.72300
  -4209124.06307  20542523.57807  -3263830.58249  20542521.26249      1894.93900
  -5357546.55906  22799773.94506  -4157936.42647  22799771.61747      2552.26300
    170172.38307  20473889.18007    132320.75849  20473885.96149      -342.89600
  -3124542.25006  23560602.38306  -2421174.28147  23560598.57047      4038.67400
  -3020878.75006  23886362.24206  -2352877.92647  23886360.37547      1347.78700
  -2669219.79707  21424444.34407  -2068365.87148  21424439.47348       892.24500
   -767899.13705  24358896.10205   -582327.74246  24358894.93046      3439.25800
   2546406.79707  21792768.06307   1976014.10248  21792765.64848     -1745.70600
 08 11  4  0 44 30.0000000  0  9  3  6 13 16 19 21 23 25 31
  -6046768.55507  20865479.93007  -4693109.00449  20865477.91049      2959.85600
  -4237431.73407  20537136.50807  -3285888.50849  20537133.93049      1887.17800
  -5395710.26606  22792511.63306  -4187674.38347  22792509.39847      2544.24700
    175369.43407  20474878.28907    136370.41849  20474875.27049      -346.47000
  -3185086.81606  23549080.87506  -2468351.85947  23549077.37147      4036.30400
  -3041001.27706  23882533.64106  -2368557.81346  23882531.53946      1341.50200
  -2682451.99607  21421925.56307  -2078676.67248  21421921.18848       882.14700
   -819488.80505  24349079.76605   -622527.48046  24349077.81646      3439.31100
   2572668.36707  21797765.89807   1996477.64848  21797763.20348     -1750.77100
 08 11  4  0 44 45.0000000  0  9  3  6 13 16 19 21 23 25 31
  -6091059.93407  20857051.75807  -4727621.76649  20857049.51249      2952.75900
  -4265619.74607  20531771.99207  -3307853.20349  20531771.17649      1879.20100
  -5433750.86706  22785272.65606  -4217316.39547  22785270.36347      2536.04000
    180622.96507  20475877.93807    140464.07449  20475874.45749      -350.23500
  -3245592.39106  23537567.01606  -2515499.05947  23537563.47747      4033.70500
  -3061026.07406  23878723.30506  -2384161.57047  23878721.06647      1334.98600
  -2695529.53907  21419437.13307  -2088866.97748  21419432.19148       871.83600
   -871076.02305  24339262.24205   -662725.29346  24339260.88746      3439.14800
   2599008.89507  21802778.32807   2017002.73048  21802775.14148     -1756.03500
 08 11  4  0 45  0.0000000  0  9  3  6 13 16 19 21 23 25 31
  -6135245.64508  20848643.33608  -4762052.19549  20848641.89549      2945.71400
  -4293688.95307  20526431.16407  -3329725.29749  20526429.58249      1871.28000
  -5471668.32406  22778056.95306  -4246862.47347  22778054.66447      2527.83000
    185931.94907  20476888.27307    144600.93849  20476884.96949      -353.93200
  -3306059.55106  23526059.80506  -2562616.31647  23526056.38347      4031.14400
  -3080953.83206  23874931.21906  -2399689.68447  23874928.51647      1328.51700
  -2708453.12107  21416978.18007  -2098937.30948  21416973.52348       861.57200
   -922661.37106  24329446.21106   -702921.67246  24329444.05546      3439.02300
   2625427.34007  21807805.24207   2037588.52348  21807802.44148     -1761.23000
 08 11  4  0 45 15.0000000  0  9  3  6 13 16 19 21 23 25 31
  -6179319.12507  20840256.82807  -4796395.16849  20840255.00449      2938.23200
  -4321633.00407  20521113.28107  -3351499.89149  20521112.00849      1862.93700
  -5509456.44906  22770866.47706  -4276307.76647  22770863.65247      2519.20800
    191302.33207  20477909.98407    148785.65649  20477907.07449      -358.02600
  -3366481.69906  23514562.21906  -2609698.50047  23514558.14847      4028.14300
  -3100778.18806  23871158.63306  -2415137.24247  23871155.18047      1321.62400
  -2721216.74207  21414549.22707  -2108882.99648  21414544.29748       850.90800
   -974238.57806  24319631.85206   -743111.73046  24319629.25046      3438.48000
   2651930.00807  21812848.31307   2058239.93048  21812845.76248     -1766.84500
 08 11  4  0 45 30.0000000  0  9  3  6 13 16 19 21 23 25 31
  -6223282.93007  20831890.46107  -4830652.66449  20831889.18849      2930.92000
  -4349454.61707  20515819.13307  -3373179.07049  20515817.55149      1854.77400
  -5547117.82806  22763699.43006  -4305654.29347  22763697.34847      2510.75900
    196731.44907  20478943.03107    153016.12949  20478940.24649      -361.94100
  -3426861.57806  23503072.19506  -2656747.74647  23503068.68447      4025.32500
  -3120501.67606  23867404.83606  -2430506.19947  23867401.52347      1314.89900
  -2733823.14807  21412150.25807  -2118706.16448  21412145.51648       840.42700
  -1025810.28505  24309817.98405   -783297.45746  24309815.00046      3438.11400
   2678513.90607  21817906.64807   2078954.63748  21817904.37948     -1772.26000
 08 11  4  0 45 45.0000000  0  9  3  6 13 16 19 21 23 25 31
  -6267137.81607  20823545.35207  -4864825.29749  20823543.48849      2923.65900
  -4377154.55107  20510548.10207  -3394763.43849  20510546.80149      1846.66200
  -5584653.14806  22756556.60206  -4334902.59447  22756554.96547      2502.35500
    202218.21907  20479987.35907    157291.54349  20479984.88749      -365.78500
  -3487199.86706  23491590.74206  -2703764.58647  23491585.87947      4022.55300
  -3140125.01606  23863670.98406  -2445797.10247  23863667.46947      1308.22300
  -2746273.03907  21409781.12507  -2128407.38748  21409776.69948       829.99300
  -1077377.12106  24300005.64106   -823479.40246  24300002.53146      3437.78900
   2705178.18007  21822981.35907   2099731.97748  21822978.21948     -1777.61800
 08 11  4  0 46  0.0000000  0  9  3  6 13 16 19 21 23 25 31
  -6310883.15207  20815221.19507  -4898912.57849  20815218.85249      2916.35600
  -4404732.21107  20505299.92207  -3416252.51649  20505298.45749      1838.51100
  -5622061.79706  22749438.08606  -4364052.18847  22749436.24247      2493.91000
    207763.09007  20481042.74207    161612.21549  20481039.79349      -369.65800
  -3547495.47306  23480116.31306  -2750748.16447  23480112.60247      4019.70700
  -3159647.52306  23859955.28106  -2461009.42647  23859952.80547      1301.50100
  -2758565.84807  21407441.71907  -2137986.19148  21407437.74248       819.52100
  -1128938.34806  24290192.69506   -863656.96546  24290190.55546      3437.41500
   2731923.42607  21828071.13307   2120572.39848  21828067.50048     -1783.01600
 08 11  4  0 46 15.0000000  0  9  3  6 13 16 19 21 23 25 31
  -6354520.99607  20806916.93807  -4932916.08649  20806914.92649      2909.19000
  -4432190.05907  20500075.03107  -3437648.22749  20500073.50849      1830.52300
  -5659345.40606  22742343.41406  -4393104.36347  22742341.69947      2485.57400
    213363.39807  20482108.22707    165976.08249  20482105.46149      -373.35400
  -3607750.67606  23468650.06306  -2797700.26647  23468645.45347      4017.01400
  -3179071.44105  23856259.06305  -2476144.94547  23856256.73847      1294.92800
  -2770704.21507  21405131.87507  -2147444.66448  21405128.21148       809.22400
  -1180496.34806  24280382.21106   -903832.01246  24280378.43446      3437.20000
   2758746.89807  21833174.90607   2141473.78948  21833172.50448     -1788.23200
 08 11  4  0 46 30.0000000  0  9  3  6 13 16 19 21 23 25 31
  -6398050.73007  20798633.43007  -4966835.35549  20798631.78149      2901.98200
  -4459527.23807  20494873.24207  -3458949.93049  20494871.45349      1822.47900
  -5696503.37506  22735272.88306  -4422058.63347  22735270.98447      2477.19800
    219019.63707  20483184.68807    170383.54349  20483181.58649      -377.08300
  -3667964.63706  23457191.74206  -2844620.22747  23457187.64147      4014.26400
  -3198395.90606  23852582.25006  -2491202.96147  23852579.52747      1288.29800
  -2782687.43006  21402851.28906  -2156782.23448  21402847.75048       798.88100
  -1232050.28106  24270571.91406   -944003.87946  24270569.22746      3436.92900
   2785649.27007  21838294.40607   2162436.66848  21838291.29748     -1793.49100
 08 11  4  0 46 45.0000000  0  9  3  6 13 16 19 21 23 25 31
  -6441470.95307  20790370.93807  -5000669.29349  20790369.15249      2894.68200
  -4486742.73007  20489693.93807  -3480156.80549  20489691.76249      1814.36600
  -5733534.20306  22728225.98406  -4450913.82447  22728223.85947      2468.72200
    224732.86707  20484271.72707    174835.40249  20484268.61749      -380.88200
  -3728135.87906  23445742.25806  -2891506.91447  23445737.94147      4011.41600
  -3217619.73006  23848923.21106  -2506182.55546  23848921.35946      1281.58800
  -2794514.48807  21400600.78907  -2165998.14548  21400596.35548       788.47100
  -1283598.88306  24260762.37506   -984171.61346  24260759.64146      3436.57300
   2812631.50407  21843428.50807   2183461.78148  21843425.65248     -1798.81600
 08 11  4  0 47  0.0000000  0  9  3  6 13 16 19 21 23 25 31
  -6484778.77307  20782129.60207  -5034415.63349  20782128.67649      2887.18800
  -4513833.79307  20484538.93807  -3501266.72749  20484537.02749      1806.07100
  -5770435.18006  22721203.59406  -4479667.82847  22721201.32447      2460.06500
    230505.42207  20485370.17207    179333.50049  20485367.00449      -384.83700
  -3788261.72306  23434300.82006  -2938358.20747  23434296.04747      4008.39000
  -3236739.94506  23845285.25806  -2521081.40647  23845283.04747      1274.68100
  -2806182.44907  21398380.85907  -2175090.07048  21398376.27748       777.86400
  -1335139.32806  24250954.95306  -1024332.95746  24250952.00046      3436.03000
   2839696.12107  21848578.93807   2204551.07048  21848576.15648     -1804.30800
 08 11  4  0 47 15.0000000  0  9  3  6 13 16 19 21 23 25 31
  -6527977.59807  20773908.80507  -5068077.04749  20773907.90649      2879.92200
  -4540803.62107  20479406.64107  -3522282.17249  20479405.27049      1797.98900
  -5807209.44106  22714205.77306  -4508323.08647  22714203.93447      2451.61700
    236334.10907  20486479.57807    183875.33649  20486476.08249      -388.57900
  -3848345.04306  23422867.60906  -2985176.36747  23422863.09047      4005.55500
  -3255759.87106  23841665.87506  -2535902.14147  23841663.84847      1267.99500
  -2817694.68006  21396190.42206  -2184060.64848  21396185.55148       767.48200
  -1386674.85506  24241147.55506  -1064490.51246  24241144.85946      3435.70200
   2866839.89107  21853744.59407   2225702.03948  21853741.55548     -1809.58500
 08 11  4  0 47 30.0000000  0  9  3  6 13 16 19 21 23 25 31
  -6571068.09407  20765709.28907  -5101654.06349  20765707.91049      2872.70000
  -4567653.03907  20474297.48407  -3543203.79349  20474295.60549      1789.96100
  -5843857.27006  22707231.73406  -4536879.81647  22707230.01247      2443.18900
    242217.87907  20487598.93807    188460.07449  20487595.79749      -392.25100
  -3908386.40206  23411441.64806  -3031961.83247  23411437.71947      4002.75700
  -3274680.01606  23838065.64106  -2550645.11346  23838062.99646      1261.34300
  -2829051.87507  21394029.05507  -2192910.41448  21394024.66048       757.14600
  -1438205.95706  24231341.82806  -1104644.62146  24231338.65246      3435.40700
   2894061.87107  21858924.66407   2246913.96948  21858921.32848     -1814.79900
 08 11  4  0 47 45.0000000  0  9  3  6 13 16 19 21 23 25 31
  -6614049.10207  20757530.64807  -5135145.74649  20757529.06649      2865.40100
  -4594381.47307  20469211.32007  -3564031.15649  20469209.64149      1781.89600
  -5880378.09806  22700282.07006  -4565337.61347  22700280.03147      2434.72200
    248156.98807  20488729.27307    193087.96149  20488726.31349      -395.94100
  -3968385.12106  23400024.17206  -3078714.06647  23400019.98047      3999.91500
  -3293499.79706  23834484.36706  -2565309.86747  23834481.99647      1254.65200
  -2840253.62107  21391897.35907  -2201639.04348  21391892.67248       746.78300
  -1489732.05506  24221536.82806  -1144794.82046  24221533.86746      3435.07300
   2921362.37507  21864119.89107   2268187.07048  21864116.07448     -1820.03400
 08 11  4  0 48  0.0000000  0  9  3  6 13 16 19 21 23 25 31
  -6656918.44107  20749372.68007  -5168550.43049  20749370.81349      2857.95600
  -4620986.81607  20464148.81307  -3584762.58649  20464147.34449      1773.69000
  -5916769.74606  22693356.89106  -4593694.71947  22693354.75847      2426.11000
    254153.48007  20489870.18007    197760.55149  20489866.97749      -399.76600
  -4028338.73806  23388615.81306  -3125431.18047  23388611.51247      3996.90800
  -3312216.83606  23830922.82806  -2579894.56646  23830920.70346      1247.80300
  -2851297.90607  21389795.86707  -2210244.98048  21389790.54748       736.28600
  -1541250.96906  24211732.97706  -1184939.41847  24211729.28547      3434.59400
   2948743.33207  21869330.23407   2289522.89148  21869327.21948     -1825.39700
 08 11  4  0 48 15.0000000  0  9  3  6 13 16 19 21 23 25 31
  -6699677.32407  20741235.46107  -5201869.03549  20741233.75849      2850.59200
  -4647470.07007  20459109.05507  -3605398.88749  20459106.70349      1765.55000
  -5953032.96506  22686456.79706  -4621951.79747  22686454.17247      2417.54800
    260206.03107  20491022.03107    202476.81349  20491018.95349      -403.50300
  -4088248.29306  23377215.21906  -3172113.93447  23377211.19947      3993.97000
  -3330832.19906  23827380.10206  -2594400.02747  23827378.37147      1241.02400
  -2862185.83206  21387723.84406  -2218729.08248  21387718.96948       725.86200
  -1592763.60206  24201930.28906  -1225079.13747  24201927.47747      3434.17600
   2976203.57407  21874555.38307   2310920.46548  21874552.52348     -1830.68300
 08 11  4  0 48 30.0000000  0  9  3  6 13 16 19 21 23 25 31
  -6742325.62107  20733120.10907  -5235101.46948  20733118.36748      2843.22000
  -4673831.22707  20454092.64107  -3625940.05149  20454090.73449      1757.41000
  -5989167.50806  22679580.26606  -4650108.58247  22679577.85247      2408.97000
    266314.57407  20492184.44507    207236.71549  20492180.81649      -407.23600
  -4148113.46506  23365823.10906  -3218762.11347  23365818.69947      3991.01100
  -3349345.64506  23823857.53106  -2608826.08647  23823854.67247      1234.23000
  -2872917.41806  21385681.56306  -2227091.36348  21385676.80148       715.43900
  -1644269.83206  24192128.88306  -1265213.83646  24192126.34046      3433.74900
   3003743.06307  21879796.26607   2332379.79748  21879793.65648     -1835.96600
 08 11  4  0 48 45.0000000  0  9  3  6 13 16 19 21 23 25 31
  -6784862.89107  20725025.50807  -5268247.39149  20725024.09049      2835.81800
  -4700070.37507  20449099.27307  -3646386.12149  20449097.42649      1749.27700
  -6025173.37506  22672728.46106  -4678165.10247  22672726.32447      2400.39100
    272478.93007  20493357.69507    212040.10249  20493353.97349      -410.95700
  -4207934.03906  23354439.70306  -3265375.53947  23354435.60947      3988.03800
  -3367757.04706  23820354.10906  -2623172.63747  23820351.20347      1227.42700
  -2883492.71906  21383669.17206  -2235331.85948  21383664.04748       705.02000
  -1695769.53106  24182329.09406  -1305343.46546  24182326.65246      3433.31300
   3031361.69907  21885051.50007   2353900.78948  21885049.63748     -1841.24200
 08 11  4  0 49  0.0000000  0  9  3  6 13 16 19 21 23 25 31
  -6827290.05108  20716952.17208  -5301307.51249  20716950.26649      2828.47700
  -4726188.01207  20444129.20307  -3666737.53549  20444126.52349      1741.17600
  -6061050.77006  22665901.30506  -4706121.51247  22665899.17647      2391.82600
    278698.09807  20494540.96907    216886.20349  20494537.84049      -414.61100
  -4267710.37106  23343064.77306  -3311954.48847  23343060.50447      3985.08900
  -3386067.09406  23816869.90606  -2637440.19947  23816866.96147      1220.67000
  -2893912.43806  21381686.00806  -2243451.12548  21381681.12148       694.64800
  -1747263.25006  24172529.39806  -1345468.42646  24172527.44146      3432.91500
   3059058.66407  21890322.32007   2375482.81348  21890319.82448     -1846.46400
 08 11  4  0 49 15.0000000  0  9  3  6 13 16 19 21 23 25 31
  -6869608.20707  20708898.96107  -5334282.68449  20708897.28549      2821.21000
  -4752185.79707  20439182.23407  -3686995.53149  20439179.65649      1733.18600
  -6096801.23406  22659098.48406  -4733979.02747  22659096.13347      2383.36400
    284970.39807  20495734.68807    221773.71549  20495731.50049      -418.15300
  -4327443.83206  23331697.59406  -3358500.02747  23331693.89547      3982.23100
  -3404277.00006  23813404.74206  -2651629.74247  23813402.52747      1213.99400
  -2904178.22706  21379732.68006  -2251450.44548  21379727.78148       684.38600
  -1798752.36706  24162731.82806  -1385589.80146  24162729.46146      3432.60800
   3086832.26607  21895608.02307   2397124.55548  21895605.16448     -1851.57300
 08 11  4  0 49 30.0000000  0  9  3  6 13 16 19 21 23 25 31
  -6911815.22307  20700867.24207  -5367171.27049  20700865.52749      2813.80100
  -4778061.32407  20434258.04707  -3707158.28549  20434255.88749      1725.03500
  -6132422.10906  22652320.28906  -4761735.57047  22652318.55547      2374.72500
    291298.03107  20496938.48407    226704.33649  20496935.72349      -421.84200
  -4387132.03106  23320339.57806  -3405010.30547  23320336.10547      3979.21300
  -3422384.40206  23809958.92206  -2665739.38347  23809956.26247      1207.16000
  -2914287.78106  21377808.90606  -2259328.02348  21377804.06348       673.97000
  -1850234.46505  24152934.86705  -1425705.71946  24152932.22346      3432.14000
   3114684.72307  21900907.57807   2418827.75048  21900904.91448     -1856.83000
 08 11  4  0 49 45.0000000  0  9  3  6 13 16 19 21 23 25 31
  -6953909.55907  20692857.00007  -5399972.04749  20692855.09849      2806.28900
  -4803813.44907  20429357.59407  -3727224.86349  20429354.77049      1716.80800
  -6167911.84806  22645567.03106  -4789389.90647  22645565.10947      2365.98300
    297682.10507  20498153.72707    231678.93049  20498150.44949      -425.60500
  -4446773.50806  23308989.76606  -3451484.16447  23308986.12547      3976.09800
  -3440387.99606  23806532.79706  -2679768.14847  23806531.22747      1200.24000
  -2924239.89507  21375915.49207  -2267082.89848  21375910.50048       663.47400
  -1901708.30905  24143140.21105  -1465815.19146  24143137.64846      3431.59000
   3142617.04307  21906222.89107   2440593.17648  21906220.17248     -1862.15500
 08 11  4  0 50  0.0000000  0  9  3  6 13 16 19 21 23 25 31
  -6995892.28908  20684867.92208  -5432685.85549  20684866.08249      2798.84900
  -4829443.42207  20424480.24207  -3747196.27349  20424477.31649      1708.66500
  -6203271.90606  22638838.32006  -4816943.19547  22638836.43447      2357.33700
    304121.05907  20499378.95307    236696.28549  20499375.65249      -429.26400
  -4506369.25406  23297649.03106  -3497922.38347  23297646.05547      3973.05000
  -3458288.90206  23803126.56306  -2693716.89147  23803124.38347      1193.39400
  -2934035.96106  21374051.00806  -2274716.19948  21374046.69148       653.07100
  -1953174.92205  24133345.47705  -1505919.04746  24133343.81646      3431.10800
   3170627.81607  21911553.04707   2462419.73048  21911550.45348     -1867.38500
 08 11  4  0 50 15.0000000  0  9  3  6 13 16 19 21 23 25 31
  -7037763.19507  20676899.87507  -5465312.53149  20676898.25449      2791.39400
  -4854951.16807  20419626.53907  -3767072.44149  20419624.05949      1700.51600
  -6238501.81306  22632133.63306  -4844395.07047  22632131.77347      2348.66000
    310614.95307  20500615.20307    241756.46949  20500611.05949      -432.92600
  -4565919.01606  23286316.73406  -3544324.77747  23286313.48047      3969.98400
  -3476086.98406  23799739.82006  -2707585.50847  23799737.55547      1186.53900
  -2943675.95306  21372216.27306  -2282227.88748  21372212.19148       642.66600
  -2004634.11705  24123553.18005  -1546017.10246  24123551.54346      3430.61300
   3198717.06307  21916898.64807   2484307.44948  21916896.17648     -1872.61600
 08 11  4  0 50 30.0000000  0  9  3  6 13 16 19 21 23 25 31
  -7079520.23807  20668953.99207  -5497850.48049  20668951.96549      2783.80300
  -4880334.48807  20414796.42207  -3786851.64849  20414793.66049      1692.22100
  -6273599.28906  22625455.48406  -4871743.75047  22625452.93047      2339.83200
    317165.70707  20501860.91407    246860.94549  20501857.65649      -436.71700
  -4625420.33206  23274994.25806  -3590689.41847  23274991.29347      3966.75400
  -3493779.87506  23796372.89106  -2721372.17647  23796370.23047      1179.52600
  -2953157.70306  21370411.85906  -2289616.26248  21370408.09848       632.11700
  -2056083.58605  24113762.82005  -1586107.57446  24113760.91046      3429.96500
   3226886.74207  21922259.25007   2506257.82848  21922257.35948     -1877.97900
 08 11  4  0 50 45.0000000  0  9  3  6 13 16 19 21 23 25 31
  -7121161.27008  20661029.97708  -5530298.03549  20661028.24249      2776.06900
  -4905591.55907  20409990.17207  -3806532.48449  20409987.32849      1683.80500
  -6308562.18006  22618801.10206  -4898987.55147  22618799.67647      2330.85900
    323774.86307  20503118.85907    252010.94549  20503115.75449      -440.61000
  -4684871.10506  23263681.63306  -3637014.68847  23263678.34447      3963.38500
  -3511365.55106  23793026.25006  -2735075.30147  23793023.09847      1172.37800
  -2962479.46506  21368638.06306  -2296879.97348  21368634.25848       621.45100
  -2107521.43805  24103974.39105  -1626189.00846  24103972.85946      3429.19000
   3255138.53907  21927635.57007   2528272.20348  21927633.69548     -1883.45300
 08 11  4  0 50 59.9990000  0  9  3  6 13 16 19 21 23 25 31
  -7162685.98008  20653128.07308  -5562654.95349  20653126.26549      2768.31400
  -4930723.21907  20405207.47207  -3826115.58649  20405205.88649      1675.44400
  -6343390.85206  22612173.54206  -4926126.75447  22612171.21847      2321.91100
    330439.25807  20504387.13607    257203.96549  20504384.11649      -444.29300
  -4744269.86306  23252378.47206  -3683299.43447  23252374.25347      3959.91700
  -3528845.43406  23789700.13606  -2748696.00047  23789696.19047      1165.32600
  -2971643.25806  21366894.35406  -2304020.60548  21366890.24948       610.92000
  -2158946.70305  24094189.33905  -1666260.62546  24094187.12046      3428.35100
   3283467.88707  21933026.10407   2550347.00848  21933024.04248     -1888.62300
 08 11  4  0 51 14.9990000  0  9  3  6 13 16 19 21 23 25 31
  -7204100.69107  20645247.13607  -5594926.14848  20645245.05448      2760.98100
  -4955733.77707  20400448.19007  -3845604.33249  20400445.86249      1667.37100
  -6378090.15606  22605570.58106  -4953165.16847  22605568.19447      2313.28700
    337158.88707  20505666.07307    262440.04749  20505662.24149      -447.97500
  -4803625.00406  23241083.58106  -3729550.18847  23241079.19447      3957.00900
  -3546222.50006  23786393.28406  -2762236.57847  23786389.87847      1158.47100
  -2980651.07006  21365180.08106  -2311039.67248  21365175.68748       600.52100
  -2210366.80506  24084404.08106  -1706328.21147  24084402.30047      3428.00700
   3311877.58207  21938432.30807   2572484.41848  21938430.16348     -1893.98000
 08 11  4  0 51 29.9990000  0  9  3  6 13 16 19 21 23 25 31
  -7245402.84807  20637387.33907  -5627109.65249  20637385.96049      2753.47700
  -4980621.99207  20395711.90107  -3864997.73849  20395709.80849      1659.21400
  -6412658.33206  22598992.83906  -4980101.41047  22598989.83147      2304.54500
    343932.53907  20506954.72907    267718.20749  20506951.88249      -451.57700
  -4862933.10506  23229797.56506  -3775764.29347  23229793.24147      3953.87300
  -3563495.99205  23783105.77605  -2775696.43447  23783102.65947      1151.56600
  -2989503.07006  21363495.60406  -2317937.33648  21363491.95248       590.13300
  -2261778.79705  24074620.51105  -1746389.50046  24074618.70646      3427.46600
   3340365.03907  21943853.11207   2594682.42648  21943851.40548     -1899.16400
 08 11  4  0 51 44.9990000  0  9  3  6 13 16 19 21 23 25 31
  -7286591.00007  20629549.81507  -5659204.30549  20629548.72649      2745.87700
  -5005386.42207  20390999.58107  -3884294.68449  20390997.41749      1650.96200
  -6447094.03106  22592440.55006  -5006934.40247  22592437.05847      2295.71300
    350761.52307  20508254.14407    273039.49249  20508250.82749      -455.26600
  -4922192.44106  23218521.19006  -3821940.39147  23218516.82747      3950.62200
  -3580664.32406  23779839.13606  -2789074.33647  23779835.40947      1144.55500
  -2998197.60907  21361841.29207  -2324712.30948  21361837.16748       579.63600
  -2313181.09406  24064839.47906  -1786443.22347  24064836.57347      3426.82000
   3368931.66407  21949289.24507   2616942.12148  21949287.13648     -1904.44200
 08 11  4  0 51 59.9990000  0  9  3  6 13 16 19 21 23 25 31
  -7327663.65607  20621733.75307  -5691208.97349  20621732.44849      2738.17700
  -5030025.64807  20386310.83907  -3903494.07849  20386308.61649      1642.61500
  -6481395.38706  22585912.68306  -5033662.72747  22585910.23347      2286.75700
    357647.04707  20509564.42507    278404.83649  20509561.26549      -459.03500
  -4981401.36706  23207253.88606  -3868077.20347  23207249.26147      3947.26200
  -3597725.95306  23776591.86206  -2802369.10547  23776589.33547      1137.44200
  -3006733.45707  21360217.55807  -2331363.62548  21360212.81248       569.05700
  -2364572.17206  24055060.05806  -1826488.20746  24055056.88246      3426.07200
   3397578.69107  21954740.58907   2639264.47348  21954738.78448     -1909.80200
 08 11  4  0 52 14.9990000  0  9  3  6 13 16 19 21 23 25 31
  -7368624.30507  20613939.22907  -5723126.37149  20613937.74549      2730.71000
  -5054543.37507  20381644.99507  -3922598.78949  20381642.55449      1634.51500
  -6515565.66806  22579410.43306  -5060288.91447  22579406.92947      2278.01900
    364585.37907  20510884.75307    283811.32449  20510881.77249      -462.55500
  -5040563.24606  23195996.22206  -3914177.34447  23195991.65147      3944.12500
  -3614684.46906  23773365.05006  -2815583.53146  23773362.51146      1130.56800
  -3015114.47707  21358622.64407  -2337894.28148  21358617.39048       558.73500
  -2415955.43006  24045282.15906  -1866527.10247  24045279.19047      3425.55100
   3426302.38307  21960206.30007   2661646.56348  21960204.47648     -1914.91300
 08 11  4  0 52 29.9990000  0  9  3  6 13 16 19 21 23 25 31
  -7409471.77307  20606166.10407  -5754955.56349  20606164.79249      2723.16500
  -5078938.54707  20377003.08907  -3941608.01249  20377000.68749      1626.34500
  -6549603.69906  22572932.94006  -5086812.03947  22572930.02247      2269.20200
    371577.21507  20512215.37007    289259.50849  20512212.17149      -466.12200
  -5099676.87906  23184746.96406  -3960239.89147  23184742.85847      3940.90900
  -3631538.78506  23770157.66706  -2828716.77047  23770155.45647      1123.62100
  -3023339.64806  21357056.97906  -2344303.50448  21357052.52248       548.34500
  -2467329.89106  24035505.77606  -1906559.12547  24035502.71047      3424.96400
   3455103.52007  21965687.34707   2684088.99648  21965684.92948     -1920.07600
 08 11  4  0 52 44.9990000  0  9  3  6 13 16 19 21 23 25 31
  -7450205.80907  20598414.54207  -5786696.35249  20598413.42149      2715.60200
  -5103210.91807  20372383.86207  -3960521.53549  20372381.69049      1618.15800
  -6583509.29706  22566480.97906  -5113231.98047  22566477.53447      2260.37300
    378622.61307  20513556.05007    294749.43049  20513553.00349      -469.69300
  -5158741.82006  23173506.97206  -4006264.49647  23173503.36247      3937.66300
  -3648288.68006  23766970.38606  -2841768.64846  23766967.69846      1116.66000
  -3031408.84007  21355521.36207  -2350591.19548  21355516.99148       537.94600
  -2518695.23006  24025731.58906  -1946584.05147  24025728.28447      3424.35600
   3483982.21507  21971182.70607   2706591.85948  21971181.23348     -1925.24600
 08 11  4  0 52 59.9990000  0  9  3  6 13 16 19 21 23 25 31
  -7490826.64507  20590684.55007  -5818348.94549  20590683.60449      2708.05600
  -5127361.25007  20367788.60407  -3979339.97349  20367786.05849      1610.02200
  -6617282.74606  22560054.11206  -5139548.96547  22560050.64447      2251.56300
    385720.96107  20514906.78407    300280.60549  20514903.46449      -473.22300
  -5217758.38306  23162276.07306  -4052251.40247  23162273.12447      3934.43800
  -3664934.35506  23763802.38606  -2854739.31347  23763799.80447      1109.71200
  -3039322.69507  21354015.28407  -2356757.84048  21354011.05048       527.59000
  -2570051.75006  24015959.19806  -1986602.10947  24015955.30047      3423.76800
   3512937.80507  21976692.95607   2729154.63748  21976690.62048     -1930.37300
 08 11  4  0 53 14.9990000  0  9  3  6 13 16 19 21 23 25 31
  -7531333.96107  20582976.80007  -5849913.09049  20582974.92149      2700.48800
  -5151388.95707  20363216.20607  -3998062.85549  20363213.63249      1601.84700
  -6650923.51206  22553652.65106  -5165762.53947  22553649.37047      2242.71800
    392872.38707  20516267.56507    305853.14849  20516264.51949      -476.76200
  -5276726.10506  23151055.37006  -4098200.27047  23151052.03447      3931.18200
  -3681475.30106  23760655.39406  -2867628.36346  23760651.39046      1102.73000
  -3047080.92607  21352538.98707  -2362803.22348  21352534.81548       517.21500
  -2621398.91805  24006187.41705  -2026612.88747  24006184.61247      3423.14500
   3541970.52707  21982217.60407   2751777.52348  21982215.55048     -1935.51500
 08 11  4  0 53 29.9990000  0  9  3  6 13 16 19 21 23 25 31
  -7571727.68807  20575289.82307  -5881388.71149  20575288.30049      2692.91500
  -5175294.25407  20358667.37807  -4016690.35949  20358664.74949      1593.68600
  -6684431.50406  22547276.15906  -5191872.66847  22547273.08147      2233.86600
    400076.78507  20517638.67507    311466.97349  20517635.01149      -480.29300
  -5335644.63306  23139843.13606  -4144110.80147  23139839.74147      3927.90200
  -3697911.49206  23757527.33906  -2880435.80947  23757523.77647      1095.74600
  -3054683.52307  21351092.48707  -2368727.33648  21351087.90148       506.84000
  -2672736.61305  23996417.52605  -2066616.25047  23996415.64047      3422.51300
   3571080.24607  21987757.64407   2774460.40648  21987755.60848     -1940.64800
 08 11  4  0 53 44.9990000  0  9  3  6 13 16 19 21 23 25 31
  -7612006.65207  20567625.02607  -5912774.90249  20567623.04249      2685.26400
  -5199075.97307  20354141.70607  -4035221.57849  20354139.30449      1585.44800
  -6717805.71906  22540924.87006  -5217878.53547  22540922.95647      2224.94800
    407334.92207  20519019.96407    317122.66449  20519016.90549      -483.87600
  -5394512.82806  23128640.63606  -4189982.10247  23128637.87447      3924.54600
  -3714241.89506  23754419.20606  -2893160.79347  23754416.45647      1088.69300
  -3062129.60907  21349675.44807  -2374529.47748  21349670.87448       496.40600
  -2724063.84005  23986650.84705  -2106611.47347  23986648.91747      3421.81500
   3600267.75007  21993311.50307   2797203.89848  21993309.32748     -1945.83400
 08 11  4  0 53 59.9990000  0  9  3  6 13 16 19 21 23 25 31
  -7652173.03907  20559981.97907  -5944073.38749  20559979.22249      2677.75900
  -5222736.52007  20349639.14407  -4053658.35249  20349637.29649      1577.37000
  -6751047.86706  22534599.47206  -5243781.50047  22534596.90547      2216.14300
    414644.22307  20520410.60407    322818.22749  20520407.65949      -487.28700
  -5453332.84806  23117447.56506  -4235815.85947  23117444.63647      3921.33500
  -3730468.60506  23751331.93306  -2905804.99647  23751328.22947      1081.78100
  -3069421.44107  21348288.08907  -2380211.42648  21348283.19448       486.12200
  -2775382.75805  23976884.24505  -2146600.21146  23976882.69446      3421.26100
   3629530.59007  21998880.38607   2820006.09848  21998877.41348     -1950.85600
 08 11  4  0 54 14.9990000  0  9  3  6 13 16 19 21 23 25 31
  -7692223.31608  20552360.52608  -5975281.40649  20552358.39049      2670.01800
  -5246272.69107  20345160.29207  -4071998.22349  20345158.40549      1569.07800
  -6784154.89506  22528299.16706  -5269579.16447  22528296.84747      2207.13500
    422007.94107  20521811.76107    328556.18049  20521808.38249      -490.91500
  -5512101.13306  23106264.19806  -4281609.30547  23106260.81247      3917.88600
  -3746588.23806  23748264.64406  -2918365.75047  23748261.68747      1074.64200
  -3076556.02007  21346930.69007  -2385770.84048  21346925.64748       475.63900
  -2826689.85505  23967121.20605  -2186579.75846  23967119.42146      3420.47300
   3658871.84007  22004463.47907   2842869.39848  22004460.69848     -1956.08300
 08 11  4  0 54 29.9990000  0  9  3  6 13 16 19 21 23 25 31
  -7732159.56307  20544760.67507  -6006400.55549  20544759.36249      2662.41600
  -5269686.43407  20340704.65107  -4090242.68849  20340702.96049      1560.91600
  -6817128.37906  22522024.35406  -5295272.77747  22522021.99947      2198.23200
    429423.89107  20523223.26907    334334.84049  20523220.24149      -494.39700
  -5570819.48006  23095091.20606  -4327363.85247  23095087.18347      3914.55700
  -3762602.71106  23745217.55006  -2930844.57447  23745214.69447      1067.63200
  -3083535.34407  21345601.90107  -2391209.26648  21345597.56248       465.28800
  -2877987.00005  23957360.26105  -2226551.54347  23957357.89747      3419.81000
   3688289.48807  22010062.12007   2865792.22348  22010058.42948     -1961.17700
 08 11  4  0 54 44.9990000  0  9  3  6 13 16 19 21 23 25 31
  -7771979.90607  20537183.18307  -6037429.38349  20537181.21049      2654.69000
  -5292976.06607  20336272.47207  -4108390.44549  20336271.06249      1552.64200
  -6849966.66406  22515775.80006  -5320861.04747  22515773.51547      2189.21900
    436893.54707  20524644.66707    340155.35949  20524641.28849      -497.97700
  -5629486.03506  23083926.84706  -4373078.04347  23083922.92147      3911.10400
  -3778510.28106  23742190.13606  -2943240.07847  23742187.70247      1060.50500
  -3090357.90207  21344303.65107  -2396525.55148  21344299.30048       454.83700
  -2929272.41005  23947601.21405  -2266514.24647  23947598.21047      3419.02700
   3717785.01607  22015674.98707   2888775.72748  22015672.06248     -1966.36800
 08 11  4  0 54 59.9990000  0  9  3  6 13 16 19 21 23 25 31
  -7811684.46107  20529627.29207  -6068368.00448  20529625.03448      2646.97000
  -5316141.75407  20331864.59707  -4126441.62949  20331862.44449      1544.37900
  -6882669.42206  22509552.08106  -5346343.71147  22509549.72947      2180.18400
    444416.71107  20526076.40907    346017.56649  20526072.99149      -501.54400
  -5688100.66006  23072773.19806  -4418751.75847  23072768.75747      3907.64200
  -3794310.98006  23739183.49506  -2955552.29747  23739180.95647      1053.38000
  -3097023.77307  21343035.25307  -2401719.73448  21343030.95248       444.39100
  -2980546.06605  23937843.51105  -2306467.68847  23937840.99147      3418.24400
   3747358.26607  22021302.62007   2911819.81648  22021299.57348     -1971.55000
 08 11  4  0 55 14.9990000  0  9  3  6 13 16 19 21 23 25 31
  -7851272.14807  20522093.90907  -6099215.53948  20522092.35848      2639.17900
  -5339182.39507  20327479.95607  -4144395.37549  20327477.74549      1536.04300
  -6915235.46506  22503355.14406  -5371719.85247  22503352.36247      2171.07000
    451994.20707  20527518.13607    351922.10549  20527514.92549      -505.16600
  -5746662.16406  23061629.19006  -4464384.09447  23061624.79247      3904.10000
  -3810003.68406  23736197.44006  -2967780.39147  23736194.78047      1046.18000
  -3103532.07007  21341796.83907  -2406791.13748  21341792.76948       433.88600
  -3031806.81605  23928089.87805  -2346411.12947  23928087.06247      3417.38300
   3777010.04707  22026944.64407   2934925.08648  22026941.97248     -1976.78500
 08 11  4  0 55 29.9990000  0  9  3  6 13 16 19 21 23 25 31
  -7890744.19907  20514582.83907  -6129972.98448  20514581.47948      2631.47000
  -5362099.66007  20323119.01907  -4162252.97749  20323116.53449      1527.81800
  -6947666.41406  22497183.73706  -5396990.71947  22497181.50747      2162.06300
    459624.08207  20528969.94007    357867.45749  20528967.10449      -508.65800
  -5805171.98406  23050494.98706  -4509976.15647  23050490.78447      3900.65500
  -3825589.80506  23733231.48706  -2979925.41047  23733228.61247      1039.07500
  -3109884.46107  21340588.28407  -2411741.06348  21340584.24548       423.49300
  -3083056.10505  23918336.88605  -2386345.61347  23918334.58947      3416.61900
   3806738.55507  22032601.47907   2958090.14148  22032599.41748     -1981.90100
 08 11  4  0 55 44.9990000  0  9  3  6 13 16 19 21 23 25 31
  -7930100.55107  20507093.65907  -6160640.26248  20507091.75748      2623.75700
  -5384893.58207  20318781.26907  -4180014.47749  20318778.91349      1519.59500
  -6979961.83206  22491038.31506  -5422155.97747  22491036.30847      2153.02800
    467306.52307  20530431.87007    363853.78149  20530429.27649      -512.16300
  -5863629.58606  23039370.88606  -4555527.51247  23039366.48747      3897.17300
  -3841069.13706  23730286.07306  -2991987.21547  23730282.69447      1031.95500
  -3116080.93007  21339409.18307  -2416569.48848  21339405.33548       413.09800
  -3134293.66405  23908586.80805  -2426270.97347  23908584.15547      3415.83700
   3836543.79707  22038272.99507   2981314.99248  22038270.85448     -1987.01600
 08 11  4  0 55 59.9990000  0  9  3  6 13 16 19 21 23 25 31
  -7969339.73407  20499626.74507  -6191216.24649  20499625.13649      2615.94600
  -5407562.69907  20314467.90907  -4197678.71949  20314465.56549      1511.27400
  -7012120.19906  22484918.53406  -5447214.44947  22484916.32747      2143.89100
    475042.62107  20531903.86207    369881.90249  20531901.16749      -515.74000
  -5922033.56606  23028257.02606  -4601037.10547  23028252.47647      3893.59900
  -3856440.18006  23727361.48706  -3003964.66847  23727357.03847      1024.73600
  -3122120.25807  21338260.32307  -2421275.47348  21338255.67948       402.62200
  -3185518.02305  23898838.80805  -2466186.03947  23898836.51947      3414.95700
   3866426.85907  22043960.05807   3004600.46548  22043957.98348     -1992.20400
 08 11  4  0 56 14.9990000  0  9  3  6 13 16 19 21 23 25 31
  -8008463.02707  20492182.12807  -6221701.94148  20492180.56548      2608.22000
  -5430108.39107  20310177.17507  -4215246.78549  20310174.93349      1503.04600
  -7044142.82406  22478825.37006  -5472167.14847  22478822.82347      2134.84200
    482830.94507  20533386.08907    375950.72749  20533383.38249      -519.22200
  -5980384.89106  23017153.37806  -4646505.67247  23017148.86247      3890.08800
  -3871704.25406  23724456.29206  -3015858.74647  23724452.09347      1017.60500
  -3128003.86307  21337140.20607  -2425860.09448  21337135.72248       392.24000
  -3236730.34005  23889092.98705  -2506091.71947  23889090.99547      3414.15400
   3896386.38707  22049661.02607   3027945.53548  22049658.33548     -1997.30200
 08 11  4  0 56 29.9990000  0  9  3  6 13 16 19 21 23 25 31
  -8047469.62907  20484759.29207  -6252096.69548  20484757.23348      2600.44000
  -5452529.97707  20305910.40907  -4232718.15649  20305908.86249      1494.77200
  -7076028.91006  22472757.46406  -5497013.44147  22472755.04247      2125.73900
    490671.80107  20534878.19007    382060.48449  20534875.51949      -522.72400
  -6038682.84406  23006059.28406  -4691932.65647  23006054.79647      3886.53000
  -3886860.61706  23721572.29206  -3027668.90647  23721567.92547      1010.42400
  -3133731.07407  21336050.66707  -2430322.86348  21336045.19848       381.81400
  -3287929.83205  23879350.14405  -2545987.43447  23879348.77247      3413.29900
   3926422.85507  22055376.69807   3051350.56348  22055372.65948     -2002.43100
 08 11  4  0 56 44.9990000  0  9  3  6 13 16 19 21 23 25 31
  -8086360.97307  20477358.60407  -6282401.64549  20477356.39049      2592.75600
  -5474829.36707  20301667.37807  -4250094.29349  20301665.67149      1486.62600
  -7107780.11707  22466715.73707  -5521754.64847  22466713.40147      2116.74700
    498563.43807  20536379.69007    388209.80549  20536376.72649      -526.10900
  -6096928.97306  22994975.92506  -4737319.23047  22994971.17547      3883.07500
  -3901910.90606  23718707.96406  -3039396.41047  23718704.01147      1003.35300
  -3139303.90607  21334990.23707  -2434665.33248  21334984.73348       371.52200
  -3339118.12105  23869609.37005  -2585874.38346  23869608.04246      3412.55300
   3956534.41007  22061106.99507   3074814.10948  22061103.74548     -2007.43700
 08 11  4  0 56 59.9990000  0  9  3  6 13 16 19 21 23 25 31
  -8125136.64107  20469979.43307  -6312616.44949  20469977.93749      2585.04500
  -5497005.88707  20297447.38607  -4267374.69949  20297445.94449      1478.43500
  -7139395.46107  22460699.04207  -5546389.97347  22460696.99147      2107.69000
    506506.25407  20537891.55007    394399.00849  20537888.31249      -529.52100
  -6155122.47306  22983902.47906  -4782664.80147  22983897.92947      3879.56700
  -3916854.36706  23715863.97206  -3051040.67647  23715860.71447       996.23100
  -3144721.75007  21333959.12007  -2438887.02748  21333953.60148       361.19000
  -3390294.41805  23859871.12805  -2625752.01247  23859869.12847      3411.75300
   3986721.50007  22066851.09707   3098336.48848  22066848.97248     -2012.47300
 08 11  4  0 57 14.9990000  0  9  3  6 13 16 19 21 23 25 31
  -8163795.91807  20462623.14407  -6342740.55549  20462621.85449      2577.28500
  -5519059.16007  20293250.58907  -4284559.05949  20293249.03049      1470.21800
  -7170874.44106  22454708.84706  -5570919.04747  22454706.24547      2098.59900
    514500.47707  20539412.69007    400628.26649  20539409.64449      -532.94800
  -6213262.69106  22972838.65106  -4827968.85947  22972833.37047      3876.01500
  -3931690.36306  23713040.90106  -3062601.19947  23713037.43747       989.06600
  -3149984.35507  21332957.69007  -2442987.75448  21332952.16748       350.84000
  -3441458.16005  23850134.96405  -2665619.84447  23850133.12447      3410.91600
   4016984.42607  22072610.00307   3121917.95748  22072607.70648     -2017.52800
 08 11  4  0 57 29.9990000  0  9  3  6 13 16 19 21 23 25 31
  -8202337.03508  20455289.12808  -6372772.59049  20455287.50749      2569.40800
  -5540987.47307  20289077.85407  -4301646.05549  20289076.28449      1461.88800
  -7202215.19906  22448745.40906  -5595340.43847  22448742.65147      2089.38400
    522547.54307  20540944.06507    406898.70349  20540940.71849      -536.47100
  -6271347.77307  22961785.10407  -4873229.95747  22961780.14047      3872.33900
  -3946417.22706  23710238.64406  -3074076.66047  23710235.20247       981.79100
  -3155089.93407  21331986.10407  -2446966.12948  21331980.94048       340.37200
  -3492607.63705  23840401.12005  -2705476.58647  23840399.64447      3409.96500
   4047324.60207  22078383.87807   3145559.63348  22078381.11648     -2022.67800
 08 11  4  0 57 44.9990000  0  9  3  6 13 16 19 21 23 25 31
  -8240763.13307  20447976.62807  -6402715.00449  20447975.06549      2561.74000
  -5562794.10207  20284928.37807  -4318638.23449  20284926.46849      1453.77500
  -7233420.96907  22442807.20607  -5619656.61347  22442804.28847      2080.38500
    530644.36707  20542484.76107    413207.92249  20542481.62449      -539.78800
  -6329380.62106  22950741.92506  -4918450.34047  22950737.25347      3868.85700
  -3961038.11306  23707456.80806  -3085469.56347  23707453.08547       974.72600
  -3160042.05507  21331043.34707  -2450824.92248  21331038.53448       330.14100
  -3543745.83605  23830669.75305  -2745324.50847  23830668.40947      3409.21300
   4077738.76207  22084171.45607   3169258.96948  22084169.12848     -2027.61100
 08 11  4  0 57 59.9990000  0  9  3  6 13 16 19 21 23 25 31
  -8279071.35907  20440686.67507  -6432565.55549  20440685.44849      2553.88200
  -5584476.55107  20280802.32307  -4335533.64549  20280800.38649      1445.49700
  -7264488.59007  22436895.01107  -5643865.14547  22436892.47247      2071.17500
    538793.28507  20544035.29207    419557.71549  20544031.90149      -543.26100
  -6387358.37906  22939708.53406  -4963627.80547  22939704.62847      3865.18400
  -3975550.13306  23704694.44006  -3096777.64147  23704691.31247       967.46800
  -3164838.02307  21330130.87007  -2454562.04748  21330126.36248       319.73100
  -3594869.79306  23820941.71406  -2785161.35947  23820939.71447      3408.26400
   4108229.44507  22089973.26107   3193017.93848  22089971.34748     -2032.71200
 08 11  4  0 58 14.9990000  0  9  3  6 13 16 19 21 23 25 31
  -8317261.58607  20433419.37807  -6462324.16848  20433417.80448      2546.01500
  -5606034.45707  20276699.89407  -4352332.01249  20276698.17149      1437.19400
  -7295417.97307  22431009.40107  -5667965.96147  22431006.85447      2061.95900
    546994.31607  20545595.85407    425948.12949  20545592.38249      -546.73500
  -6445280.80906  22928686.56506  -5008762.15647  22928682.25347      3861.49500
  -3989953.22706  23701953.62006  -3108000.83647  23701949.80847       960.20600
  -3169477.82007  21329247.98707  -2458177.47748  21329243.87048       309.32000
  -3645979.42205  23811216.30805  -2824987.03547  23811213.74147      3407.30900
   4138796.70307  22095789.89407   3216836.56648  22095788.27648     -2037.81700
 08 11  4  0 58 29.9990000  0  9  3  6 13 16 19 21 23 25 31
  -8355332.70307  20426174.66707  -6491989.96549  20426172.82349      2538.07400
  -5627466.81307  20272621.55807  -4369032.53949  20272619.58149      1428.82400
  -7326207.70307  22425149.97907  -5691957.96147  22425147.78847      2052.64900
    555248.39807  20547166.83907    432379.87149  20547162.83949      -550.27200
  -6503146.29306  22917674.97206  -5053852.13747  22917670.64747      3857.69900
  -4004246.07006  23699233.94006  -3119138.10547  23699230.29247       952.85600
  -3173960.37107  21328394.82307  -2461670.37948  21328390.77248       298.83700
  -3697073.39805  23801492.62005  -2864800.52047  23801490.34347      3406.26500
   4169441.30107  22101621.22207   3240715.45348  22101619.34748     -2042.97300
 08 11  4  0 58 44.9990000  0  9  3  6 13 16 19 21 23 25 31
  -8393286.29707  20418952.39407  -6521564.19549  20418950.58149      2530.24000
  -5648775.60907  20268566.45607  -4385636.79749  20268564.97649      1420.58600
  -7356859.48006  22419317.23706  -5715842.45747  22419314.07347      2043.45200
    563553.51207  20548747.26907    438851.38349  20548743.72649      -553.67400
  -6560956.59806  22906673.91706  -5098899.09847  22906669.71047      3854.02000
  -4018430.40606  23696535.22906  -3130190.83647  23696529.94047       945.62200
  -3178287.70707  21327571.21407  -2465042.33648  21327567.15148       288.48900
  -3748153.39505  23791772.44805  -2904603.12147  23791770.47647      3405.33300
   4200161.54307  22107467.33107   3264653.28548  22107465.85848     -2048.01600
 08 11  4  0 58 59.9990000  0  9  3  6 13 16 19 21 23 25 31
  -8431119.52307  20411753.39407  -6551044.63349  20411751.30449      2522.21500
  -5669958.09807  20264535.59707  -4402142.62549  20264534.09349      1412.16600
  -7387370.58206  22413510.46406  -5739617.34447  22413508.61647      2034.07300
    571912.05107  20550338.06507    445364.53149  20550334.20649      -557.23600
  -6618708.93006  22895684.26106  -5143900.89547  22895679.81947      3850.15500
  -4032503.52706  23693856.67506  -3141156.91447  23693853.23747       938.20800
  -3182457.30507  21326778.34707  -2468291.37548  21326773.49948       277.97300
  -3799216.67205  23782055.53405  -2944392.69147  23782053.42947      3404.21800
   4230959.77307  22113328.68307   3288651.87548  22113327.49148     -2053.21500
 08 11  4  0 59 14.9990000  0  9  3  6 13 16 19 21 23 25 31
  -8468834.21107  20404576.32307  -6580432.69548  20404573.29648      2514.31300
  -5691016.03107  20260528.05007  -4418551.39149  20260526.58149      1403.86200
  -7417742.55906  22407731.69806  -5763283.81347  22407729.49147      2024.79800
    580322.25807  20551938.20607    451917.94149  20551934.14449      -560.68000
  -6676404.70706  22884705.28406  -5188858.62548  22884700.85848      3846.38500
  -4046467.05506  23691199.76906  -3152037.59047  23691195.80447       930.90200
  -3186470.97707  21326014.19007  -2471418.92248  21326010.03048       267.57800
  -3850264.69105  23772341.93305  -2984170.34047  23772338.94847      3403.20100
   4261833.92607  22119203.84707   3312709.64548  22119202.77648     -2058.27700
 08 11  4  0 59 29.9990000  0  9  3  6 13 16 19 21 23 25 31
  -8506429.26207  20397422.19007  -6609727.54349  20397419.82349      2506.33700
  -5711948.53507  20256545.26907  -4434862.42649  20256543.28049      1395.50000
  -7447974.46106  22401978.69006  -5786841.13747  22401976.26547      2015.46000
    588784.87507  20553548.51107    458512.18049  20553544.87849      -564.17400
  -6734042.91406  22873736.77606  -5233771.50047  22873732.60147      3842.54700
  -4060320.07006  23688563.68306  -3162832.13747  23688560.48347       923.53400
  -3190328.01607  21325280.33107  -2474424.41448  21325275.74148       257.13600
  -3901296.47305  23762630.68305  -3023935.36747  23762627.84347      3402.11900
   4292784.88707  22125093.68307   3336827.27348  22125091.93348     -2063.39700
 08 11  4  0 59 44.9990000  0  9  3  6 13 16 19 21 23 25 31
  -8543905.59807  20390290.37007  -6638929.87949  20390288.85449      2498.42200
  -5732756.80907  20252585.54207  -4451076.65649  20252583.34749      1387.21800
  -7478067.00406  22396252.43306  -5810289.85247  22396249.92547      2006.17000
    597298.78107  20555168.80807    465146.39149  20555165.49149      -567.59400
  -6791624.37906  22862779.47906  -5278640.17247  22862775.00747      3838.76400
  -4074063.48006  23685948.54206  -3173541.26247  23685945.31547       916.22700
  -3194029.36307  21324576.05007  -2477308.57848  21324570.98348       246.75700
  -3952312.82405  23752922.26905  -3063688.34447  23752919.77647      3401.09000
   4323811.51607  22130997.15107   3361003.86748  22130995.84748     -2068.44200
 08 11  4  0 59 59.9990000  0  9  3  6 13 16 19 21 23 25 31
  -8581260.97307  20383182.07307  -6668037.94949  20383179.94849      2490.35800
  -5753438.62907  20248649.75307  -4467192.35949  20248647.46049      1378.78800
  -7508017.87506  22390552.96406  -5833628.20347  22390550.64047      1996.72500
    605865.89507  20556799.22207    471822.05949  20556796.23349      -571.14100
  -6849146.61706  22851833.05006  -5323462.69547  22851829.26547      3834.81600
  -4087694.86306  23683354.73706  -3184163.10547  23683351.20247       908.75900
  -3197573.11307  21323901.59707  -2480069.94148  21323896.71848       236.25000
  -4003311.52005  23743217.85405  -3103427.57447  23743214.99147      3399.91300
   4354915.85207  22136916.27607   3385240.99248  22136914.57748     -2073.62200
 08 11  4  1  0 14.9990000  0  9  3  6 13 16 19 21 23 25 31
  -8618496.18807  20376096.60407  -6697052.40249  20376094.17149      2482.34800
  -5773995.07007  20244738.07307  -4483210.35549  20244736.37849      1370.42900
  -7537827.85906  22384879.94806  -5856856.76247  22384877.53047      1987.33200
    614485.26207  20558439.56507    478538.44949  20558436.45249      -574.62400
  -6906610.28506  22840898.19006  -5368239.57847  22840894.15947      3830.91100
  -4101215.11706  23680781.95606  -3194698.36347  23680778.38647       901.35000
  -3200960.28907  21323257.37007  -2482709.30548  21323252.50348       225.81200
  -4054293.23805  23733516.28405  -3143153.59047  23733513.59747      3398.78100
   4386096.82407  22142849.90907   3409537.83248  22142848.80848     -2078.73200
 08 11  4  1  0 29.9990000  0  9  3  6 13 16 19 21 23 25 31
  -8655610.52707  20369033.33907  -6725972.66449  20369031.97249      2474.28900
  -5794425.42207  20240850.36207  -4499130.10549  20240848.72949      1362.02300
  -7567496.40606  22379234.32306  -5879975.09847  22379231.61247      1977.90300
    623157.05507  20560089.30007    485295.68449  20560086.16749      -578.12000
  -6964014.68806  22829974.49506  -5412970.26248  22829971.47248      3826.96000
  -4114623.58206  23678229.77606  -3205146.51247  23678226.92947       893.89800
  -3204190.46907  21322642.67507  -2485226.33248  21322638.45248       215.34500
  -4105257.30105  23723818.39405  -3182865.83247  23723815.72647      3397.60400
   4417354.80107  22148797.67507   3433894.68048  22148797.32348     -2083.86500
 08 11  4  1  0 44.9990000  0  9  3  6 13 16 19 21 23 25 31
  -8692604.75807  20361994.13607  -6754799.33249  20361992.78449      2466.28200
  -5814730.55107  20236986.04207  -4514952.27749  20236984.33949      1353.67500
  -7597023.96506  22373615.37806  -5902983.59447  22373613.23747      1968.50400
    631880.52307  20561749.47207    492093.18449  20561746.18749      -581.56500
  -7021360.53106  22819061.55806  -5457655.32447  22819059.04647      3823.05600
  -4127921.02306  23675699.01106  -3215508.15247  23675696.41747       886.49600
  -3207264.53907  21322057.36207  -2487621.71548  21322052.72648       204.93800
  -4156204.35505  23714123.30805  -3222564.81347  23714120.66747      3396.47000
   4448688.84406  22154760.56506   3458310.79348  22154759.33148     -2088.93600
 08 11  4  1  0 59.9990000  0  9  3  6 13 16 19 21 23 25 31
  -8729479.34007  20354977.19007  -6783532.76649  20354976.18749      2458.30500
  -5834910.97707  20233146.06507  -4530677.27349  20233145.05449      1345.36200
  -7626410.92606  22368022.98706  -5925882.52047  22368021.35447      1959.13100
    640654.87907  20563419.13607    498930.34049  20563416.10149      -584.95700
  -7078648.02306  22808160.33106  -5502294.91047  22808157.57747      3819.16600
  -4141107.87106  23673190.08906  -3225783.60947  23673186.85447       879.12300
  -3210183.11707  21321502.02607  -2489895.92648  21321497.40148       194.57200
  -4207134.78905  23704431.37805  -3262250.85547  23704428.30447      3395.36200
   4480098.30506  22160737.91706   3482785.67248  22160736.40148     -2093.96400
 08 11  4  1  1 14.9990000  0  9  3  6 13 16 19 21 23 25 31
  -8766232.99607  20347983.05007  -6812171.96949  20347981.87449      2450.24400
  -5854965.78507  20229329.22907  -4546304.40249  20229328.05049      1336.98700
  -7655656.16006  22362458.13606  -5948671.01647  22362455.61647      1949.68200
    649481.09007  20565099.00307    505807.90249  20565095.34749      -588.41400
  -7135875.84406  22797270.21406  -5546888.00047  22797267.24947      3815.18800
  -4154183.00006  23670701.97206  -3235972.03547  23670698.80047       871.67500
  -3212945.21107  21320976.18307  -2492048.20748  21320971.78448       184.14000
  -4258047.34805  23694743.01905  -3301922.94547  23694739.82347      3394.17100
   4511584.02706  22166729.34706   3507319.98448  22166727.71448     -2099.04800
 08 11  4  1  1 29.9990000  0  9  3  6 13 16 19 21 23 25 31
  -8802864.94907  20341012.54207  -6840716.34849  20341011.28849      2442.13000
  -5874894.20307  20225537.22907  -4561833.03149  20225535.81949      1328.56100
  -7684758.66006  22356920.19006  -5971348.29747  22356917.33547      1940.16700
    658359.71507  20566788.40907    512726.31649  20566785.40549      -591.90800
  -7193043.08606  22786391.47206  -5591433.88747  22786388.30847      3811.14900
  -4167145.47706  23668235.16706  -3246072.66047  23668231.42947       864.16500
  -3215550.15207  21320480.97207  -2494078.04348  21320476.21848       173.66300
  -4308941.02705  23685057.90905  -3341580.33647  23685055.67547      3392.91200
   4543146.74607  22172736.15107   3531914.30148  22172733.12848     -2104.18100
 08 11  4  1  1 44.9990000  0  9  3  6 13 16 19 21 23 25 31
  -8839374.57807  20334064.60407  -6869165.41449  20334063.23349      2433.97500
  -5894695.64807  20221769.17507  -4577262.74249  20221767.90949      1320.09600
  -7713717.71506  22351409.61206  -5993913.79747  22351407.08947      1930.60400
    667291.43807  20568488.08907    519686.10549  20568484.85849      -595.44800
  -7250149.03506  22775525.12006  -5635932.03547  22775520.38647      3807.06300
  -4179994.56306  23665789.85406  -3256084.93447  23665787.30447       856.60600
  -3217997.55507  21320015.22907  -2495985.10948  21320010.27648       163.16000
  -4359815.10205  23675376.90905  -3381222.44147  23675374.80447      3391.60500
   4574786.89106  22178756.16706   3556568.95348  22178754.47948     -2109.34300
 08 11  4  1  1 59.9990000  0  9  3  6 13 16 19 21 23 25 31
  -8875763.23007  20327140.24507  -6897520.19949  20327139.27649      2425.91000
  -5914371.70707  20218025.09707  -4592594.73049  20218023.42149      1311.73700
  -7742534.71506  22345925.72206  -6016368.60947  22345923.84347      1921.13300
    676274.28907  20570197.37807    526685.72349  20570194.08949      -598.85700
  -7307194.76606  22764669.95606  -5680383.24647  22764664.40147      3803.04900
  -4192731.83205  23663366.37805  -3266010.07847  23663362.82347       849.15100
  -3220288.97307  21319579.46407  -2497770.62948  21319574.14448       152.76100
  -4410671.03505  23665699.13605  -3420850.41847  23665697.08147      3390.39600
   4606502.71106  22184791.83906   3581282.57448  22184789.84748     -2114.38800
 08 11  4  1  2 14.9990000  0  9  3  6 13 16 19 21 23 25 31
  -8912030.80507  20320238.64407  -6925780.66049  20320237.98349      2417.83800
  -5933922.38307  20214304.74507  -4607829.02349  20214303.40549      1303.37800
  -7771209.70706  22340468.64406  -6038712.74647  22340467.06547      1911.66600
    685308.21507  20571916.51107    533725.14849  20571912.74149      -602.26200
  -7364180.32006  22753825.24506  -5724787.57047  22753820.00747      3799.03700
  -4205357.27705  23660964.00305  -3275848.08247  23660960.76547       841.69600
  -3222424.73807  21319172.69807  -2499434.86748  21319167.66348       142.38400
  -4461508.60505  23656024.71405  -3460464.07447  23656023.19047      3389.17100
   4638294.07006  22190841.58906   3606055.04348  22190839.23348     -2119.42400
 08 11  4  1  2 29.9990000  0  9  3  6 13 16 19 21 23 25 31
  -8948176.73407  20313360.40107  -6953946.31349  20313358.68349      2409.72900
  -5953347.22307  20210608.01907  -4622965.26249  20210606.79249      1294.98900
  -7799741.86706  22335039.69006  -6060945.59047  22335038.10447      1902.14400
    694393.59807  20573645.64407    540804.65649  20573642.01949      -605.69200
  -7421104.77006  22742992.46406  -5769144.27047  22742987.25347      3794.96300
  -4217870.16806  23658582.75306  -3285598.36347  23658579.87847       834.19300
  -3224404.39807  21318795.92507  -2500977.46548  21318791.56948       131.97700
  -4512327.10505  23646355.51105  -3500062.89547  23646352.39747      3387.90000
   4670161.37506  22196905.80806   3630886.68048  22196903.52248     -2124.48700
 08 11  4  1  2 44.9990000  0  9  3  6 13 16 19 21 23 25 31
  -8984200.42607  20306505.51907  -6982016.72349  20306503.57749      2401.57900
  -5972645.68007  20206936.03407  -4638003.02749  20206934.44049      1286.56400
  -7828130.37106  22329637.14406  -6083066.49647  22329635.65547      1892.56700
    703530.92207  20575384.08907    547924.64849  20575380.35149      -609.15500
  -7477967.34006  22732172.30806  -5813452.74647  22732167.62047      3790.83800
  -4230269.93806  23656223.64406  -3295260.51647  23656221.19847       826.65100
  -3226227.35507  21318448.79207  -2502397.94948  21318444.56248       121.53000
  -4563125.84405  23636688.54205  -3539646.32047  23636685.45647      3386.58300
   4702105.05107  22202984.28407   3655777.84048  22202982.05848     -2129.57800
 08 11  4  1  2 59.9990000  0  9  3  6 13 16 19 21 23 25 31
  -9020101.30507  20299673.44007  -7009991.43849  20299671.52649      2393.39200
  -5991817.74207  20203287.89407  -4652942.29349  20203285.97249      1278.13800
  -7856375.21106  22324262.47206  -6105075.45747  22324260.56547      1882.98900
    712720.12507  20577132.82307    555085.06349  20577129.38249      -612.61400
  -7534767.71906  22721363.79206  -5857712.75847  22721358.94047      3786.69200
  -4242556.27006  23653885.24506  -3304834.28547  23653883.31247       819.08900
  -3227893.70307  21318132.02607  -2503696.41048  21318127.42148       111.09000
  -4613904.50405  23627024.76905  -3579214.11347  23627023.42547      3385.24400
   4734125.03106  22209077.33906   3680728.45348  22209075.20648     -2134.66500
 08 11  4  1  3 14.9990000  0  9  3  6 13 16 19 21 23 25 31
  -9055880.77707  20292864.84707  -7037871.54749  20292863.44849      2385.29800
  -6010864.57007  20199663.47207  -4667783.97349  20199661.60449      1269.78900
  -7884477.09006  22318914.58106  -6126973.01647  22318912.87447      1873.45900
    721959.92607  20578890.68307    562284.90649  20578887.75349      -615.98700
  -7591506.84406  22710566.38606  -5901925.03947  22710562.10847      3782.60800
  -4254730.19506  23651569.09706  -3314320.47347  23651566.78447       811.59500
  -3229404.75407  21317844.06507  -2504873.84848  21317839.73748       100.73700
  -4664664.04705  23617366.54205  -3618766.99647  23617363.71847      3383.97000
   4766219.99206  22215184.85406   3705737.48848  22215183.02648     -2139.66400
 08 11  4  1  3 29.9990000  0  9  3  6 13 16 19 21 23 25 31
  -9091538.99607  20286079.17507  -7065657.17249  20286077.85149      2377.21500
  -6029786.48807  20196062.66707  -4682528.32449  20196060.78049      1261.46100
  -7912436.29706  22313594.25306  -6148759.41847  22313592.90947      1863.94700
    731249.73007  20580658.55007    569523.71149  20580655.84749      -619.32000
  -7648184.86706  22699780.30806  -5946089.70747  22699777.14747      3778.53500
  -4266791.96505  23649273.12805  -3323719.23447  23649270.68747       804.11800
  -3230760.95707  21317586.44007  -2505930.62148  21317582.38648        90.41400
  -4715404.73805  23607710.65905  -3658305.18447  23607708.34347      3382.71300
   4798389.47706  22221306.49506   3730804.60248  22221304.20248     -2144.63200
 08 11  4  1  3 44.9990000  0  9  3  6 13 16 19 21 23 25 31
  -9127077.83607  20279316.31507  -7093349.75849  20279314.98349      2369.25600
  -6048585.63707  20192485.26907  -4697177.00449  20192482.73749      1253.27700
  -7940255.04706  22308300.74506  -6170436.35247  22308299.20647      1854.58300
    740587.46907  20582435.72907    576799.86349  20582432.64749      -622.51600
  -7704803.56306  22689006.58906  -5990208.15247  22689003.12047      3774.58000
  -4278743.49206  23646999.22206  -3333032.11347  23646995.31947       796.76800
  -3231964.31307  21317356.81507  -2506868.30948  21317353.08548        80.22400
  -4766128.26605  23598057.99505  -3697829.98847  23598055.84347      3381.56800
   4830631.27007  22227441.93307   3755928.05548  22227439.50748     -2149.45300
 08 11  4  1  3 59.9990000  0  9  3  6 13 16 19 21 23 25 31
  -9162497.24207  20272576.60407  -7120949.29349  20272574.54249      2361.29400
  -6067261.83607  20188931.20607  -4711729.87549  20188928.81949      1245.08000
  -7967932.65607  22303034.30007  -6192003.32447  22303032.21847      1845.17400
    749973.11307  20584221.55007    584113.35249  20584218.58549      -625.71000
  -7761362.58206  22678243.47206  -6034280.11347  22678239.92147      3770.60100
  -4290584.54306  23644745.48706  -3342258.90247  23644742.27647       789.40300
  -3233015.05107  21317156.95607  -2507687.06348  21317153.11648        70.04900
  -4816834.45305  23588409.05805  -3737341.30947  23588407.14047      3380.41200
   4862945.31607  22233591.60407   3781107.80948  22233588.80848     -2154.27000
 08 11  4  1  4 14.9990000  0  9  3  6 13 16 19 21 23 25 31
  -9197791.93007  20265860.26107  -7148451.65249  20265858.18349      2352.97900
  -6085810.07007  20185401.62007  -4726183.03949  20185399.21449      1236.54900
  -7995464.01206  22297795.06506  -6213456.32447  22297793.01947      1835.42400
    759411.66007  20586018.07307    591468.06649  20586014.14749      -629.23600
  -7817856.62106  22667493.55006  -6078301.43047  22667489.42147      3766.26900
  -4302310.16806  23642514.58106  -3351395.74647  23642510.98747       781.70800
  -3233908.13707  21316987.16707  -2508382.97748  21316983.01148        59.53900
  -4867517.94505  23578764.33905  -3776834.92247  23578762.55847      3378.89900
   4895336.69907  22239755.37007   3806347.82848  22239752.25748     -2159.42600
 08 11  4  1  4 29.9990000  0  9  3  6 13 16 19 21 23 25 31
  -9232964.67207  20259167.04207  -7175858.96949  20259165.61249      2344.84900
  -6104233.38707  20181895.79207  -4740538.87949  20181893.17549      1228.22100
  -8022851.82806  22292583.40906  -6234797.48847  22292581.73747      1825.85400
    768899.99607  20587823.46407    598861.56649  20587820.08549      -632.55600
  -7874288.44506  22656755.59706  -6122274.28947  22656750.55447      3762.12200
  -4313923.15206  23640304.48706  -3360444.82047  23640301.38647       774.19900
  -3234646.78507  21316846.68307  -2508958.55148  21316842.23348        49.24300
  -4918181.61705  23569123.40905  -3816313.10947  23569121.86647      3377.57800
   4927802.20306  22245933.33106   3831645.60948  22245929.99548     -2164.36700
 08 11  4  1  4 44.9990000  0  9  3  6 13 16 19 21 23 25 31
  -9268015.34007  20252496.99507  -7203171.18049  20252495.64749      2336.71100
  -6122531.91407  20178413.72907  -4754797.45349  20178411.37449      1219.90200
  -8050096.04306  22287398.74506  -6256026.73847  22287396.83147      1816.28100
    778438.04707  20589638.52607    606293.80949  20589635.46449      -635.87000
  -7930657.82806  22646028.36206  -6166198.48047  22646023.67547      3757.95900
  -4325423.21506  23638116.20606  -3369405.90647  23638113.41747       766.67100
  -3235230.88307  21316735.57307  -2509413.68448  21316731.13248        38.94000
  -4968825.24605  23559486.22205  -3855775.66047  23559484.42147      3376.24200
   4960341.66406  22252125.38606   3857001.02048  22252121.91348     -2169.29700
 08 11  4  1  4 59.9990000  0  9  3  6 13 16 19 21 23 25 31
  -9302943.46907  20245850.37807  -7230387.90249  20245848.36249      2328.54200
  -6140705.07807  20174955.31507  -4768958.35549  20174953.07349      1211.54400
  -8077196.25406  22282241.83106  -6277143.80547  22282240.28847      1806.68100
    788026.10207  20591462.82307    613765.01249  20591459.65149      -639.20400
  -7986963.99606  22635313.92506  -6210073.41048  22635309.57748      3753.74500
  -4336810.04706  23635949.57306  -3378278.75447  23635946.79247       759.12200
  -3235660.21907  21316653.73707  -2509748.23448  21316649.56548        28.62200
  -5019448.05905  23549853.20605  -3895221.98047  23549851.16347      3374.85400
   4992955.37506  22258331.55006   3882414.27348  22258328.35448     -2174.24700
 08 11  4  1  5 14.9990000  0  9  3  6 13 16 19 21 23 25 31
  -9337750.27307  20239226.87007  -7257510.08249  20239224.37449      2320.45400
  -6158754.12907  20171520.69007  -4783022.55149  20171518.19849      1203.27000
  -8104153.25806  22277111.86206  -6298149.27047  22277109.76947      1797.13400
    797662.78107  20593296.72207    621274.10549  20593294.19849      -642.44500
  -8043207.99606  22624610.55006  -6253899.88748  22624606.52248      3749.60000
  -4348084.63306  23633803.66706  -3387064.13747  23633801.30447       751.63900
  -3235936.09407  21316601.44007  -2509963.20348  21316597.09348        18.39200
  -5070051.24205  23540223.32305  -3934653.01647  23540221.71447      3373.54600
   5025642.08206  22264551.45606   3907884.42648  22264548.81548     -2179.11400
 08 11  4  1  5 29.9990000  0  9  3  6 13 16 19 21 23 25 31
  -9372434.89507  20232626.85407  -7284537.06349  20232624.43749      2312.30800
  -6176678.23807  20168109.80007  -4796989.37549  20168107.99549      1194.94100
  -8130966.12506  22272008.82306  -6319042.40647  22272007.67547      1787.52400
    807348.67607  20595139.85407    628821.55549  20595136.86649      -645.72600
  -8099388.81306  22613919.56506  -6297677.12548  22613915.81548      3745.38800
  -4359246.23406  23631679.64406  -3395761.44547  23631676.97947       744.10700
  -3236057.98007  21316578.03407  -2510058.18448  21316574.29648         8.12600
  -5120633.80105  23530598.02605  -3974067.97347  23530596.78447      3372.17100
   5058402.51606  22270785.58906   3933412.01248  22270783.26548     -2184.02900
 08 11  4  1  5 44.9990000  0  9  3  6 13 16 19 21 23 25 31
  -9406996.54307  20226050.19007  -7311468.20349  20226047.58149      2304.11000
  -6194476.86707  20164722.94807  -4810858.42649  20164720.57349      1186.57500
  -8157634.16406  22266934.65906  -6339822.70347  22266932.74947      1777.86900
    817084.47707  20596992.81507    636407.89549  20596989.51149      -649.05300
  -8155505.64106  22603241.21406  -6341404.51248  22603237.54648      3741.12200
  -4370293.89506  23629577.24506  -3404369.99647  23629575.17547       736.51100
  -3236025.25407  21316584.49507  -2510032.68048  21316580.49148        -2.18200
  -5171194.88305  23520976.35405  -4013466.20347  23520975.25747      3370.73900
   5091237.21906  22277033.68306   3958997.47348  22277032.45248     -2188.98000
 08 11  4  1  5 59.9990000  0  9  3  6 13 16 19 21 23 25 31
  -9441434.04307  20219496.77607  -7338302.61749  20219494.27249      2295.83300
  -6212149.19507  20161359.99507  -4824629.07449  20161357.22949      1178.15500
  -8184156.19105  22261887.58905  -6360489.22747  22261885.96847      1768.13500
    826871.04707  20598855.23707    644033.78949  20598851.15949      -652.43800
  -8211557.20706  22592574.99506  -6385081.04748  22592571.43748      3736.77100
  -4381226.62906  23627496.27606  -3412889.00447  23627493.54247       728.84900
  -3235837.34407  21316619.94007  -2509886.25848  21316616.60448       -12.52700
  -5221733.25005  23511359.54205  -4052846.73447  23511358.65547      3369.22400
   5124146.84806  22283296.60406   3984641.32048  22283294.74948     -2193.97500
 08 11  4  1  6 14.9990000  0  9  3  6 13 16 19 21 23 25 31
  -9475746.05107  20212967.26907  -7365039.23849  20212964.94049      2287.46700
  -6229694.00007  20158021.30807  -4838300.34449  20158019.04649      1169.65400
  -8210530.89506  22256868.70606  -6381040.94547  22256867.18347      1758.31400
    836709.32407  20600727.28407    651699.98049  20600723.47249      -655.88500
  -8267542.07806  22581921.41706  -6428705.60948  22581917.67148      3732.32500
  -4392043.18006  23625438.22206  -3421317.47347  23625435.62047       721.10300
  -3235492.61707  21316685.81507  -2509617.64848  21316682.03048       -22.98200
  -5272247.60205  23501746.85405  -4092208.55947  23501745.70247      3367.62300
   5157132.48806  22289572.87006   4010344.39148  22289571.85448     -2199.04300
 08 11  4  1  6 29.9990000  0  9  3  6 13 16 19 21 23 25 31
  -9509932.98007  20206461.70607  -7391678.39149  20206458.94049      2279.12900
  -6247111.75808  20154706.77608  -4851872.61349  20154705.04649      1161.18400
  -8236758.70706  22251877.79206  -6401478.20347  22251876.03447      1748.52100
    846598.75407  20602608.91707    659406.03549  20602605.44449      -659.29500
  -8323460.45706  22571280.38606  -6472278.35548  22571276.93348      3727.89200
  -4402743.93006  23623402.40106  -3429655.70347  23623399.22247       713.38300
  -3234991.84007  21316780.94807  -2509227.43448  21316776.92948       -33.38500
  -5322738.18005  23492138.98705  -4131551.86747  23492138.12847      3366.03900
   5190193.58606  22295864.55806   4036106.26648  22295862.94848     -2204.07300
 08 11  4  1  6 44.9990000  0  9  3  6 13 16 19 21 23 25 31
  -9543995.86308  20199979.89408  -7418220.88749  20199977.12449      2270.85900
  -6264403.72707  20151416.35407  -4865346.87149  20151414.85449      1152.79800
  -8262840.58206  22246914.58906  -6421801.73047  22246912.39747      1738.79200
    856538.04707  20604500.36207    667150.93449  20604497.23349      -662.62000
  -8379313.53106  22560651.57306  -6515800.22348  22560647.94048      3723.53800
  -4413330.07006  23621388.01106  -3437904.64847  23621384.91747       705.74300
  -3234336.48807  21316906.01107  -2508716.77748  21316901.17548       -43.69000
  -5373206.03106  23482535.54206  -4170877.46147  23482533.99547      3364.52300
   5223328.80506  22302170.76106   4061925.90248  22302168.43348     -2209.01500
 08 11  4  1  6 59.9990000  0  9  3  6 13 16 19 21 23 25 31
  -9577932.96908  20193521.96408  -7444665.37949  20193518.85149      2262.47400
  -6281567.98407  20148149.83907  -4878721.61749  20148148.21449      1144.28400
  -8288774.50406  22241978.87006  -6442009.98047  22241977.43347      1728.92800
    866529.02707  20606401.65107    674936.10949  20606399.09349      -666.06500
  -8435098.93406  22550036.26106  -6559269.36748  22550032.42948      3719.02700
  -4423799.59806  23619395.89406  -3446062.71147  23619393.52247       697.96800
  -3233524.94107  21317060.04207  -2508084.41048  21317055.53448       -54.10300
  -5423649.04306  23472936.19006  -4210183.69547  23472934.40147      3362.86700
   5256539.85206  22308490.51106   4087804.62948  22308487.85848     -2214.07000
 08 11  4  1  7 14.9990000  0  9  3  6 13 16 19 21 23 25 31
  -9611744.65608  20187087.69808  -7471012.14849  20187085.31249      2254.11300
  -6298605.21507  20144908.04207  -4891997.38749  20144905.99949      1135.81500
  -8314560.94905  22237072.27605  -6462103.33247  22237070.77647      1719.09600
    876570.95307  20608312.46407    682760.97749  20608309.72649      -669.46200
  -8490817.02006  22539432.99506  -6602686.03148  22539429.18348      3714.53900
  -4434152.89506  23617425.69806  -3454130.21947  23617422.74147       690.22000
  -3232557.72707  21317244.25307  -2507330.73448  21317239.68348       -64.48100
  -5474067.49206  23463341.62006  -4249470.78147  23463339.61247      3361.23000
   5289826.00806  22314823.72906   4113741.89548  22314821.76548     -2219.07700
 08 11  4  1  7 29.9990000  0  9  3  6 13 16 19 21 23 25 31
  -9645431.94108  20180677.21408  -7497261.98449  20180674.94449      2245.81900
  -6315516.47307  20141689.48707  -4905174.99249  20141687.94849      1127.41700
  -8340200.87106  22232193.36206  -6482082.49247  22232191.52647      1709.32800
    886662.66007  20610232.87807    690624.63749  20610230.03049      -672.78000
  -8546468.71506  22528843.22906  -6646050.98048  22528839.42948      3710.11300
  -4444390.93006  23615477.12806  -3462107.88747  23615474.74147       682.53600
  -3231436.12907  21317457.82307  -2506456.77348  21317452.72948       -74.77300
  -5524462.38706  23453752.47206  -4288739.51647  23453750.18747      3359.66000
   5323185.94106  22321172.09706   4139736.62948  22321169.94448     -2223.99600
 08 11  4  1  7 44.9990000  0  9  3  6 13 16 19 21 23 25 31
  -9678993.40608  20174290.65108  -7523413.77049  20174288.54249      2237.43100
  -6332300.64807  20138495.76107  -4918253.56349  20138494.08549      1118.94500
  -8365692.78106  22227342.16706  -6501946.30947  22227340.58147      1699.46100
    896805.21107  20612163.19007    698527.92649  20612160.07749      -676.17000
  -8602052.60206  22518265.70606  -6689363.07848  22518262.50348      3705.59200
  -4454512.43406  23613551.01106  -3469994.76647  23613548.57347       674.76700
  -3230159.01207  21317701.01107  -2505461.62148  21317695.71448       -85.14100
  -5574832.23406  23444167.51106  -4327988.73847  23444164.87447      3357.99000
   5356620.88706  22327534.55006   4165789.80948  22327532.27248     -2228.99600
 08 11  4  1  7 59.9990000  0  9  3  6 13 16 19 21 23 25 31
  -9712430.35208  20167927.76108  -7549468.52749  20167926.08949      2229.13000
  -6348959.21107  20135325.88607  -4931234.25049  20135324.26149      1110.57100
  -8391037.95706  22222519.06506  -6521695.79747  22222517.68747      1689.67800
    906996.95707  20614102.64407    706469.54349  20614099.17949      -679.45000
  -8657569.74206  22507701.43306  -6732623.16448  22507697.65948      3701.14300
  -4464519.03106  23611646.50306  -3477792.09447  23611645.03447       667.10700
  -3228728.02707  21317973.77607  -2504346.58248  21317968.76948       -95.39900
  -5625178.28106  23434586.61206  -4367219.41447  23434584.58947      3356.40300
   5390129.23406  22333911.54206   4191900.19948  22333908.53848     -2233.89000
 08 11  4  1  8 14.9990000  0  9  3  6 13 16 19 21 23 25 31
  -9745741.40208  20161588.63608  -7575425.18449  20161587.30449      2220.73700
  -6365491.10908  20132180.26908  -4944116.24649  20132178.21849      1102.12700
  -8416235.26206  22217724.76906  -6541330.04747  22217722.17947      1679.82000
    917239.06307  20616051.37007    714450.41849  20616047.91349      -682.80700
  -8713018.84406  22497149.95606  -6775830.23848  22497145.97648      3696.60700
  -4474409.29706  23609764.31506  -3485498.80947  23609762.53447       659.35100
  -3227142.17207  21318275.00307  -2503110.84848  21318270.83148      -105.72400
  -5675499.19506  23425010.44006  -4406430.51647  23425008.76547      3354.72800
   5423712.05907  22340301.87007   4218068.61348  22340299.23748     -2238.85500
 08 11  4  1  8 29.9990000  0  9  3  6 13 16 19 21 23 25 31
  -9778926.75808  20155273.81508  -7601283.90249  20155272.19049      2212.35700
  -6381896.05507  20129058.26107  -4956899.32049  20129056.05449      1093.66300
  -8441284.62506  22212957.80806  -6560849.03547  22212955.31547      1669.95800
    927531.39107  20618009.72907    722470.41449  20618007.10449      -686.15500
  -8768399.59406  22486611.25306  -6818984.04748  22486606.95648      3692.05000
  -4484182.89106  23607905.07306  -3493114.59047  23607901.94047       651.57300
  -3225401.46107  21318605.96407  -2501754.45748  21318601.96848      -116.04700
  -5725794.72305  23415439.26905  -4445621.81347  23415437.67147      3353.03500
   5457369.21907  22346706.64407   4244294.97348  22346704.07748     -2243.81100
 08 11  4  1  8 44.9990000  0  9  3  6 13 16 19 21 23 25 31
  -9811985.11708  20148982.97908  -7627043.65249  20148981.54649      2203.89100
  -6398173.27007  20125960.80007  -4969582.86349  20125958.91349      1085.14800
  -8466184.49206  22208220.08906  -6580251.52047  22208217.65147      1659.99100
    937874.94907  20619978.39407    730530.32449  20619975.91749      -689.57100
  -8823710.88706  22476085.72906  -6862083.74248  22476081.92548      3687.42000
  -4493838.69106  23606067.54206  -3500638.59847  23606064.79247       643.72000
  -3223504.91007  21318966.80807  -2500276.63748  21318962.65948      -126.43700
  -5776063.61305  23405873.65105  -4484792.36347  23405872.03847      3351.25900
   5491101.59807  22353125.44807   4270579.89848  22353122.78048     -2248.82500
 08 11  4  1  8 59.9990000  0  9  3  6 13 16 19 21 23 25 31
  -9844919.23408  20142715.73708  -7652706.59849  20142713.95649      2195.60800
  -6414325.58207  20122886.92507  -4982169.07449  20122885.16349      1076.82100
  -8490937.59006  22203509.16706  -6599539.65647  22203507.06547      1650.20700
    948267.02707  20621955.96407    738628.04349  20621953.18349      -692.80500
  -8878955.10906  22465573.23706  -6905131.17248  22465568.87048      3682.94800
  -4503379.38706  23604251.47206  -3508072.89147  23604249.23747       636.04600
  -3221455.48407  21319356.92507  -2498679.69548  21319352.81548      -136.62800
  -5826308.42206  23396312.92506  -4523944.14147  23396310.34747      3349.65400
   5524906.32807  22359558.99507   4296921.22348  22359556.46048     -2253.64900
 08 11  4  1  9 14.9990000  0  9  3  6 13 16 19 21 23 25 31
  -9877728.89508  20136472.19008  -7678272.55949  20136470.50349      2187.31100
  -6430352.76207  20119837.15107  -4994657.78149  20119835.34349      1068.47900
  -8515543.80106  22198827.00306  -6618713.31647  22198823.87047      1640.41400
    958707.59407  20623942.47207    746763.53949  20623940.13249      -696.03800
  -8934131.64506  22455072.72906  -6948125.85948  22455069.00748      3678.43600
  -4512804.78906  23602458.48706  -3515417.35247  23602455.84347       628.36000
  -3219253.11307  21319775.80007  -2496963.57048  21319772.17948      -146.82500
  -5876528.67206  23386755.62006  -4563076.79747  23386753.86247      3348.01700
   5558783.40207  22366005.76107   4323318.93048  22366003.00748     -2258.47200
 08 11  4  1  9 29.9990000  0  9  3  6 13 16 19 21 23 25 31
  -9910414.10908  20130252.52608  -7703741.55949  20130250.73349      2179.01400
  -6446255.15207  20116811.00307  -5007049.26249  20116808.77649      1060.15900
  -8540003.19506  22194172.14406  -6637772.58647  22194169.52647      1630.62600
    969196.05107  20625938.62007    754936.36349  20625935.88249      -699.23000
  -8989240.76606  22444586.52606  -6991068.01248  22444582.08548      3673.94100
  -4522115.15206  23600687.08106  -3522672.18047  23600684.06247       620.69100
  -3216898.37107  21320223.91707  -2495128.72748  21320219.82748      -156.98300
  -5926724.50806  23377203.49506  -4602190.40647  23377202.14747      3346.38900
   5592732.48007  22372466.01107   4349772.73048  22372463.55048     -2263.27200
 08 11  4  1  9 44.9990000  0  9  3  6 13 16 19 21 23 25 31
  -9942974.38308  20124056.47208  -7729113.19549  20124054.39749      2170.68500
  -6462032.41407  20113808.40907  -5019343.21949  20113806.40549      1051.81700
  -8564315.39106  22189546.11206  -6656717.15247  22189542.81247      1620.81300
    979732.78907  20627943.36207    763146.82049  20627940.77249      -702.44900
  -9044281.74206  22434112.71406  -7033957.07048  22434107.94848      3669.39800
  -4531310.05506  23598937.15906  -3529837.03947  23598933.94047       612.99300
  -3214390.95707  21320700.90107  -2493174.91848  21320696.84748      -167.16100
  -5976895.34006  23367657.31506  -4641284.53947  23367654.33947      3344.72200
   5626753.76607  22378940.10407   4376282.80948  22378937.67548     -2268.08600
 08 11  4  1  9 59.9990000  0  9  3  6 13 16 19 21 23 25 31
  -9975408.65608  20117884.32308  -7754386.64849  20117882.74549      2162.28500
  -6477683.62507  20110830.32307  -5031538.96549  20110828.23349      1043.41400
  -8588478.94506  22184947.90906  -6675545.91047  22184945.16747      1610.90400
    990318.74607  20629957.97907    771395.61749  20629954.91749      -705.73000
  -9099253.44106  22423651.80806  -7076792.16048  22423647.13248      3664.78000
  -4540388.26205  23597209.45605  -3536910.94947  23597206.15147       605.21400
  -3211729.93007  21321207.60407  -2491101.39548  21321203.17148      -177.40200
  -6027039.93806  23358114.28406  -4680358.24647  23358112.16347      3342.97300
   5660848.08207  22385427.93307   4402849.79748  22385425.92548     -2272.95400
 08 11  4  1 10 14.9990000  0  9  3  6 13 16 19 21 23 25 31
 -10007719.74208  20111735.65108  -7779564.11349  20111734.06549      2154.07200
  -6493211.58207  20107875.54207  -5043638.68049  20107873.74949      1035.19700
  -8612496.59806  22180377.34706  -6694260.94947  22180374.76147      1601.17700
   1000951.00007  20631981.20607    779680.48049  20631978.15949      -708.81700
  -9154158.49206  22413203.62806  -7119575.30548  22413199.81548      3660.33700
  -4549352.64506  23595503.79206  -3543896.19147  23595500.00347       597.62600
  -3208918.46107  21321742.75307  -2488910.63348  21321738.69048      -187.43100
  -6077161.03906  23348577.18306  -4719413.63347  23348574.49147      3341.40700
   5695012.37107  22391928.98707   4429471.30148  22391927.42148     -2277.61900
 08 11  4  1 10 29.9990000  0  9  3  6 13 16 19 21 23 25 31
 -10039905.19107  20105610.98707  -7804643.67649  20105609.69049      2145.69700
  -6508614.08207  20104944.35407  -5055640.62149  20104942.53449      1026.83300
  -8636365.85506  22175835.40106  -6712860.37547  22175832.96447      1591.28400
   1011631.84807  20634013.46407    788003.21549  20634010.35149      -712.05700
  -9208994.16806  22402768.37006  -7162304.38348  22402765.17948      3655.71200
  -4558200.67206  23593819.51106  -3550790.74247  23593816.21447       589.86800
  -3205954.16407  21322306.36207  -2486600.80148  21322302.85148      -197.62000
  -6127255.90606  23339044.15906  -4758448.58247  23339041.39747      3339.65800
   5729248.98807  22398444.21407   4456149.17648  22398442.03848     -2282.44100
 08 11  4  1 10 44.9990000  0  9  3  6 13 16 19 21 23 25 31
 -10071968.85208  20099509.57308  -7829628.33649  20099508.14449      2137.57700
  -6523895.03507  20102036.95607  -5067547.85549  20102035.12449      1018.73000
  -8660090.59406  22171320.46406  -6731347.18047  22171318.52647      1581.64900
   1022357.18407  20636054.82307    796360.62149  20636051.28449      -715.02200
  -9263764.23806  22392346.13606  -7204982.34448  22392342.57348      3651.33800
  -4566936.32406  23592157.69806  -3557597.73047  23592153.60447       582.37700
  -3202841.17607  21322898.88607  -2484175.10248  21322895.26548      -207.53300
  -6177328.27706  23329515.50306  -4797466.00447  23329512.76947      3338.15800
   5763554.03107  22404971.63607   4482880.35248  22404970.26548     -2287.00300
 08 11  4  1 10 59.9990000  0  9  3  6 13 16 19 21 23 25 31
 -10103907.55507  20093431.94807  -7854515.63749  20093429.92949      2129.24700
  -6539051.44107  20099152.90907  -5079358.04349  20099150.80049      1010.42700
  -8683667.80906  22166833.83906  -6749719.04747  22166831.62047      1571.81400
   1033129.91007  20638105.03407    804754.96549  20638101.98749      -718.18200
  -9318465.56306  22381937.15106  -7247606.74248  22381933.20248      3646.75500
  -4575556.47706  23590517.46406  -3564314.74647  23590512.96047       574.67700
  -3199576.73407  21323520.29207  -2481631.37948  21323516.30848      -217.62900
  -6227374.97706  23319991.97206  -4836463.41847  23319989.22947      3336.44700
   5797930.22306  22411513.59706   4509666.98448  22411510.81548     -2291.74600
 08 11  4  1 11 14.9990000  0  9  3  6 13 16 19 21 23 25 31
 -10135720.43408  20087377.93308  -7879304.89149  20087375.89449      2120.85900
  -6554082.75408  20096292.40908  -5091070.74249  20096290.76549      1002.08800
  -8707096.68806  22162375.81506  -6767975.30147  22162373.71047      1561.92500
   1043950.68007  20640163.69007    813186.73049  20640160.82749      -721.38500
  -9373097.06606  22371541.09706  -7290176.72348  22371537.32348      3642.10000
  -4584060.31606  23588899.59706  -3570941.10547  23588894.55447       566.92300
  -3196160.13707  21324170.53407  -2478969.10248  21324166.28848      -227.77300
  -6277395.08606  23310473.35406  -4875440.12147  23310471.07347      3334.67400
   5832378.14806  22418068.71406   4536509.47748  22418066.51948     -2296.52800
 08 11  4  1 11 29.9990000  0  9  3  6 13 16 19 21 23 25 31
 -10167404.43408  20081348.52608  -7903993.72349  20081346.72249      2112.26700
  -6568985.87907  20093456.09707  -5102683.57049  20093454.63649       993.54200
  -8730373.65206  22157945.86206  -6786113.21147  22157943.30447      1551.79800
   1054822.45707  20642232.56507    821658.24249  20642229.98349      -724.78500
  -9427655.42606  22361158.37006  -7332689.71948  22361154.86248      3637.22400
  -4592444.46106  23587303.58106  -3577474.18847  23587300.09747       558.94300
  -3192588.61707  21324850.36207  -2476186.09848  21324845.87448      -238.10100
  -6327385.21906  23300961.49506  -4914393.45347  23300958.58547      3332.67600
   5866900.70706  22424639.16706   4563410.15248  22424636.04248     -2301.50400
 08 11  4  1 11 44.9990000  0  9  3  6 13 16 19 21 23 25 31
 -10198962.16408  20075343.44008  -7928584.15649  20075341.70649      2103.84900
  -6583763.69907  20090644.09707  -5114198.74649  20090642.88649       985.18800
  -8753501.64506  22153545.37806  -6804135.00047  22153542.28847      1541.86600
   1065742.19107  20644310.76907    830167.12149  20644307.96449      -727.98200
  -9482143.34806  22350789.91706  -7375147.83248  22350786.12448      3632.52800
  -4600711.81306  23585730.76906  -3583916.27047  23585727.12847       551.15700
  -3188865.08207  21325559.01107  -2473284.64848  21325554.66748      -248.23600
  -6377348.05906  23291453.44806  -4953325.52747  23291450.78847      3330.85600
   5901494.89507  22431221.50307   4590366.65248  22431218.73748     -2306.27900
 08 11  4  1 11 59.9990000  0  9  3  6 13 16 19 21 23 25 31
 -10230395.10508  20069362.10408  -7953077.35249  20069360.03449      2095.52900
  -6598417.50407  20087855.45607  -5125617.29349  20087854.47949       976.92000
  -8776481.88306  22149171.72906  -6822041.68847  22149169.10147      1532.01600
   1076708.61307  20646397.48707    838712.38349  20646394.38249      -731.09500
  -9536561.85206  22340434.20606  -7417551.84848  22340430.69448      3627.90000
  -4608863.77006  23584178.50306  -3590268.42647  23584175.85147       543.46400
  -3184990.94907  21326296.31507  -2470265.84848  21326291.54648      -258.27600
  -6427284.78906  23281950.46406  -4992237.25047  23281948.42947      3329.11500
   5936159.28906  22437817.92506   4617377.83648  22437815.37448     -2310.96000
 08 11  4  1 12 14.9990000  0  9  3  6 13 16 19 21 23 25 31
 -10261701.28907  20063404.64407  -7977471.77749  20063402.08949      2087.07900
  -6612945.69907  20085090.75307  -5136937.96549  20085089.48349       968.54600
  -8799312.65606  22144827.94006  -6839831.90247  22144824.33147      1522.05200
   1087723.24607  20648493.71407    847295.21549  20648489.93749      -734.30900
  -9590909.14106  22330092.47906  -7459900.38348  22330089.10148      3623.15300
  -4616898.43006  23582649.73706  -3596529.19547  23582647.03847       535.64400
  -3180964.70707  21327062.24507  -2467128.51648  21327057.99548      -268.41600
  -6477193.43806  23272452.79206  -5031127.08647  23272450.51947      3327.24300
   5970895.30106  22444427.87806   4644444.84048  22444425.33548     -2315.73400
 08 11  4  1 12 29.9990000  0  9  3  6 13 16 19 21 23 25 31
 -10292882.13308  20057471.19008  -8001768.53149  20057468.82749      2078.72300
  -6627349.77007  20082349.87807  -5148161.91049  20082348.03049       960.27100
  -8821995.02706  22140511.83906  -6857506.47747  22140508.53047      1512.15800
   1098784.62907  20650598.58107    855914.48049  20650594.85849      -737.42600
  -9645186.23406  22319764.25306  -7502194.21948  22319760.36648      3618.47300
  -4624817.06606  23581142.81506  -3602699.53947  23581140.82347       527.90900
  -3176787.89107  21327857.17507  -2463873.85248  21327853.10448      -278.45400
  -6527075.17606  23262960.87006  -5069995.94947  23262958.76547      3325.44900
   6005701.58206  22451051.12806   4671566.59448  22451048.77648     -2320.41900
 08 11  4  1 12 44.9990000  0  9  3  6 13 16 19 21 23 25 31
 -10323936.05108  20051561.71408  -8025966.39149  20051559.90549      2070.26100
  -6641628.27307  20079632.93307  -5159288.02049  20079631.40949       951.90000
  -8844527.43806  22136223.58106  -6875064.18047  22136220.35847      1502.16100
   1109894.21507  20652712.68307    864571.30149  20652709.26949      -740.63900
  -9699391.27006  22309449.20606  -7544431.90248  22309445.87048      3613.66900
  -4632618.42606  23579658.30006  -3608778.52347  23579655.89047       520.09100
  -3172459.24207  21328680.65907  -2460500.87948  21328676.96848      -288.57700
  -6576928.25806  23253474.18306  -5108842.49647  23253471.45247      3323.53900
   6040579.49206  22457687.78406   4698744.17648  22457685.52648     -2325.19400
 08 11  4  1 12 59.9990000  0  9  3  6 13 16 19 21 23 25 31
 -10354861.96107  20045676.80807  -8050064.50449  20045674.77249      2061.72700
  -6655780.20307  20076939.97207  -5170315.48849  20076937.41749       943.46200
  -8866908.87106  22131964.43306  -6892504.24647  22131961.68347      1492.09600
   1121052.77707  20654836.15907    873266.28549  20654833.29249      -743.90400
  -9753523.21906  22299147.49506  -7586612.63348  22299144.78848      3608.79700
  -4640301.34006  23578196.49506  -3614765.20747  23578193.45647       512.19400
  -3167977.89807  21329533.60407  -2457008.93848  21329529.39448      -298.75600
  -6626751.50806  23243993.31506  -5147665.80147  23243990.83547      3321.55000
   6075529.79306  22464338.69806   4725978.14848  22464337.24548     -2330.02000
 08 11  4  1 13 14.9990000  0  9  3  6 13 16 19 21 23 25 31
 -10385661.48808  20039815.96408  -8074064.12949  20039814.09349      2053.30200
  -6669807.43807  20074270.56507  -5181245.79749  20074268.24549       935.14900
  -8889141.02706  22127734.18306  -6909827.99647  22127731.03047      1482.14400
   1132258.50407  20656968.01107    881998.01249  20656965.32349      -747.04800
  -9807583.62506  22288859.62006  -7628737.59448  22288857.46848      3604.02700
  -4647867.29306  23576756.76106  -3620660.74247  23576753.85847       504.39700
  -3163345.88307  21330414.86207  -2453399.58648  21330410.36648      -308.80100
  -6676546.45306  23234517.59706  -5186467.04747  23234514.49947      3319.66300
   6110550.60506  22471003.41706   4753267.05548  22471001.10448     -2334.72100
 08 11  4  1 13 29.9990000  0  9  3  6 13 16 19 21 23 25 31
 -10416336.25408  20033978.72208  -8097966.53149  20033977.55849      2044.98400
  -6683711.63707  20071624.62007  -5192080.23849  20071622.95649       926.94700
  -8911225.14506  22123531.13606  -6927036.38347  22123529.10447      1472.27400
   1143509.75807  20659109.20607    890765.21949  20659106.60149      -750.08400
  -9861573.81306  22278586.53406  -7670807.85948  22278583.12048      3599.34600
  -4655317.61306  23575339.08106  -3626466.16447  23575336.74147       496.68800
  -3158564.78507  21331325.14407  -2449674.05948  21331320.51148      -318.74000
  -6726314.48806  23225047.22206  -5225247.33647  23225044.10147      3317.86900
   6145640.21106  22477680.31506   4780609.57448  22477677.92148     -2339.30700
 08 11  4  1 13 44.9990000  0  9  3  6 13 16 19 21 23 25 31
 -10446881.72708  20028166.10408  -8121768.19149  20028164.53049      2036.36500
  -6697488.57407  20069003.19007  -5202815.51249  20069001.46449       918.46200
  -8933157.01206  22119357.58106  -6944126.14547  22119355.57747      1462.12400
   1154810.53107  20661259.63607    899571.00449  20661256.97949      -753.38500
  -9915489.19106  22268326.94806  -7712819.84048  22268323.21848      3594.35900
  -4662648.21506  23573943.52606  -3632178.32447  23573941.47247       488.70700
  -3153630.53507  21332263.71407  -2445829.19948  21332259.31548      -328.95000
  -6776051.09806  23215582.40906  -5264003.12147  23215579.40947      3315.77400
   6180802.70706  22484371.80006   4808008.89848  22484369.36648     -2344.16600
 08 11  4  1 13 59.9990000  0  9  3  6 13 16 19 21 23 25 31
 -10477297.19508  20022378.29208  -8145468.55549  20022376.56549      2027.69800
  -6711137.58207  20066405.62807  -5213451.09049  20066404.08549       909.93400
  -8954935.65206  22115212.73706  -6961096.51247  22115211.49147      1451.90900
   1166161.59407  20663419.72207    908415.98449  20663416.83949      -756.73700
  -9969328.87106  22258081.75306  -7754772.85548  22258077.62848      3589.31200
  -4669858.32006  23572571.76106  -3637796.57447  23572569.04247       480.67400
  -3148542.68807  21333231.94007  -2441864.65648  21333227.15948      -339.19000
  -6825755.32806  23206123.65906  -5302733.69547  23206120.89747      3313.61500
   6216038.69506  22491076.95606   4835465.49248  22491074.45248     -2349.06600
 08 11  4  1 14 14.9990000  0  9  3  6 13 16 19 21 23 25 31
 -10507586.08208  20016614.47208  -8169070.28149  20016612.88649      2019.25900
  -6724662.25807  20063831.90107  -5223989.79749  20063829.99949       901.64500
  -8976564.60206  22111098.14406  -6977950.24647  22111095.67547      1441.93000
   1177559.28907  20665588.65907    917297.30549  20665585.37849      -759.84600
 -10023096.16006  22247849.89406  -7796669.44148  22247846.19448      3584.48600
  -4676951.28106  23571221.65106  -3643323.54747  23571219.20247       472.86400
  -3143304.97307  21334228.38607  -2437783.32848  21334224.39448      -349.18100
  -6875430.54706  23196671.01906  -5341441.66047  23196668.28447      3311.68100
   6251344.37907  22497795.21407   4862976.38348  22497793.60148     -2353.71200
 08 11  4  1 14 29.9990000  0  9  3  6 13 16 19 21 23 25 31
 -10537745.74208  20010875.80808  -8192571.31649  20010873.27649      2010.64400
  -6738060.02707  20061282.51107  -5234429.62549  20061280.70249       893.18500
  -8998041.18805  22107011.09705  -6994685.27747  22107008.88647      1431.77200
   1189006.15207  20667766.86207    926216.93449  20667763.36249      -763.12400
 -10076788.33606  22237632.44006  -7838507.50048  22237629.31548      3579.47800
  -4683924.64106  23569895.30806  -3648757.31647  23569892.14747       464.89100
  -3137914.92607  21335253.97207  -2433583.30548  21335249.46848      -359.33600
  -6925073.92206  23187224.25306  -5380124.80147  23187222.23347      3309.55800
   6286722.28107  22504527.90107   4890543.55948  22504525.55848     -2358.52700
 08 11  4  1 14 44.9990000  0  9  3  6 13 16 19 21 23 25 31
 -10567774.21908  20005161.03408  -8215970.13349  20005158.59349      2001.89800
  -6751328.98807  20058757.32307  -5244769.07049  20058755.95649       884.59700
  -9019363.41406  22102952.55806  -7011299.99247  22102950.55047      1421.48200
   1200504.00407  20669954.93307    935176.29348  20669951.33148      -766.52300
 -10130403.09006  22227429.94806  -7880285.22348  22227427.37848      3574.31700
  -4690776.42206  23568591.58106  -3654096.38747  23568588.53847       456.78500
  -3132370.71507  21336309.28407  -2429263.15248  21336304.72648      -369.61400
  -6974683.21106  23177783.40106  -5418781.35947  23177781.76947      3307.28600
   6322174.20706  22511273.76106   4918168.42248  22511271.81948     -2363.46200
 08 11  4  1 14 59.9990000  0  9  3  6 13 16 19 21 23 25 31
 -10597675.35908  19999471.06508  -8239269.72349  19999468.74549      1993.40900
  -6764473.21507  20056255.92507  -5255011.32449  20056254.92149       876.28200
  -9040535.00406  22098923.72906  -7027797.33247  22098922.11247      1411.43900
   1212048.89807  20672151.87007    944172.30949  20672148.29249      -769.66000
 -10183944.18806  22217241.23706  -7922005.54348  22217238.98348      3569.40700
  -4697510.48006  23567310.08906  -3659343.70747  23567306.46447       448.93700
  -3126676.51207  21337392.87807  -2424826.11348  21337387.88248      -379.61400
  -7024262.18006  23168348.83906  -5457414.31347  23168347.38247      3305.26500
   6357696.07806  22518033.27606   4945847.79348  22518031.03448     -2368.12500
 08 11  4  1 15 14.9990000  0  9  3  6 13 16 19 21 23 25 31
 -10627449.05908  19993805.27608  -8262469.99249  19993802.98749      1984.91300
  -6777492.85207  20053778.46407  -5265156.49649  20053777.30449       867.97600
  -9061555.87906  22094924.14406  -7044177.23047  22094921.47247      1401.39200
   1223640.56607  20674357.94007    953204.77049  20674354.53849      -772.77800
 -10237411.50006  22207066.96406  -7963668.37948  22207064.31548      3564.48800
  -4704126.57806  23566050.51106  -3664499.09847  23566046.97247       441.07300
  -3120832.53906  21338504.67506  -2420272.36748  21338500.42548      -389.59800
  -7073810.68406  23158920.40106  -5496023.50847  23158918.70647      3303.23400
   6393287.79306  22524806.05806   4973581.57048  22524805.05448     -2372.78100
 08 11  4  1 15 29.9990000  0  9  3  6 13 16 19 21 23 25 31
 -10657096.64107  19988163.44007  -8285571.99249  19988160.70249      1976.50500
  -6790389.19107  20051324.62007  -5275205.59449  20051323.12849       859.75600
  -9082427.22706  22090952.44806  -7060440.60247  22090950.03847      1391.42300
   1235277.59007  20676572.30807    962272.59449  20676568.94849      -775.80200
 -10290805.94106  22196906.29206  -8005274.42648  22196903.04248      3559.62900
  -4710625.96506  23564814.32306  -3669563.53147  23564811.24147       433.29200
  -3114840.21507  21339645.05007  -2415603.04748  21339640.81948      -399.48800
  -7123329.78906  23149497.07306  -5534609.80947  23149495.40547      3301.27400
   6428947.89506  22531593.04206   5001368.63348  22531590.86248     -2377.34000
 08 11  4  1 15 44.9990000  0  9  3  6 13 16 19 21 23 25 31
 -10686617.14508  19982545.78408  -8308574.98049  19982542.76549      1968.03400
  -6803161.40607  20048894.13607  -5285157.96949  20048892.31249       851.48100
  -9103148.38306  22087009.22906  -7076586.94147  22087007.36247      1381.41000
   1246960.81607  20678795.43307    971376.40649  20678792.43749      -778.88200
 -10344126.66806  22186759.70606  -8046823.04748  22186756.28048      3554.71500
  -4717007.84006  23563600.14406  -3674536.41447  23563597.08947       425.45800
  -3108698.87507  21340813.71407  -2410817.59848  21340809.87848      -409.42300
  -7172818.30106  23140079.84706  -5573172.27747  23140077.45647      3299.23400
   6464677.05106  22538391.35406   5029209.51648  22538390.10448     -2381.94400
 08 11  4  1 15 59.9990000  0  9  3  6 13 16 19 21 23 25 31
 -10716012.20308  19976952.56508  -8331480.23449  19976949.14049      1959.67100
  -6815811.26607  20046487.18307  -5295015.01249  20046485.27649       843.32400
  -9123720.51206  22083093.93306  -7092617.16447  22083092.30447      1371.47500
   1258688.52707  20681027.22207    980514.88349  20681024.02649      -781.84700
 -10397374.85206  22176627.15106  -8088315.13348  22176622.97248      3549.87900
  -4723273.80906  23562407.08106  -3679418.98847  23562405.30447       417.73100
  -3102410.42207  21342010.70607  -2405917.49648  21342006.56248      -419.23000
  -7222277.78506  23130667.53406  -5611712.12947  23130665.12847      3297.29900
   6500473.30906  22545203.86206   5057102.68048  22545201.88648     -2386.41700
 08 11  4  1 16 14.9990000  0  9  3  6 13 16 19 21 23 25 31
 -10745279.65607  19971382.89407  -8354286.03549  19971380.05849      1951.16400
  -6828336.74207  20044103.60407  -5304775.11749  20044101.59349       835.03200
  -9144141.34805  22079208.37005  -7108529.52047  22079205.84747      1361.38900
   1270462.62907  20683267.91707    989689.49649  20683264.73749      -784.94000
 -10450548.15606  22166508.90906  -8129748.86748  22166504.63648      3544.88700
  -4729421.74606  23561237.69006  -3684209.57047  23561235.41747       409.86300
  -3095972.93807  21343235.76107  -2400901.28148  21343231.32748      -429.16600
  -7271705.82806  23121262.03406  -5650227.46547  23121259.90147      3295.20300
   6536338.72306  22552029.03406   5085049.73848  22552026.21848     -2391.02800
 08 11  4  1 16 29.9990000  0  9  3  6 13 16 19 21 23 25 31
 -10774419.85508  19965837.42508  -8376992.67649  19965834.56549      1942.68000
  -6840738.28108  20041743.54208  -5314438.65649  20041741.41349       826.76900
  -9164411.39105  22075351.53405  -7124324.38347  22075348.77647      1351.33600
   1282282.64107  20685517.14407    998899.89549  20685513.54649      -788.00100
 -10503647.00406  22156403.87006  -8171124.59048  22156400.24548      3539.92300
  -4735452.00406  23560090.27606  -3688908.46147  23560087.03447       402.01700
  -3089387.04307  21344489.20607  -2395769.43048  21344484.42548      -439.06000
  -7321102.75006  23111862.59706  -5688718.56347  23111859.62047      3293.12800
   6572272.70306  22558866.70606   5113050.22348  22558863.86648     -2395.59900
 08 11  4  1 16 44.9990000  0  9  3  6 13 16 19 21 23 25 31
 -10803434.72708  19960316.35408  -8399601.66049  19960313.29649      1934.32500
  -6853018.20307  20039406.63607  -5324007.43049  20039404.23349       818.66100
  -9184532.80106  22071522.58906  -7140003.40647  22071519.92547      1341.42700
   1294146.44507  20687774.94807   1008144.40649  20687771.22949      -790.92000
 -10556673.21106  22146313.47206  -8212443.69548  22146309.53448      3535.08000
  -4741366.79306  23558964.57306  -3693517.36747  23558960.97247       394.31900
  -3082655.02307  21345769.92507  -2390523.70748  21345765.79648      -448.80100
  -7370470.32006  23102468.19006  -5727186.79347  23102465.54247      3291.17100
   6608273.03907  22565717.18307   5141102.41448  22565714.72648     -2400.02200
 08 11  4  1 16 59.9990000  0  9  3  6 13 16 19 21 23 25 31
 -10832324.12107  19954819.07307  -8422112.87949  19954815.96449      1925.96000
  -6865176.37107  20037093.30007  -5333481.31649  20037090.48749       810.54500
  -9204505.46506  22067721.87806  -7155566.50447  22067719.07747      1331.51100
   1306053.91807  20690040.72207   1017422.95749  20690036.75349      -793.83200
 -10609626.41007  22136236.94807  -8253705.92248  22136233.50348      3530.21300
  -4747165.64506  23557861.52606  -3698035.92247  23557856.62847       386.59000
  -3075776.94907  21347078.87007  -2385164.17248  21347074.73348      -458.53800
  -7419808.25406  23093080.04206  -5765631.92247  23093077.01147      3289.19600
   6644339.59006  22572580.64406   5169206.20348  22572577.59748     -2404.43700
 08 11  4  1 17 14.9990000  0  9  3  6 13 16 19 21 23 25 31
 -10861087.43008  19949345.73708  -8444525.84849  19949342.79649      1917.55400
  -6877212.47307  20034802.18307  -5342860.09449  20034800.39749       802.40700
  -9224328.77305  22063949.85405  -7171013.23447  22063946.40147      1321.55400
   1318005.46907  20692315.01907   1026735.85249  20692311.54249      -796.77000
 -10662506.02706  22126174.55806  -8294910.80548  22126171.22248      3525.30800
  -4752848.19506  23556780.27606  -3702463.87547  23556774.53847       378.83700
  -3068752.69107  21348415.63607  -2379690.72348  21348411.56948      -468.28400
  -7469116.00406  23083696.73706  -5804053.53147  23083693.81247      3287.18300
   6680472.69506  22579456.56506   5197361.84448  22579453.63248     -2408.87400
 08 11  4  1 17 29.9990000  0  9  3  6 13 16 19 21 23 25 31
 -10889723.43008  19943896.29208  -8466839.61349  19943893.84749      1909.06700
  -6889125.23807  20032535.58907  -5352142.75848  20032533.03848       794.18400
  -9244001.17206  22060206.19006  -7186342.37947  22060203.16347      1311.49300
   1330002.35507  20694597.76107   1036084.07049  20694594.72249      -799.79200
 -10715310.32406  22116125.78406  -8336057.00448  22116123.15548      3520.28600
  -4758412.97306  23555721.43306  -3706800.05547  23555715.58147       370.98500
  -3061580.93407  21349780.65107  -2374102.34448  21349775.64048      -478.11700
  -7518391.81306  23074319.43306  -5842450.25847  23074316.37047      3285.05400
   6716673.53506  22586345.14406   5225570.26248  22586342.63648     -2413.38900
 08 11  4  1 17 44.9990000  0  9  3  6 13 16 19 21 23 25 31
 -10918234.30508  19938470.80808  -8489055.87949  19938468.32749      1900.72500
  -6900916.86307  20030291.50307  -5361331.02748  20030289.11648       786.10800
  -9263524.62906  22056491.34706  -7201555.44947  22056487.82347      1301.56400
   1342042.27707  20696888.86207   1045465.82449  20696886.12849      -802.66100
 -10768041.34406  22106091.84706  -8377146.09448  22106088.01148      3515.40100
  -4763862.11706  23554684.38606  -3711046.15247  23554678.74547       363.27600
  -3054264.04707  21351172.38607  -2368400.87148  21351167.80848      -487.79200
  -7567637.67606  23064948.27606  -5880823.66047  23064945.40947      3283.05800
   6752939.90206  22593246.26106   5253829.75048  22593243.31948     -2417.75800
 08 11  4  1 17 59.9990000  0  9  3  6 13 16 19 21 23 25 31
 -10946618.56608  19933069.83108  -8511173.48449  19933067.04249      1892.28400
  -6912585.86707  20028071.26107  -5370423.76248  20028068.34748       777.93400
  -9282897.71906  22052804.58106  -7216651.35947  22052800.89047      1291.53900
   1354126.60507  20699188.59707   1054882.18849  20699185.59349      -805.62200
 -10820697.32806  22096071.93306  -8418176.73048  22096067.63248      3510.39900
  -4769194.04706  23553669.27606  -3715200.89147  23553663.85847       355.46200
  -3046800.78107  21352592.88607  -2362585.34448  21352588.55848      -497.55100
  -7616851.89506  23055583.35406  -5919172.38747  23055580.57747      3280.94800
   6789272.91406  22600159.81506   5282141.18047  22600157.46847     -2422.20100
 08 11  4  1 18 14.9990000  0  9  3  6 13 16 19 21 23 25 31
 -10974876.62908  19927692.22908  -8533192.75049  19927689.12849      1883.87100
  -6924132.96907  20025873.86207  -5379421.50048  20025871.19848       769.80700
  -9302120.77706  22049145.88606  -7231630.35247  22049143.51547      1281.53700
   1366254.92207  20701496.37807   1064332.80549  20701493.58149      -808.55400
 -10873278.69106  22086066.04206  -8459149.21548  22086061.89448      3505.42400
  -4774409.42606  23552676.69806  -3719264.80547  23552672.25747       347.69200
  -3039192.03507  21354040.83907  -2356656.46548  21354037.25348      -507.25000
  -7666034.73406  23046224.08106  -5957496.64547  23046220.58547      3278.85600
   6825672.05906  22607086.44006   5310504.12948  22607084.22248     -2426.61000
 08 11  4  1 18 29.9990000  0  9  3  6 13 16 19 21 23 25 31
 -11003009.76608  19922338.82308  -8555114.67249  19922335.93349      1875.54200
  -6935559.72307  20023699.47207  -5388325.46548  20023696.52248       761.78400
  -9321195.36306  22045516.59706  -7246493.66847  22045514.41347      1271.63900
   1378425.37107  20703812.47907   1073816.27349  20703809.09349      -811.36300
 -10925786.78906  22076073.84706  -8500064.60248  22076069.81948      3500.54000
  -4779509.60206  23551706.20606  -3723238.97347  23551701.56547       340.01200
  -3031439.43807  21355516.12807  -2350615.47748  21355512.06548      -516.84000
  -7715187.58206  23036870.20606  -5995797.55147  23036867.36247      3276.85700
   6862135.64106  22614025.55006   5338917.28148  22614023.66348     -2430.90500
 08 11  4  1 18 44.9990000  0  9  3  6 13 16 19 21 23 25 31
 -11031015.43808  19917009.44808  -8576937.26249  19917006.71049      1867.04500
  -6946863.62907  20021548.49507  -5397133.70748  20021546.06948       753.59400
  -9340118.75806  22041915.84706  -7261239.16847  22041913.15547      1261.56000
   1390640.48007  20706136.74507   1083334.53149  20706133.41749      -814.34100
 -10978218.69106  22066096.55806  -8540920.62148  22066092.08948      3495.46000
  -4784491.89806  23550757.72906  -3727121.25047  23550753.53047       332.15300
  -3023540.48007  21357018.90907  -2344460.43448  21357014.81548      -526.59700
  -7764307.49606  23027522.89406  -6034072.79347  23027519.50347      3274.66100
   6898666.04306  22620976.73706   5367382.48848  22620975.11248     -2435.36000
 08 11  4  1 18 59.9990000  0  9  3  6 13 16 19 21 23 25 31
 -11058896.07008  19911703.94808  -8598662.42249  19911701.18349      1858.70900
  -6958047.30907  20019419.96407  -5405848.25048  20019417.56548       745.57900
  -9358893.96106  22038343.08906  -7275869.18447  22038341.19847      1251.68000
   1402897.62507  20708469.12007   1092885.54749  20708466.19049      -817.14300
 -11030576.69906  22056133.05006  -8581719.06348  22056128.07348      3490.53400
  -4789359.18006  23549831.65906  -3730913.93047  23549828.03047       324.48500
  -3015498.06307  21358549.29207  -2338193.61748  21358545.43348      -536.16100
  -7813396.92206  23018181.45606  -6072324.27347  23018178.19447      3272.62800
   6935260.54706  22627940.83906   5395897.66848  22627938.96048     -2439.63400
 08 11  4  1 19 14.9990000  0  9  3  6 13 16 19 21 23 25 31
 -11086649.30908  19906422.58908  -8620288.32449  19906420.09349      1850.21600
  -6969108.50407  20017315.27607  -5414467.36349  20017313.24949       737.41300
  -9377517.89106  22034799.41706  -7290381.34447  22034796.78047      1241.59500
   1415199.16407  20710810.14407   1102471.17249  20710807.18749      -820.10300
 -11082858.24606  22046183.82306  -8622457.91048  22046179.50348      3485.43600
  -4794108.70706  23548927.83906  -3734614.84447  23548924.49947       316.63500
  -3007309.77707  21360107.89407  -2331813.14548  21360103.76548      -545.88600
  -7862453.12106  23008846.15106  -6110549.87547  23008843.56947      3270.41300
   6971921.33206  22634916.79206   5424464.50048  22634914.67548     -2444.05200
 08 11  4  1 19 29.9990000  0  9  3  6 13 16 19 21 23 25 31
 -11114278.00408  19901164.78408  -8641817.17649  19901162.71849      1841.91300
  -6980050.12907  20015232.99507  -5422993.29349  20015231.40949       729.44200
  -9395993.18406  22031283.51106  -7304777.66847  22031280.53047      1231.68600
   1427542.23407  20713158.90107   1112089.14549  20713155.87849      -822.87100
 -11135065.90206  22036249.44806  -8663139.18848  22036244.69048      3480.51000
  -4798743.27006  23548046.33906  -3738226.18447  23548042.07347       308.97100
  -2998978.78107  21361692.89407  -2325321.46548  21361688.47948      -555.40000
  -7911478.75806  22999516.81506  -6148751.66847  22999514.38647      3268.37600
   7008645.56306  22641904.96406   5453080.78147  22641902.87047     -2448.28200
 08 11  4  1 19 44.9990000  0  9  3  6 13 16 19 21 23 25 31
 -11141780.92608  19895931.00308  -8663248.01649  19895928.54249      1833.52800
  -6990871.08607  20013174.16707  -5431425.20349  20013171.80049       721.39700
  -9414318.85506  22027796.03406  -7319057.40247  22027793.38647      1221.71100
   1439927.86307  20715516.18307   1121740.28149  20715513.02649      -825.70900
 -11187198.34806  22026328.61206  -8703761.87548  22026324.31948      3475.49600
  -4803261.78106  23547186.50306  -3741747.09047  23547182.60847       301.23400
  -2990504.19107  21363306.20607  -2318717.89148  21363301.81248      -564.97300
  -7960472.43806  22990193.33106  -6186928.54747  22990191.98347      3266.24500
   7045434.20306  22648905.83906   5481747.24247  22648903.57747     -2452.57600
 08 11  4  1 19 59.9990000  0  9  3  6 13 16 19 21 23 25 31
 -11169156.42208  19890721.98708  -8684579.57049  19890719.35449      1825.03300
  -7001570.00407  20011137.94007  -5439762.01649  20011135.68749       713.26100
  -9432493.30106  22024337.23706  -7333219.31647  22024334.45247      1211.63000
   1452357.33207  20717881.30807   1131425.57849  20717878.41349      -828.63100
 -11239254.06606  22016422.75306  -8744324.76648  22016418.28848      3470.38100
  -4807662.72706  23546349.23706  -3745176.41047  23546344.96847       293.39600
  -2981884.73807  21364945.90907  -2312001.43848  21364941.91348      -574.63000
  -8009432.53506  22980876.94806  -6225079.27347  22980875.42947      3264.00700
   7082288.41406  22655919.25306   5510464.77347  22655916.95647     -2456.94700
 08 11  4  1 20 14.9990000  0  9  3  6 13 16 19 21 23 25 31
 -11196404.71508  19885536.56508  -8705812.00049  19885534.38249      1816.55300
  -7012147.32407  20009125.55007  -5448004.07849  20009122.85449       705.15500
  -9450516.85906  22020907.48706  -7347263.65247  22020904.69847      1201.57100
   1464830.27007  20720254.94007   1141144.74248  20720251.30448      -831.52900
 -11291232.90206  22006531.14406  -8784827.74248  22006528.16348      3465.25600
  -4811946.24206  23545533.46406  -3748514.21147  23545529.88647       285.56800
  -2973120.95707  21366613.33107  -2305172.52348  21366609.49548      -584.25200
  -8058359.00806  22971566.62006  -6263203.77047  22971565.10447      3261.76500
   7119207.78906  22662944.66706   5539233.09047  22662942.08947     -2461.29200
 08 11  4  1 20 29.9990000  0  9  3  6 13 16 19 21 23 25 31
 -11223527.17208  19880375.43308  -8726946.38749  19880372.83949      1808.16400
  -7022604.23808  20007135.22908  -5456152.32449  20007132.73349       697.12800
  -9468390.62106  22017506.03406  -7361191.26247  22017503.47647      1191.58400
   1477345.35907  20722636.27607   1150896.76648  20722633.35148      -834.33900
 -11343135.94106  21996654.92506  -8825271.66848  21996650.92548      3460.20300
  -4816113.64106  23544740.19806  -3751761.52747  23544737.02247       277.82700
  -2964214.37107  21368308.52607  -2298232.33248  21368304.83548      -593.77200
  -8107252.96506  22962262.02606  -6301302.94147  22962260.29247      3259.59700
   7156190.96106  22669982.81506   5568051.14147  22669979.78447     -2465.54500
 08 11  4  1 20 44.9990000  0  9  3  6 13 16 19 21 23 25 31
 -11250523.93008  19875237.86208  -8747982.82449  19875235.60149      1799.78400
  -7032941.19907  20005168.09707  -5464207.09449  20005166.05849       689.13100
  -9486114.89506  22014133.05806  -7375002.37947  22014130.63247      1181.61800
   1489902.35207  20725025.80807   1160681.43449  20725022.57349      -837.13300
 -11394963.23406  21986792.01906  -8865656.57048  21986787.91348      3455.15300
  -4820165.17606  23543969.33906  -3754918.55547  23543965.64047       270.10200
  -2955165.34407  21370030.62807  -2291181.14148  21370026.84348      -603.26800
  -8156114.34806  22952964.14406  -6339376.73847  22952961.85847      3257.42600
   7193237.60206  22677032.25306   5596918.63347  22677029.51547     -2469.77600
 08 11  4  1 20 59.9990000  0  9  3  6 13 16 19 21 23 25 31
 -11277395.24608  19870124.46408  -8768921.50049  19870122.44049      1791.42100
  -7043158.35907  20003224.14407  -5472168.52349  20003222.37449       681.14400
  -9503689.71106  22010789.12006  -7388697.03947  22010786.74147      1171.65400
   1502500.87107  20727423.40907   1170498.45749  20727420.10849      -839.90100
 -11446714.73006  21976944.01906  -8905982.40648  21976939.65548      3450.10000
  -4824100.95706  23543220.76906  -3757985.40247  23543217.28047       262.38500
  -2945974.21107  21371779.55007  -2284019.22748  21371775.77248      -612.74200
  -8204943.12106  22943672.53406  -6377425.12147  22943669.94447      3255.25200
   7230347.32006  22684093.90106   5625835.25448  22684091.24548     -2473.98100
 08 11  4  1 21 14.9990000  0  9  3  6 13 16 19 21 23 25 31
 -11304138.47708  19865035.23708  -8789760.36749  19865033.66749      1782.88200
  -7053253.40607  20001302.80007  -5480034.78549  20001301.03849       673.00300
  -9521112.50006  22007473.59706  -7402273.23047  22007471.20247      1161.51900
   1515143.46507  20729828.74507   1180349.82049  20729825.51549      -842.84000
 -11498387.70706  21967111.05006  -8946247.06648  21967106.54248      3444.86500
  -4827918.34806  23542493.88606  -3760959.99247  23542490.10447       254.49300
  -2936638.75007  21373555.97907  -2276744.84848  21373552.78848      -622.36400
  -8253736.53906  22934387.64406  -6415445.97747  22934384.72247      3252.89500
   7267522.36706  22691168.05806   5654802.81647  22691165.40547     -2478.33600
 08 11  4  1 21 29.9990000  0  9  3  6 13 16 19 21 23 25 31
 -11330753.21908  19859970.43308  -8810499.12149  19859969.25349      1774.31600
  -7063226.01207  19999405.47907  -5487805.64849  19999403.50749       664.84000
  -9538383.03506  22004187.03406  -7415730.78147  22004185.23347      1151.36900
   1527830.32807  20732243.15107   1190235.68849  20732239.83149      -845.79100
 -11549981.67606  21957292.94806  -8986450.15248  21957288.31948      3439.59800
  -4831617.00006  23541790.58106  -3763842.03547  23541786.90947       246.57700
  -2927158.96507  21375359.88607  -2269358.00848  21375356.16748      -631.98600
  -8302494.05906  22925108.97906  -6453438.82447  22925106.73347      3250.50100
   7304762.87506  22698255.27606   5683821.37548  22698252.60448     -2482.70100
 08 11  4  1 21 44.9990000  0  9  3  6 13 16 19 21 23 25 31
 -11357234.87507  19854931.37007  -8831134.16849  19854929.87049      1765.44400
  -7073071.87907  19997531.56507  -5495477.75049  19997530.04649       656.39100
  -9555496.54306  22000930.37006  -7429065.97747  22000928.34747      1140.90100
   1540565.84407  20734666.82307   1200159.46149  20734663.70649      -849.03400
 -11601491.91007  21947490.96407  -9026587.98848  21947486.81548      3434.01600
  -4835192.43806  23541110.17506  -3766628.09447  23541105.87047       238.36300
  -2917530.35507  21377192.13607  -2261855.20348  21377188.06948      -641.90700
  -8351210.98006  22915838.79206  -6491400.04747  22915836.36647      3247.79500
   7342073.30906  22705355.06506   5712894.41848  22705353.61648     -2487.36200
 08 11  4  1 21 59.9990000  0  9  3  6 13 16 19 21 23 25 31
 -11383588.37907  19849916.46407  -8851669.35249  19849914.70649      1756.90000
  -7082796.05107  19995681.19007  -5503055.02749  19995679.72249       648.27800
  -9572457.94906  21997702.62806  -7442282.65647  21997700.77647      1130.76000
   1553344.78907  20737098.25307   1210117.07449  20737095.66349      -851.93000
 -11652923.18007  21937704.26107  -9066664.28548  21937700.41748      3428.75100
  -4838649.66406  23540452.02606  -3769322.05147  23540448.27247       230.48200
  -2907758.28907  21379051.58107  -2254240.60248  21379047.28448      -651.47100
  -8399892.00406  22906574.75306  -6529333.30547  22906572.61247      3245.40200
   7379448.50806  22712467.11206   5742017.91448  22712465.59748     -2491.68000
 08 11  4  1 22 14.9990000  0  9  3  6 13 16 19 21 23 25 31
 -11409815.91807  19844925.77607  -8872106.39849  19844923.81249      1748.50300
  -7092400.75007  19993853.46407  -5510539.20349  19993851.86249       640.31300
  -9589269.28506  21994502.90106  -7455382.40647  21994501.37047      1120.75600
   1566165.12907  20739538.39407   1220106.94148  20739535.09348      -854.68900
 -11704277.44907  21927931.62007  -9106680.59048  21927927.12848      3423.61800
  -4841990.76206  23539816.49506  -3771925.50047  23539812.43347       222.74000
  -2897844.92607  21380938.27607  -2246515.90648  21380933.91348      -660.89100
  -8448539.04306  22897317.69006  -6567240.07047  22897315.75347      3243.13600
   7416886.10506  22719591.57306   5771190.04348  22719589.47248     -2495.84000
 08 11  4  1 22 29.9990000  0  9  3  6 13 16 19 21 23 25 31
 -11435917.77008  19839958.54208  -8892445.50449  19839955.95649      1740.12300
  -7101886.40207  19992048.55807  -5517930.62549  19992046.48349       632.37700
  -9605931.00806  21991332.66706  -7468365.57447  21991330.43347      1110.78200
   1579026.38707  20741985.68307   1230128.70749  20741982.47949      -857.41700
 -11755554.73007  21918173.87807  -9146636.89148  21918169.43348      3418.48500
  -4845216.16006  23539202.58906  -3774438.79747  23539198.77247       215.02700
  -2887791.23807  21382851.69807  -2238681.86348  21382846.28848      -670.24600
  -8497152.22306  22888066.72906  -6605120.46547  22888064.77247      3240.87900
   7454385.61707  22726727.95607   5800410.43048  22726725.83948     -2499.96700
 08 11  4  1 22 44.9990000  0  9  3  6 13 16 19 21 23 25 31
 -11461888.21908  19835016.67508  -8912682.22349  19835014.45649      1731.36300
  -7111247.36307  19990267.40107  -5525224.88349  19990264.78449       624.06400
  -9622437.21106  21988191.97206  -7481227.54747  21988189.00347      1100.41400
   1591934.30907  20744441.77607   1240186.83249  20744438.62049      -860.52800
 -11806749.08607  21908432.30807  -9186528.59048  21908427.77248      3412.95700
  -4848319.77006  23538612.60406  -3776857.18047  23538608.98747       206.90700
  -2877591.40207  21384792.28407  -2230733.92648  21384786.98748      -679.98900
  -8545725.46906  22878823.53406  -6642969.73447  22878821.64747      3238.21600
   7491952.74207  22733876.05807   5829683.50448  22733874.49948     -2504.47500
 08 11  4  1 22 59.9990000  0  9  3  6 13 16 19 21 23 25 31
 -11487728.60208  19830099.65908  -8932817.58249  19830097.76549      1722.69200
  -7120484.87907  19988509.22207  -5532422.94149  19988507.02649       615.83400
  -9638789.05506  21985079.96406  -7493969.23447  21985077.34747      1090.12300
   1604887.38707  20746906.68307   1250280.13749  20746903.83949      -863.53900
 -11857861.64507  21898706.27607  -9226356.55548  21898700.97948      3407.50400
  -4851302.90206  23538044.30006  -3779181.70747  23538041.12447       198.87600
  -2867246.91807  21386760.74507  -2222673.29748  21386755.56248      -689.63200
  -8594259.90205  22869588.02605  -6680788.77047  22869585.94847      3235.62900
   7529586.00806  22741037.31506   5859008.10548  22741036.20648     -2508.88400
 08 11  4  1 23 14.9990000  0  9  3  6 13 16 19 21 23 25 31
 -11513444.12108  19825205.83108  -8952855.64849  19825203.97249      1714.36800
  -7129604.50007  19986773.87007  -5539529.13349  19986771.97249       607.97500
  -9654991.86306  21981996.08106  -7506594.80147  21981993.82347      1080.18700
   1617880.32807  20749379.08907   1260404.50048  20749376.10148      -866.19600
 -11908897.45707  21888993.52607  -9266124.72348  21888988.61648      3402.38700
  -4854170.84806  23537498.69006  -3781416.44947  23537495.28047       191.19600
  -2856763.45707  21388755.90107  -2214504.37148  21388751.10848      -698.89700
  -8642760.55905  22860358.44005  -6718581.46547  22860356.92547      3233.37700
   7567279.81606  22748210.71406   5888379.86748  22748209.02648     -2512.92100
 08 11  4  1 23 29.9990000  0  9  3  6 13 16 19 21 23 25 31
 -11539027.66008  19820337.71408  -8972790.87949  19820335.80049      1705.56900
  -7138599.46907  19985062.20607  -5546538.19949  19985060.06249       599.66500
  -9671038.85906  21978943.48706  -7519098.94947  21978940.83547      1069.80000
   1630919.81307  20751860.44807   1270565.13748  20751857.57348      -869.29900
 -11959849.47706  21879297.45606  -9305827.58648  21879293.00348      3396.80100
  -4856916.91406  23536976.01906  -3783556.24647  23536973.12047       183.07100
  -2846134.43007  21390778.39407  -2206222.02048  21390773.69848      -708.60200
  -8691220.40606  22851136.62006  -6756342.37947  22851135.26547      3230.65700
   7605040.77707  22755396.48707   5917803.95348  22755395.06548     -2517.39700
 08 11  4  1 23 44.9990000  0  9  3  6 13 16 19 21 23 25 31
 -11564482.45708  19815493.88608  -8992625.77749  19815491.58149      1696.98600
  -7147472.92607  19983373.66707  -5553452.56649  19983372.05449       591.56400
  -9686932.88306  21975918.66706  -7531483.90647  21975916.20247      1059.60200
   1644002.91807  20754350.27607   1280759.75449  20754346.80849      -872.20700
 -12010720.47306  21869617.40106  -9345467.30148  21869613.42148      3391.40000
  -4859543.97306  23536476.38606  -3785603.31347  23536473.04247       175.13700
  -2835362.89507  21392828.12807  -2197828.62148  21392823.50348      -718.10200
  -8739642.12506  22841922.47206  -6794073.57847  22841921.02247      3228.11500
   7642865.88307  22762594.19807   5947278.03148  22762593.16748     -2521.67400
 08 11  4  1 23 59.9990000  0  9  3  6 13 16 19 21 23 25 31
 -11589807.35508  19810674.43308  -9012359.46149  19810672.67949      1688.32700
  -7156223.96107  19981708.46407  -5560271.54749  19981706.80849       583.40200
  -9702672.86306  21972923.28406  -7543748.81647  21972921.26547      1049.33200
   1657130.32807  20756848.33907   1290988.89848  20756845.14048      -875.16100
 -12061509.35507  21859952.51907  -9385043.03948  21859948.38248      3385.92600
  -4862051.10206  23535998.80806  -3787556.89847  23535994.91747       167.14200
  -2824448.23007  21394905.06507  -2189323.69548  21394900.50348      -727.64400
  -8788024.65606  22832715.72206  -6831774.24247  22832713.57747      3225.50200
   7680755.85507  22769804.30807   5976802.66448  22769802.99548     -2525.99800
 08 11  4  1 24 14.9990000  0  9  3  6 13 16 19 21 23 25 31
 -11615003.73408  19805879.77608  -9031992.98849  19805878.01549      1679.75900
  -7164853.93408  19980066.20608  -5566996.19149  19980064.33549       575.33200
  -9718260.23006  21969957.47906  -7555894.80947  21969955.52247      1039.15800
   1670300.72707  20759354.31507   1301251.53548  20759351.53448      -878.02700
 -12112217.13306  21850303.06506  -9424555.58648  21850299.29648      3380.51800
  -4864439.53906  23535544.61206  -3789418.02747  23535539.94847       159.22900
  -2813391.98407  21397009.37007  -2180708.44948  21397004.60448      -737.08300
  -8836368.94106  22823515.65906  -6869445.10547  22823513.63247      3222.95200
   7718709.31307  22777026.40107   6006376.78148  22777025.06948     -2530.23000
 08 11  4  1 24 29.9990000  0  9  3  6 13 16 19 21 23 25 31
 -11640069.73808  19801109.55808  -9051524.93449  19801108.43749      1671.06700
  -7173361.29707  19978447.45607  -5573625.31649  19978444.85849       567.15800
  -9733693.45306  21967020.25306  -7567920.70747  21967018.46847      1028.88200
   1683515.81307  20761868.90107   1311548.99648  20761866.12448      -881.00600
 -12162842.02706  21840669.27606  -9464003.55948  21840665.90548      3374.99300
  -4866707.69906  23535112.67506  -3791185.41447  23535108.70247       151.21100
  -2802192.67607  21399140.10407  -2171981.71548  21399135.75748      -746.62100
  -8884673.16806  22814324.36206  -6907084.75447  22814322.00747      3220.28200
   7756727.68007  22784260.83107   6036001.45748  22784259.51148     -2534.55800
 08 11  4  1 24 44.9990000  0  9  3  6 13 16 19 21 23 25 31
 -11665008.89108  19796364.11208  -9070958.03149  19796362.28049      1662.61000
  -7181749.66007  19976851.22907  -5580161.70349  19976849.11249       559.22400
  -9748975.51606  21964112.37006  -7579828.81347  21964110.69447      1018.80400
   1696771.88707  20764392.06507   1321878.40248  20764388.60448      -883.73800
 -12213387.27306  21831050.87006  -9503389.44548  21831047.44848      3369.68300
  -4868859.00406  23534703.43306  -3792861.75847  23534698.74147       143.42000
  -2790854.02707  21401298.32307  -2163146.40648  21401293.34348      -755.91000
  -8932940.49206  22805139.29206  -6944695.64847  22805136.89047      3217.82200
   7794807.39107  22791507.17507   6065673.93848  22791505.52248     -2538.64700
 08 11  4  1 24 59.9990000  0  9  3  6 13 16 19 21 23 25 31
 -11689819.78108  19791642.63608  -9090291.18849  19791640.81249      1654.05900
  -7190017.63708  19975277.48708  -5586604.27049  19975275.79649       551.19800
  -9764105.00006  21961233.22906  -7591618.02347  21961231.47247      1008.63200
   1710070.48407  20766922.51107   1332240.94949  20766919.53049      -886.57300
 -12263851.11306  21821448.11206  -9542711.90248  21821444.37848      3364.25600
  -4870891.78106  23534316.60406  -3794445.74247  23534312.97247       135.51800
  -2779374.77707  21403482.41707  -2154201.55548  21403478.65548      -765.28300
  -8981169.19506  22795961.42506  -6982276.44147  22795958.99547      3215.24700
   7832949.75007  22798765.56507   6095395.24248  22798763.39448     -2542.82400
 08 11  4  1 25 14.9990000  0  9  3  6 13 16 19 21 23 25 31
 -11714501.39108  19786945.83108  -9109523.60949  19786943.81949      1645.44100
  -7198164.39507  19973727.27607  -5592952.38749  19973725.90949       543.11700
  -9779081.02306  21958383.76906  -7603287.65247  21958381.51147       998.40200
   1723412.32807  20769461.05007   1342637.19148  20769458.38648      -889.45600
 -12314232.36706  21811860.58106  -9581970.03548  21811856.76948      3358.75000
  -4872805.33206  23533952.27606  -3795936.81647  23533948.95647       127.57000
  -2767754.26607  21405693.82307  -2145146.61748  21405690.25748      -774.70100
  -9029358.07406  22786791.55806  -7019826.19947  22786788.75347      3212.59200
   7871155.46907  22806036.43307   6125165.90648  22806033.86248     -2547.04800
 08 11  4  1 25 29.9990000  0  9  3  6 13 16 19 21 23 25 31
 -11739054.06608  19782273.71408  -9128655.56349  19782272.09349      1636.84500
  -7206190.30907  19972200.11207  -5599206.33649  19972198.80049       535.06100
  -9793903.74206  21955563.29206  -7614837.83247  21955560.59747       988.18100
   1736797.16807  20772008.11207   1353066.93448  20772005.31248      -892.32300
 -12364531.25406  21802288.90906  -9621163.96948  21802285.46448      3353.25900
  -4874599.85505  23533610.68305  -3797335.16047  23533607.48347       119.63500
  -2755992.99607  21407931.94807  -2135981.99248  21407927.91748      -784.08500
  -9077507.23806  22777629.28406  -7057345.03147  22777625.97947      3209.94400
   7909424.13307  22813318.54207   6154985.62148  22813316.01548     -2551.24400
 08 11  4  1 25 44.9990000  0  9  3  6 13 16 19 21 23 25 31
 -11763476.64508  19777626.01908  -9147686.14849  19777624.75349      1628.17200
  -7214094.61707  19970695.90107  -5605365.53549  19970694.61249       526.95400
  -9808572.34806  21952772.02606  -7626267.92247  21952769.43347       977.90700
   1750225.76207  20774563.72207   1363530.76648  20774560.45248      -895.24000
 -12414746.68406  21792733.56506  -9660292.85548  21792730.47948      3347.69500
  -4876274.39806  23533292.27606  -3798639.97747  23533288.85447       111.63600
  -2744090.32807  21410197.01107  -2126707.18848  21410192.94048      -793.51100
  -9125615.57406  22768474.75306  -7094832.02747  22768472.13247      3207.22200
   7947756.45707  22820612.74507   6184854.94148  22820611.06548     -2555.48800
 08 11  4  1 25 59.9990000  0  9  3  6 13 16 19 21 23 25 31
 -11787769.05508  19773003.67508  -9166615.28949  19773001.89749      1619.49400
  -7221877.00007  19969215.11207  -5611429.74249  19969213.49549       518.82600
  -9823086.48406  21950009.94006  -7637577.64547  21950007.05847       967.60900
   1763698.35207  20777127.40107   1374028.87548  20777124.14048      -898.17300
 -12464877.99607  21783194.19807  -9699356.21148  21783190.89048      3342.08800
  -4877828.60906  23532996.51906  -3799851.03947  23532993.36647       103.61400
  -2732046.14807  21412488.72907  -2117322.12548  21412484.76948      -802.94500
  -9173682.39806  22759327.73706  -7132286.68847  22759325.46447      3204.45500
   7986152.64107  22827919.94007   6214774.01648  22827917.63248     -2559.74600
 08 11  4  1 26 14.9990000  0  9  3  6 13 16 19 21 23 25 31
 -11811933.78108  19768405.26108  -9185444.94949  19768402.90149      1610.98200
  -7229540.43807  19967756.51107  -5617401.24649  19967755.03049       510.89600
  -9837448.75006  21947276.45606  -7648769.01247  21947273.96047       957.48400
   1777212.14107  20779698.82307   1384559.10548  20779696.08548      -900.91900
 -12514927.75007  21773669.95607  -9738356.01248  21773666.36248      3336.65000
  -4879265.19906  23532723.10406  -3800970.46547  23532719.44047        95.77300
  -2719863.46907  21414807.25307  -2107829.13348  21414802.37448      -812.17900
  -9221710.28506  22750188.11206  -7169711.00047  22750186.31247      3201.85900
   8024609.70707  22835238.00307   6244740.51648  22835235.45648     -2563.80400
 08 11  4  1 26 29.9990000  0  9  3  6 13 16 19 21 23 25 31
 -11835970.29308  19763831.62008  -9204174.69949  19763829.16749      1602.43400
  -7237084.52007  19966321.14407  -5623279.75449  19966319.33149       502.93900
  -9851658.56306  21944572.70606  -7659841.61747  21944570.09747       947.32100
   1790767.55107  20782278.03407   1395121.76248  20782275.68748      -903.69400
 -12564895.21506  21764161.40106  -9777291.68448  21764158.02648      3331.16400
  -4880583.65206  23532472.22206  -3801997.84447  23532468.78847        87.89700
  -2707542.02307  21417151.75307  -2098228.01248  21417147.04248      -821.43000
  -9269698.41006  22741056.94806  -7207104.33648  22741054.97248      3199.20800
   8063127.95707  22842567.91707   6274754.69548  22842565.64048     -2567.88300
 08 11  4  1 26 44.9990000  0  9  3  6 13 16 19 21 23 25 31
 -11859875.32408  19759282.35408  -9222801.99249  19759280.12849      1593.66900
  -7244505.90607  19964908.75307  -5629062.64549  19964907.08149       494.75900
  -9865712.66406  21941898.40106  -7670792.85947  21941896.03047       936.94000
   1804367.89507  20784866.19007   1405719.43448  20784863.55448      -906.69000
 -12614776.91006  21754668.94806  -9816160.51248  21754665.57748      3325.44600
  -4881780.69506  23532244.36206  -3802930.59847  23532240.56247        79.80300
  -2695078.83606  21419523.23706  -2088516.43848  21419519.05848      -830.87900
  -9317643.28906  22731933.26106  -7244463.97748  22731931.19048      3196.32500
   8101710.57807  22849910.22907   6304819.04748  22849907.83148     -2572.17500
 08 11  4  1 26 59.9990000  0  9  3  6 13 16 19 21 23 25 31
 -11883648.48408  19754758.16708  -9241326.52049  19754756.28849      1584.87700
  -7251804.29707  19963520.25307  -5634749.69549  19963518.28849       486.55900
  -9879610.60506  21939253.95606  -7681622.41447  21939251.19047       926.52900
   1818013.50007  20787463.01907   1416352.35548  20787460.24548      -909.70700
 -12664572.14806  21745192.76906  -9854961.96548  21745189.74548      3319.68300
  -4882855.75005  23532039.63605  -3803768.28947  23532036.41747        71.67000
  -2682473.65206  21421921.62006  -2078694.22748  21421918.19048      -840.34600
  -9365544.13306  22722818.14406  -7281789.30547  22722815.83147      3193.39000
   8140357.84407  22857264.63607   6334933.78148  22857261.76148     -2576.48400
 08 11  4  1 27 14.9990000  0  9  3  6 13 16 19 21 23 25 31
 -11907294.67607  19750258.61207  -9259752.11749  19750256.41749      1576.41300
  -7258984.77007  19962153.63607  -5640344.87149  19962151.25349       478.69800
  -9893357.22306  21936638.07306  -7692334.06647  21936635.04647       916.44100
   1831699.37507  20790067.83907   1427016.66848  20790064.08548      -912.39200
 -12714285.66806  21735732.78406  -9893699.75848  21735729.42948      3314.23500
  -4883813.88705  23531857.54205  -3804514.87147  23531853.62047        63.87600
  -2669731.59407  21424346.97207  -2068765.36348  21424342.58548      -849.47100
  -9413405.73006  22713710.65906  -7319084.04747  22713708.24147      3190.77300
   8179064.69906  22864629.91706   6365094.93848  22864627.85148     -2580.45700
 08 11  4  1 27 29.9990000  0  9  3  6 13 16 19 21 23 25 31
 -11930810.92208  19745783.65908  -9278076.45749  19745781.11649      1567.75000
  -7266044.68807  19960809.95607  -5645846.10249  19960808.28049       470.66100
  -9906949.57007  21934051.61207  -7702925.50447  21934048.50747       906.15700
   1845428.14107  20792680.09707   1437714.41848  20792676.45248      -915.25100
 -12763914.47707  21726289.25307  -9932371.54748  21726285.30448      3308.58700
  -4884652.19905  23531698.47205  -3805168.11747  23531694.37447        55.88800
  -2656850.15206  21426798.30006  -2058727.89148  21426793.82348      -858.76300
  -9461224.94506  22704610.41706  -7356345.75048  22704608.10148      3187.94800
   8217833.79706  22872007.20606   6395304.60548  22872005.65948     -2584.60700
 08 11  4  1 27 44.9990000  0  9  3  6 13 16 19 21 23 25 31
 -11954196.80908  19741333.46408  -9296299.22349  19741331.24949      1559.05900
  -7272983.48807  19959489.51907  -5651252.94949  19959488.20649       462.58700
  -9920387.34407  21931494.66707  -7713396.49247  21931491.05847       895.85200
   1859200.27007  20795300.31507   1448445.94548  20795297.07348      -918.14200
 -12813457.84007  21716861.66707  -9970976.75848  21716857.38248      3302.89100
  -4885370.11306  23531561.30806  -3805727.51247  23531557.78847        47.86100
  -2643829.02307  21429276.18307  -2048581.55948  21429271.58548      -868.07500
  -9509001.04706  22695518.81506  -7393573.86747  22695516.62047      3185.07300
   8256665.48406  22879396.69806   6425563.03548  22879394.87848     -2588.77900
 08 11  4  1 27 59.9990000  0  9  3  6 13 16 19 21 23 25 31
 -11977451.43808  19736908.05808  -9314419.70349  19736905.98749      1550.30900
  -7279800.68807  19958192.02607  -5656565.04749  19958190.90549       454.48000
  -9933669.69507  21928966.95607  -7723746.36747  21928963.96847       885.49000
   1873016.60907  20797929.85407   1459211.91448  20797926.52648      -921.08900
 -12862914.69507  21707450.09707 -10009514.55148  21707446.45248      3297.12400
  -4885966.78906  23531448.37006  -3806192.45747  23531443.93347        39.77800
  -2630667.66006  21431780.63606  -2038325.96548  21431776.21048      -877.42400
  -9556732.94906  22686435.89406  -7430767.55147  22686433.48347      3182.12700
   8295560.35906  22886797.96406   6455870.70748  22886796.81948     -2592.99200
 08 11  4  1 28 14.9990000  0  9  3  6 13 16 19 21 23 25 31
 -12000576.37108  19732507.46408  -9332439.14149  19732505.05849      1541.66200
  -7286497.55507  19956917.82307  -5661783.38349  19956916.67149       446.45800
  -9946797.79706  21926468.65906  -7733976.05947  21926465.69847       875.20700
   1886875.72707  20800567.27607   1470011.21548  20800564.24548      -923.94100
 -12912286.21507  21698054.50307 -10047985.84848  21698051.35148      3291.43500
  -4886443.62106  23531357.20606  -3806564.01247  23531353.39047        31.78900
  -2617367.64506  21434311.57306  -2027962.32048  21434307.13648      -886.66800
  -9604421.77306  22677360.27606  -7467927.65647  22677357.67147      3179.25500
   8334516.95306  22894210.66706   6486226.46148  22894210.18348     -2597.10600
 08 11  4  1 28 29.9990000  0  9  3  6 13 16 19 21 23 25 31
 -12023572.26207  19728131.60407  -9350358.02049  19728129.71849      1533.05900
  -7293075.27707  19955666.48707  -5666908.88349  19955664.89749       438.51500
  -9959772.71907  21923999.69007  -7744086.39547  21923996.56947       864.99500
   1900776.51207  20803212.40107   1480842.97748  20803209.64048      -926.71900
 -12961573.28907  21688675.67507 -10086391.35248  21688672.56948      3285.80500
  -4886801.75406  23531289.19006  -3806843.07447  23531284.97947        23.87600
  -2603930.25407  21436868.50307  -2017491.63748  21436864.21048      -895.82600
  -9652068.31306  22668293.47906  -7505054.82847  22668290.80447      3176.43600
   8373534.00406  22901635.31506   6516629.32847  22901634.75347     -2601.13700
 08 11  4  1 28 44.9990000  0  9  3  6 13 16 19 21 23 25 31
 -12046438.18407  19723780.45607  -9368175.62149  19723778.43349      1524.39500
  -7299532.84407  19954437.90907  -5671940.76249  19954435.99149       430.50400
  -9972593.35506  21921559.82306  -7754076.50847  21921556.65547       854.70900
   1914719.95707  20805865.98707   1491708.00048  20805863.14048      -929.56300
 -13010774.76607  21679312.80007 -10124730.15248  21679310.42548      3280.09800
  -4887040.07806  23531243.74506  -3807028.76647  23531239.73347        15.88800
  -2590354.61707  21439451.71407  -2006913.23048  21439448.14048      -905.04200
  -9699671.19106  22659234.71406  -7542147.97347  22659232.72647      3173.52500
   8412612.50806  22909070.75306   6547080.08247  22909070.86247     -2605.23400
 08 11  4  1 28 59.9990000  0  9  3  6 13 16 19 21 23 25 31
 -12069173.06307  19719454.06507  -9385891.10549  19719452.26149      1515.65900
  -7305869.68407  19953231.63607  -5676878.55949  19953230.58949       422.45600
  -9985258.85206  21919149.16706  -7763945.72347  21919146.48347       844.36600
   1928706.78907  20808527.41707   1502606.82448  20808524.19448      -932.45500
 -13059889.32007  21669967.07307 -10163001.21948  21669963.95248      3274.30400
  -4887157.86306  23531221.70606  -3807120.55947  23531218.29247         7.85200
  -2576640.29707  21442061.26907  -1996226.76248  21442057.99148      -914.28800
  -9747229.34406  22650185.36206  -7579206.26647  22650182.69447      3170.54300
   8451753.01605  22916519.33105   6577579.15247  22916518.77647     -2609.36700
 08 11  4  1 29 14.9990000  0  9  3  6 13 16 19 21 23 25 31
 -12091775.68008  19715152.97908  -9403503.52749  19715151.28049      1506.84100
  -7312084.24207  19952049.23707  -5681721.07049  19952048.35149       414.30400
  -9997767.66406  21916769.14406  -7773692.85947  21916766.32347       833.92100
   1942738.52707  20811198.02607   1513540.63748  20811194.09748      -935.44900
 -13108915.31307  21660637.85407 -10201203.28548  21660634.62448      3268.39900
  -4887153.29306  23531222.44006  -3807117.01647  23531218.75747        -0.30500
  -2562785.99607  21444697.54207  -1985431.21548  21444693.81248      -923.62000
  -9794741.04706  22641143.82306  -7616228.36747  22641141.96847      3167.44700
   8490956.91006  22923979.44806   6608127.62147  22923977.60847     -2613.59300
 08 11  4  1 29 29.9990000  0  9  3  6 13 16 19 21 23 25 31
 -12114249.26208  19710876.72908  -9421015.39849  19710874.33149      1498.23900
  -7318179.94907  19950888.97907  -5686470.96949  19950887.75349       406.38000
 -10010122.97706  21914417.98706  -7783320.37147  21914415.70247       823.68800
   1956811.88307  20813875.72907   1524506.89148  20813872.28848      -938.22400
 -13157855.66007  21651324.81507 -10239338.63348  21651320.94848      3262.69000
  -4887029.64506  23531245.61206  -3807020.63347  23531242.08947        -8.24300
  -2548795.17607  21447359.99507  -1974529.28148  21447356.30848      -932.72100
  -9842209.11706  22632110.56506  -7653216.45747  22632108.49547      3164.53800
   8530220.87906  22931452.09706   6638722.89147  22931449.69047     -2617.59800
 08 11  4  1 29 44.9990000  0  9  3  6 13 16 19 21 23 25 31
 -12136591.74208  19706625.24508  -9438425.11749  19706623.00749      1489.49900
  -7324154.80107  19949751.99507  -5691126.69549  19949750.86649       398.32300
 -10022322.82806  21912096.23706  -7792826.74247  21912094.15947       813.32300
   1970928.76607  20816562.00307   1535507.05948  20816558.93348      -941.12600
 -13206708.44107  21642028.15107 -10277405.72748  21642024.49148      3256.85200
  -4886785.03106  23531291.85406  -3806830.00447  23531289.24947       -16.30800
  -2534666.13707  21450049.27607  -1963519.65248  21450045.12448      -941.93600
  -9889631.42206  22623087.34706  -7690168.90247  22623084.38647      3161.48700
   8569546.64106  22938935.42506   6669366.30147  22938933.51547     -2621.71700
 08 11  4  1 29 59.9990000  0  9  3  6 13 16 19 21 23 25 31
 -12158800.69108  19702398.88608  -9455730.78949  19702396.98349      1480.59700
  -7330006.75007  19948638.20607  -5695686.64849  19948637.00749       390.13000
 -10034365.00406  21909804.44806  -7802210.26647  21909802.22947       802.81200
   1985091.34007  20819256.91707   1546542.82048  20819253.96848      -944.17200
 -13255471.03507  21632748.85407 -10315402.53548  21632745.06948      3250.84000
  -4886417.24606  23531362.76106  -3806543.41847  23531359.39447       -24.51900
  -2520396.75007  21452764.42507  -1952400.66048  21452760.37048      -951.29200
  -9937005.42206  22614072.20606  -7727083.70747  22614069.60447      3158.26700
   8608936.25406  22946431.53406   6700059.48047  22946428.39447     -2625.97400
 08 11  4  1 30 14.9990000  0  9  3  6 13 16 19 21 23 25 31
 -12180877.61708  19698197.76908  -9472933.58249  19698195.38649      1471.79500
  -7335737.57007  19947547.42507  -5700152.21149  19947546.00749       382.05500
 -10046250.84806  21907542.83106  -7811471.96147  21907540.68347       792.39000
   1999298.21907  20821960.39407   1557613.10948  20821957.03848      -947.12500
 -13304144.66807  21623486.33907 -10353330.02048  21623482.40548      3244.90900
  -4885927.61306  23531455.22206  -3806161.88347  23531452.33547       -32.64200
  -2505988.81307  21455506.11207  -1941173.70748  21455502.38248      -960.52900
  -9984332.31606  22605066.30006  -7763961.81347  22605063.67547      3155.12600
   8648388.28506  22953938.90906   6730801.29347  22953934.92147     -2630.13500
 08 11  4  1 30 29.9990000  0  9  3  6 13 16 19 21 23 25 31
 -12202821.41808  19694021.75308  -9490032.63749  19694019.17149      1462.92000
  -7341345.78107  19946480.31507  -5704522.24649  19946478.97649       373.88100
 -10057978.98006  21905311.19806  -7820610.76647  21905309.14747       781.87600
   2013550.51607  20824672.48707   1568718.78548  20824668.80448      -950.15300
 -13352727.82807  21614241.81507 -10391187.02348  21614237.67948      3238.87700
  -4885314.83206  23531571.19006  -3805684.39847  23531569.11647       -40.85200
  -2491441.32007  21458274.59707  -1929838.00848  21458270.66348      -969.83300
 -10031610.55106  22596069.45606  -7800801.98447  22596066.81247      3151.88200
   8687903.76606  22961459.22906   6761592.54747  22961453.75747     -2634.36500
 08 11  4  1 30 44.9990000  0  9  3  6 13 16 19 21 23 25 31
 -12224633.90608  19689871.19808  -9507029.37549  19689868.42149      1454.16600
  -7346833.41807  19945436.37807  -5708798.32449  19945434.76149       365.84200
 -10069551.47306  21903108.53406  -7829628.30547  21903107.18747       771.49900
   2027846.08607  20827393.13607   1579858.18448  20827389.33948      -953.03800
 -13401222.36707  21605013.85407 -10428974.97348  21605009.27648      3232.96900
  -4884580.99205  23531710.67505  -3805112.55547  23531708.83147       -48.92300
  -2476756.52707  21461068.86207  -1918395.31648  21461064.47248      -978.98600
 -10078841.84406  22587081.87806  -7837605.59047  22587079.10847      3148.75300
   8727480.49606  22968990.30006   6792431.53947  22968984.61647     -2638.44900
 08 11  4  1 30 59.9990000  0  9  3  6 13 16 19 21 23 25 31
 -12246314.51608  19685745.20608  -9523923.34049  19685742.59749      1445.37400
  -7352200.21907  19944415.28407  -5712980.24249  19944413.46049       357.78700
 -10080967.84406  21900936.40106  -7838524.17647  21900933.96047       761.09100
   2042185.53107  20830121.30807   1591031.77048  20830117.74148      -955.96300
 -13449627.68007  21595802.24507 -10466693.38748  21595798.14448      3227.02100
  -4883725.50006  23531873.67506  -3804445.93047  23531871.21447       -57.03300
  -2461934.32806  21463889.22906  -1906845.54748  21463884.91748      -988.14700
 -10126025.54306  22578102.55006  -7874372.09447  22578100.06947      3145.58000
   8767118.71906  22976533.41706   6823318.44947  22976527.46447     -2642.54800
 08 11  4  1 31 14.9990000  0  9  3  6 13 16 19 21 23 25 31
 -12267861.70308  19681645.19808  -9540713.35249  19681642.61649      1436.47900
  -7357445.02307  19943417.21407  -5717067.10249  19943415.58949       349.65400
 -10092226.58206  21898794.22206  -7847297.22347  21898791.73747       750.58300
   2056570.18807  20832858.96407   1602240.58648  20832855.99548      -958.97700
 -13497941.88307  21586608.22907 -10504340.80148  21586603.96048      3220.94700
  -4882746.75806  23532059.74506  -3803683.30547  23532058.11247       -65.24900
  -2446973.25406  21466736.51906  -1895187.57448  21466732.24548      -997.40500
 -10173159.80506  22569133.12006  -7911100.06647  22569131.28447      3142.28400
   8806820.07406  22984088.47206   6854254.56647  22984083.18747     -2646.75700
 08 11  4  1 31 29.9990000  0  9  3  6 13 16 19 21 23 25 31
 -12289277.75408  19677569.74508  -9557401.17649  19677567.11249      1427.73700
  -7362569.98007  19942441.77607  -5721060.57449  19942440.44049       341.66400
 -10103329.85206  21896681.60406  -7855949.12547  21896678.86647       740.21800
   2070997.77007  20835604.80807   1613482.87548  20835601.83948      -961.83900
 -13546167.03507  21577430.83907 -10541918.81648  21577427.12048      3215.01000
  -4881647.17206  23532269.43306  -3802826.46947  23532266.99547       -73.30600
  -2431875.88307  21469609.63607  -1883423.40248  21469605.14048     -1006.49100
 -10220246.62506  22560172.72906  -7947791.07447  22560170.79647      3139.12100
   8846581.78106  22991654.47906   6885237.69947  22991649.81947     -2650.78000
 08 11  4  1 31 44.9990000  0  9  3  6 13 16 19 21 23 25 31
 -12310563.94507  19673519.03407  -9573987.80549  19673516.37849      1419.07900
  -7367576.52707  19941489.22207  -5724961.77049  19941487.73749       333.77000
 -10114278.85906  21894597.76906  -7864480.81347  21894595.72947       729.93400
   2085467.14807  20838357.97207   1624757.70748  20838355.31248      -964.62500
 -13594304.11307  21568271.09707 -10579428.21148  21568266.46448      3209.13900
  -4880427.93006  23532501.04206  -3801876.42647  23532498.99547       -81.28300
  -2416643.62906  21472508.01906  -1871554.12948  21472503.57348     -1015.48400
 -10267286.82806  22551220.85406  -7984445.77347  22551219.30447      3136.01400
   8886402.60506  22999232.37006   6916266.87547  22999228.31947     -2654.72200
 08 11  4  1 31 59.9990000  0  9  3  6 13 16 19 21 23 25 31
 -12331720.05507  19669493.01107  -9590473.07049  19669491.46449      1410.40700
  -7372464.41407  19940559.01107  -5728770.50049  19940557.90549       325.85900
 -10125073.44107  21892543.83107  -7872892.16847  21892541.31247       719.63900
   2099978.34407  20841119.11207   1636065.13348  20841116.56548      -967.41300
 -13642352.79707  21559127.82307 -10616868.73848  21559123.19448      3203.24600
  -4879088.87506  23532755.75306  -3800833.02347  23532753.90547       -89.27000
  -2401276.60207  21475432.30807  -1859579.82848  21475426.93748     -1024.46800
 -10314280.03506  22542279.14406  -8021063.86347  22542276.70247      3132.88000
   8926282.54706  23006820.74506   6947342.13747  23006816.32747     -2658.66300
 08 11  4  1 32 14.9990000  0 10  3  6  7 13 16 19 21 23 25 31
 -12352746.22307  19665491.58907  -9606857.08249  19665490.47649      1401.74500
  -7377233.83207  19939651.49507  -5732486.93049  19939649.95649       317.96100
   -165745.93815  24042887.45605   -112494.75056  24042886.11246         0.00000
 -10135713.68806  21890519.33906  -7881183.25847  21890516.40147       709.35000
   2114531.28907  20843888.87807   1647405.08248  20843885.84748      -970.19600
 -13690313.10507  21550001.31507 -10654240.41848  21549996.85848      3197.35400
  -4877630.17606  23533033.96406  -3799696.40247  23533031.21847       -97.24700
  -2385775.31306  21478382.35406  -1847500.90648  21478377.10848     -1033.41900
 -10361226.17606  22533345.33106  -8057645.26247  22533343.31947      3129.74300
   8966221.40606  23014421.30006   6978463.31647  23014417.47647     -2662.59100
 08 11  4  1 32 29.9990000  0 10  3  6  7 13 16 19 21 23 25 31
 -12373639.66007  19661516.11207  -9623137.68849  19661514.33549      1392.89600
  -7381882.25007  19938767.02607  -5736109.06349  19938764.90149       309.89500
   -222773.12505  24032035.78405   -156931.51246  24032033.95246      3801.81300
 -10146196.82407  21888524.46407  -7889351.93847  21888521.52647       698.87600
   2129128.49207  20846666.48707   1658779.52348  20846664.28048      -973.14700
 -13738182.02307  21540891.90907 -10691540.85548  21540887.89048      3191.26100
  -4876048.91005  23533334.43305  -3798464.23847  23533331.90547      -105.41800
  -2370137.16007  21481358.36207  -1835315.34448  21481354.28048     -1042.54300
 -10408122.16006  22524421.34706  -8094187.57447  22524419.51547      3126.39900
   9006221.70706  23022033.20606   7009632.37547  23022029.60447     -2666.68700
 08 11  4  1 32 44.9990000  0 10  3  6  7 13 16 19 21 23 25 31
 -12394402.89507  19657564.98707  -9639316.83249  19657562.80049      1384.21600
  -7386412.39107  19937904.85407  -5739639.04349  19937902.89049       302.00900
   -279789.40605  24021185.69005   -201359.75846  24021184.57346      3801.08500
 -10156525.60207  21886558.58107  -7897400.34447  21886556.15947       688.58500
   2143767.46107  20849452.23707   1670186.50048  20849449.01948      -975.93100
 -13785961.82806  21531799.41706 -10728771.84448  21531796.40548      3185.32000
  -4874347.77005  23533658.19005  -3797138.69547  23533655.75747      -113.40900
  -2354364.96507  21484359.65907  -1823025.32048  21484355.69848     -1051.48000
 -10454970.29706  22515506.88606  -8130692.60947  22515503.89047      3123.20900
   9046280.71506  23029656.11206   7040847.17647  23029653.03847     -2670.60100
 08 11  4  1 32 59.9990000  0 10  3  6  7 13 16 19 21 23 25 31
 -12415034.65207  19653638.79207  -9655393.52749  19653636.56249      1375.45100
  -7390823.28107  19937065.53407  -5743076.09849  19937063.47949       294.05900
   -336793.51606  24010338.14406   -245778.53946  24010336.80846      3800.27400
 -10166698.67606  21884622.61206  -7905327.42647  21884619.50347       678.20500
   2158449.30507  20852246.29207   1681626.88748  20852243.09748      -978.79000
 -13833651.18406  21522724.59706 -10765932.36348  21522720.89448      3179.29000
  -4872525.64505  23534005.10405  -3795718.85546  23534002.88246      -121.47500
  -2338457.86707  21487386.57307  -1810630.19148  21487381.80848     -1060.47300
 -10501769.14506  22506600.86206  -8167159.24647  22506597.96447      3119.92300
   9086399.53906  23037290.33106   7072108.57448  23037288.44848     -2674.58800
 08 11  4  1 33 14.9990000  0 10  3  6  7 13 16 19 21 23 25 31
 -12435534.23807  19649737.78407  -9671367.22749  19649735.97949      1366.63900
  -7395114.31307  19936248.69007  -5746419.75449  19936246.88249       286.06900
   -393784.51206  23999493.05806   -290187.07046  23999491.94046      3799.40000
 -10176715.49206  21882716.58906  -7913132.74247  21882713.94847       667.78800
   2173174.43807  20855048.47907   1693101.00848  20855045.15948      -981.67600
 -13881249.27307  21513667.26907 -10803021.77348  21513663.23348      3173.20600
  -4870581.89105  23534374.83905  -3794204.23447  23534372.58547      -129.58400
  -2322415.72707  21490439.01107  -1798129.83248  21490434.04248     -1069.47600
 -10548517.89106  22497705.05006  -8203586.82847  22497702.59347      3116.58300
   9126578.42206  23044935.57306   7103416.75048  23044934.98348     -2678.59200
 08 11  4  1 33 29.9990000  0 10  3  6  7 13 16 19 21 23 25 31
 -12455904.10507  19645861.53407  -9687239.84849  19645860.05449      1357.99100
  -7399287.65607  19935454.78407  -5749671.70749  19935453.22949       278.22300
   -450764.18406  23988650.35406   -334586.80146  23988648.49146      3798.64500
 -10186578.07407  21880839.88607  -7920817.87147  21880837.47247       657.50500
   2187940.91407  20857858.37007   1704607.35248  20857855.26148      -984.43200
 -13928758.01607  21504626.69807 -10840041.57048  21504622.32348      3167.24900
  -4868518.55105  23534767.19805  -3792596.43847  23534765.22647      -137.55600
  -2306240.62107  21493517.16707  -1785525.84448  21493512.44048     -1078.34000
 -10595218.35906  22488818.30806  -8239976.79747  22488815.41347      3113.36500
   9166815.15206  23052592.15106   7134770.02348  23052591.73748     -2682.44900
 08 11  4  1 33 44.9990000  0 10  3  6  7 13 16 19 21 23 25 31
 -12476142.85507  19642010.38607  -9703010.28549  19642008.06949      1349.25000
  -7403342.18407  19934682.92507  -5752831.07049  19934681.58549       270.30200
   -507730.80106  23977810.17506   -378976.35946  23977807.94046      3797.77400
 -10196284.97706  21878992.83106  -7928381.69547  21878989.98347       647.12700
   2202750.20707  20860676.31507   1716147.05548  20860672.94448      -987.28600
 -13976175.69907  21495603.54207 -10876990.41448  21495598.71048      3161.17900
  -4866334.22706  23535183.37006  -3790894.36347  23535180.47947      -145.62200
  -2289931.42207  21496620.83107  -1772817.38348  21496616.03048     -1087.28000
 -10641868.65607  22479940.83907  -8276327.66847  22479937.86647      3110.02000
   9207111.14506  23060260.19006   7166169.48047  23060259.53847     -2686.39900
 08 11  4  1 33 59.9990000  0 10  3  6  7 13 16 19 21 23 25 31
 -12496253.05907  19638183.51907  -9718680.57049  19638181.35449      1340.68000
  -7407280.71507  19933933.88607  -5755900.04749  19933931.88249       262.56900
   -564687.15606  23966971.64406   -423357.92246  23966968.57746      3797.09000
 -10205839.07807  21877174.34707  -7935826.45747  21877172.16747       636.94000
   2217599.10207  20863502.08107   1727717.60948  20863498.16348      -989.92600
 -14023505.05907  21486596.93307 -10913870.42648  21486592.20248      3155.29100
  -4864031.84806  23535621.52606  -3789100.31347  23535618.25347      -153.49200
  -2273491.25407  21499749.12807  -1760006.87148  21499744.85148     -1096.01100
 -10688471.55107  22471073.05007  -8312641.60247  22471069.58147      3106.86000
   9247463.27706  23067939.05806   7197612.68048  23067938.39448     -2690.14200
 08 11  4  1 34 14.9990000  0 10  3  6  7 13 16 19 21 23 25 31
 -12516233.53907  19634381.36207  -9734249.77049  19634379.38649      1332.03200
  -7411102.15607  19933206.58907  -5758877.79349  19933204.52249       254.76300
   -621631.60906  23956135.24506   -467730.21146  23956131.68346      3796.29700
 -10215238.97707  21875385.61207  -7943151.05547  21875384.12847       626.66000
   2232489.13707  20866335.57307   1739320.23848  20866331.34348      -992.66900
 -14070744.62507  21477607.30807 -10950680.47348  21477603.34348      3149.30400
  -4861610.00805  23536082.37005  -3787213.16047  23536080.21847      -161.45600
  -2256919.07007  21502902.93307  -1747093.48048  21502898.59348     -1104.81200
 -10735025.36707  22462213.89407  -8348917.28947  22462211.22647      3103.58800
   9287872.67606  23075628.72906   7229100.49247  23075627.71847     -2693.96000
 08 11  4  1 34 29.9990000  0 10  3  6  7 13 16 19 21 23 25 31
 -12536083.96107  19630603.72207  -9749717.62949  19630602.27249      1323.36100
  -7414806.27007  19932501.42507  -5761764.10949  19932499.90549       246.94100
   -678563.85506  23945301.05006   -512092.99246  23945297.86246      3795.48300
 -10224484.75807  21873626.39407  -7950355.57047  21873624.87447       616.38500
   2247420.32807  20869176.76907   1750954.92648  20869172.50748      -995.41300
 -14117894.02307  21468635.04207 -10987420.25048  21468631.12848      3143.29300
  -4859068.61305  23536566.38605  -3785232.84447  23536563.69447      -169.42600
  -2240215.07007  21506081.66707  -1734077.37948  21506077.90548     -1113.60000
 -10781529.78906  22453364.16706  -8385154.49247  22453361.75747      3100.29500
   9328339.46506  23083329.21406   7260633.02747  23083327.66747     -2697.78600
 08 11  4  1 34 44.9990000  0 10  3  6  7 13 16 19 21 23 25 31
 -12555802.70307  19626851.61207  -9765082.86749  19626849.94849      1314.58300
  -7418391.67607  19931819.14407  -5764557.93449  19931818.14749       239.02700
   -735481.90606  23934469.87806   -556444.71946  23934466.67146      3794.53700
 -10233574.75406  21871896.12006  -7957438.68847  21871895.15947       606.00000
   2262394.18407  20872026.26907   1762622.85948  20872022.16748      -998.25700
 -14164951.48407  21459680.40107 -11024088.38348  21459676.87048      3137.16400
  -4856406.05106  23537073.44006  -3783158.12947  23537070.26147      -177.50400
  -2223377.91807  21509285.18307  -1720957.52748  21509281.49548     -1122.47700
 -10827982.79306  22444524.83906  -8421351.64147  22444521.99547      3096.86700
   9368864.93406  23091041.64406   7292211.29348  23091039.22248     -2701.69800
 08 11  4  1 34 59.9990000  0 10  3  6  7 13 16 19 21 23 25 31
 -12575393.25008  19623123.33908  -9780348.21949  19623121.45649      1306.03600
  -7421862.04707  19931158.93307  -5767262.10549  19931157.61249       231.35800
   -792389.01606  23923641.01106   -600787.91846  23923638.25746      3793.80700
 -10242512.30506  21870195.30006  -7964403.03547  21870194.57747       595.83700
   2277407.23807  20874883.00307   1774321.34048  20874878.99948     -1000.87000
 -14211920.01607  21450742.86207 -11060687.23448  21450738.53048      3131.23500
  -4853625.71506  23537601.81506  -3780991.64146  23537598.99946      -185.35600
  -2206411.51607  21512513.72907  -1707736.96148  21512509.68748     -1131.09300
 -10874387.60507  22435694.32307  -8457511.23847  22435691.53847      3093.65400
   9409445.48006  23098763.65906   7323832.48047  23098760.62847     -2705.37000
 08 11  4  1 35 14.9990000  0 10  3  6  7 13 16 19 21 23 25 31
 -12594854.21507  19619419.94807  -9795512.60549  19619418.25749      1297.39800
  -7425215.71507  19930520.90107  -5769875.35249  19930519.08549       223.57800
   -849283.21506  23912814.61206   -645121.03946  23912811.64746      3792.94700
 -10251295.89806  21868524.15106  -7971247.40647  21868523.24147       585.57300
   2292460.92607  20877747.53407   1786051.48848  20877744.03448     -1003.57900
 -14258797.91007  21441822.27607 -11097215.45348  21441818.21848      3125.19300
  -4850726.12106  23538153.43306  -3778732.23047  23538150.44447      -193.30600
  -2189314.30507  21515767.37007  -1694414.47748  21515763.88248     -1139.81400
 -10920742.34407  22426873.37807  -8493631.80547  22426870.55847      3090.31600
   9450082.55906  23106497.02606   7355497.68447  23106493.83147     -2709.13900
 08 11  4  1 35 29.9990000  0 10  3  6  7 13 16 19 21 23 25 31
 -12614183.71107  19615741.96407  -9810574.54349  19615739.92149      1288.63300
  -7428451.13707  19929905.16707  -5772396.46149  19929903.36649       215.69500
   -906162.56306  23901991.14406   -689442.59446  23901987.59746      3791.95700
 -10259923.66406  21866882.10406  -7977970.35247  21866880.69047       575.18400
   2307557.11307  20880620.66707   1797814.73848  20880617.12048     -1006.41300
 -14305583.10207  21432919.26107 -11133671.44148  21432914.57748      3119.01300
  -4847705.30106  23538728.51106  -3776378.37946  23538725.98746      -201.38800
  -2172084.50007  21519046.40907  -1680988.66448  21519042.38248     -1148.65400
 -10967044.84407  22418062.30807  -8529711.66848  22418059.25748      3086.83300
   9490777.96906  23114241.30006   7387208.35247  23114238.02647     -2713.02700
 08 11  4  1 35 44.9990000  0 10  3  6  7 13 16 19 21 23 25 31
 -12633383.93407  19612088.33907  -9825535.76249  19612085.82349      1280.01500
  -7431570.79307  19929311.12007  -5774827.36349  19929309.36249       207.97700
   -963029.14806  23891169.35406   -733754.21946  23891166.02246      3791.10600
 -10268398.16006  21865269.85406  -7984573.84847  21865267.82747       564.96600
   2322693.32407  20883501.06507   1809609.16848  20883497.60448     -1009.08100
 -14352278.00407  21424033.43307 -11170057.08648  21424028.58548      3112.99300
  -4844565.87506  23539326.18306  -3773932.07046  23539323.18346      -209.29500
  -2154725.00407  21522349.44807  -1667461.79748  21522345.33548     -1157.30000
 -11013297.44907  22409260.90907  -8565752.64847  22409257.88247      3083.50700
   9531528.89506  23121995.76906   7418962.28947  23121992.07747     -2716.72800
 08 11  4  1 35 59.9990000  0 10  3  6  7 13 16 19 21 23 25 31
 -12652453.68407  19608459.34707  -9840395.30949  19608457.02249      1271.31700
  -7434573.55507  19928740.13607  -5777167.17649  19928737.93749       200.18400
  -1019881.48806  23880350.88606   -778054.73446  23880346.86246      3790.15600
 -10276718.09406  21863686.52606  -7991056.91847  21863684.26147       554.66200
   2337870.84007  20886389.43307   1821435.80548  20886386.26548     -1011.83400
 -14398881.07807  21415164.96407 -11206371.15648  21415160.93348      3106.87200
  -4841306.55505  23539945.70605  -3771392.35246  23539943.58946      -217.28800
  -2137235.07807  21525677.76107  -1653833.30548  21525673.24148     -1165.99500
 -11059498.48407  22400468.73707  -8601753.44948  22400466.24948      3080.06900
   9572336.55906  23129761.76906   7450760.43047  23129757.62447     -2720.51100
 08 11  4  1 36 14.9990000  0 10  3  6  7 13 16 19 21 23 25 31
 -12671394.07807  19604855.02607  -9855154.05149  19604852.53849      1262.69300
  -7437460.64807  19928190.69007  -5779416.84849  19928188.72949       192.47300
  -1076720.39106  23869534.99506   -822344.77746  23869531.06246      3789.26000
 -10284884.59406  21862131.89406  -7997420.42647  21862130.07347       544.43300
   2353088.59007  20889285.19007   1833293.78948  20889282.48348     -1014.51700
 -14445393.15207  21406314.19007 -11242614.32848  21406310.68348      3100.80500
  -4837928.39105  23540588.77605  -3768760.00046  23540586.46446      -225.21100
  -2119615.75407  21529030.94007  -1640103.97348  21529026.07348     -1174.62200
 -11105648.81607  22391686.27607  -8637714.73847  22391684.50747      3076.68900
   9613199.68006  23137537.76106   7482601.78947  23137533.93747     -2724.20800
 08 11  4  1 36 29.9990000  0 10  3  6  7 13 16 19 21 23 25 31
 -12690206.01607  19601275.24507  -9869812.70749  19601273.11649      1254.12900
  -7440233.06307  19927662.76107  -5781577.16449  19927660.81549       184.82800
  -1133546.54306  23858721.21406   -866624.88746  23858717.78846      3788.41000
 -10292898.35906  21860607.06506  -8003664.91447  21860605.35147       534.25100
   2368345.61707  20892188.08907   1845182.37948  20892185.95248     -1017.13500
 -14491815.07007  21397480.49507 -11278787.23448  21397476.93348      3094.79500
  -4834432.36305  23541253.54205  -3766035.82446  23541251.85446      -233.06800
  -2101868.39507  21532407.90107  -1626274.87148  21532403.20648     -1183.15700
 -11151748.98006  22382913.61206  -8673636.93047  22382911.47247      3073.34400
   9654117.10906  23145324.12006   7514485.48047  23145320.30847     -2727.82900
 08 11  4  1 36 44.9990000  0 10  3  6  7 13 16 19 21 23 25 31
 -12708890.72707  19597719.74507  -9884372.21149  19597717.60449      1245.64700
  -7442892.12107  19927157.07307  -5783649.15649  19927155.12849       177.27100
  -1190360.77706  23847909.69006   -910895.69546  23847907.30046      3787.61600
 -10300760.64106  21859111.58906  -8009791.36747  21859108.72647       524.15200
   2383640.73407  20895098.86207   1857100.62948  20895096.33948     -1019.67400
 -14538147.61307  21388663.49507 -11314890.49248  21388659.80448      3088.83600
  -4830819.56605  23541942.09705  -3763220.66446  23541939.49146      -240.85300
  -2083994.28107  21535808.94807  -1612346.99648  21535804.49948     -1191.60800
 -11197799.83606  22374150.16706  -8709520.70347  22374148.37847      3070.05700
   9695087.47706  23153120.84706   7546410.43047  23153117.17147     -2731.35800
 08 11  4  1 36 59.9990000  0 10  3  6  7 13 16 19 21 23 25 31
 -12727445.21907  19594188.97207  -9898830.24649  19594186.95649      1236.96600
  -7445434.73807  19926673.31507  -5785630.41849  19926670.85449       169.50800
  -1247159.74206  23837100.64406   -955154.59047  23837098.28047      3786.59800
 -10308468.37506  21857644.75306  -8015797.39847  21857642.31247       513.84900
   2398976.94107  20898017.21407   1869050.93048  20898013.89748     -1022.41400
 -14584387.38707  21379864.45607 -11350921.47748  21379860.54248      3082.65200
  -4827086.84806  23542652.54206  -3760312.04747  23542650.02647      -248.84800
  -2065990.60907  21539235.83107  -1598318.16848  21539230.49948     -1200.24500
 -11243798.08206  22365397.27606  -8745363.48847  22365395.19047      3066.55000
   9736114.02006  23160926.95606   7578379.16047  23160924.60447     -2735.10300
 08 11  4  1 37 14.9990000  0 10  3  6  7 13 16 19 21 23 25 31
 -12745870.44107  19590682.66707  -9913187.55549  19590680.58949      1228.34800
  -7447862.05507  19926211.40907  -5787521.82849  19926209.37849       161.82100
  -1303944.02006  23826295.58906   -999402.05147  23826292.75347      3785.61800
 -10316022.55506  21856207.28406  -8021683.77747  21856205.21847       503.61200
   2414353.24607  20900943.00307   1881032.45748  20900939.96848     -1025.08700
 -14630535.10207  21371083.06507 -11386880.73048  21371078.93348      3076.51400
  -4823235.14506  23543385.22206  -3757310.73047  23543382.85147      -256.78000
  -2047858.88707  21542685.83907  -1584189.55548  21542681.05448     -1208.78200
 -11289744.31306  22356654.08906  -8781165.73447  22356651.91347      3063.08200
   9777195.49606  23168744.61206   7610390.68447  23168742.96447     -2738.76500
 08 11  4  1 37 29.9990000  0 10  3  6  7 13 16 19 21 23 25 31
 -12764162.24207  19587201.84707  -9927440.91449  19587199.68349      1219.45300
  -7450170.08607  19925772.36207  -5789320.30149  19925770.55449       153.86900
  -1360709.53505  23815493.37805  -1043634.88347  23815490.55047      3784.36800
 -10323419.39506  21854799.55806  -8027447.55947  21854798.08547       493.12300
   2429773.60507  20903877.17507   1893048.33648  20903874.11648     -1028.02400
 -14676586.77007  21362319.77607 -11422765.14848  21362315.89448      3070.11100
  -4819260.60205  23544142.01105  -3754213.68047  23544139.94847      -264.97000
  -2029595.32407  21546161.36207  -1569958.20348  21546156.46048     -1217.57100
 -11335634.37906  22347921.48706  -8816924.21547  22347918.73747      3059.33800
   9818335.56606  23176573.27606   7642447.87147  23176571.25347     -2742.67100
 08 11  4  1 37 44.9990000  0 10  3  6  7 13 16 19 21 23 25 31
 -12782322.25007  19583746.07307  -9941591.57049  19583743.76949      1210.66700
  -7452360.76607  19925355.51907  -5791027.30949  19925353.78049       146.04500
  -1417457.49606  23804694.19806  -1087854.03947  23804692.07747      3783.19700
 -10330660.25007  21853422.15907  -8033089.79347  21853419.62447       482.72400
   2445236.49207  20906820.08107   1905097.33648  20906816.61648     -1030.85900
 -14722543.82407  21353574.10407 -11458575.82848  21353570.21448      3063.80400
  -4815164.85206  23544921.36206  -3751022.18847  23544919.19047      -273.05000
  -2011201.63307  21549660.82307  -1555625.47348  21549655.76548     -1226.24600
 -11381469.43406  22339199.68306  -8852639.85247  22339196.73347      3055.67000
   9859532.60906  23184413.05806   7674549.44948  23184411.34748     -2746.47000
 08 11  4  1 37 59.9990000  0 10  3  6  7 13 16 19 21 23 25 31
 -12800352.25407  19580315.29207  -9955640.92649  19580313.24549      1202.00000
  -7454435.72307  19924960.52607  -5792644.15649  19924958.87049       138.33000
  -1474189.32006  23793898.88606  -1132060.62547  23793895.98747      3782.12200
 -10337746.80507  21852073.04207  -8038611.79347  21852070.90147       472.43700
   2460740.11707  20909770.06507   1917178.08248  20909767.18348     -1033.57500
 -14768407.65607  21344846.41707 -11494313.86748  21344842.50348      3057.58900
  -4810949.49605  23545722.99505  -3747737.50447  23545721.14747      -281.02400
  -1992679.89507  21553185.95607  -1541192.95748  21553181.62448     -1234.78300
 -11427250.85506  22330487.61206  -8888313.67647  22330485.46847      3052.09500
   9900784.91406  23192262.77606   7706694.09048  23192261.85448     -2750.15400
 08 11  4  1 38 14.9990000  0 10  3  6  7 13 16 19 21 23 25 31
 -12818251.06307  19576908.72907  -9969588.05149  19576907.00349      1193.25400
  -7456394.33207  19924587.80007  -5794170.34049  19924585.91749       130.57400
  -1530903.80505  23783106.12005  -1176253.71547  23783103.92547      3780.96600
 -10344678.37507  21850753.98707  -8044013.01647  21850751.80847       462.10500
   2476285.31607  20912728.31507   1929291.22748  20912724.78848     -1036.34700
 -14814177.14107  21336137.10407 -11529978.38748  21336133.09348      3051.29900
  -4806613.74606  23546548.01906  -3744358.99647  23546546.23347      -289.05000
  -1974029.37107  21556735.33907  -1526660.09048  21556730.93748     -1243.36800
 -11472977.63306  22321786.57306  -8923944.91447  22321784.15147      3048.45200
   9942093.05506  23200123.65906   7738882.23048  23200122.23748     -2753.87600
 08 11  4  1 38 29.9990000  0 10  3  6  7 13 16 19 21 23 25 31
 -12836019.07807  19573528.01107  -9983433.25449  19573526.12849      1184.53400
  -7458236.71107  19924237.33907  -5795605.96149  19924235.51549       122.82500
  -1587600.81306  23772317.66706  -1220433.15247  23772314.90547      3779.80100
 -10351455.02006  21849464.41706  -8049293.53147  21849461.99947       451.77600
   2491871.98407  20915694.39407   1941436.67648  20915690.56248     -1039.11100
 -14859852.24207  21327444.96407 -11565569.37948  21327441.10848      3045.00700
  -4802157.74605  23547395.82305  -3740886.77747  23547394.06547      -297.06700
  -1955250.48807  21560308.23707  -1512027.19948  21560304.66748     -1251.92600
 -11518649.47306  22313094.81506  -8959533.35247  22313093.36647      3044.78900
   9983456.64806  23207994.72906   7771113.58648  23207994.14748     -2757.57300
 08 11  4  1 38 44.9990000  0 10  3  6  7 13 16 19 21 23 25 31
 -12853656.35507  19570172.18307  -9997176.59049  19570169.96449      1175.81800
  -7459963.30907  19923908.71407  -5796951.36349  19923906.81949       115.10700
  -1644280.48406  23761531.58106  -1264599.10547  23761528.85847      3778.64500
 -10358076.98007  21848204.22907  -8054453.50847  21848201.83547       441.46400
   2507499.78107  20918668.32307   1953614.17648  20918664.16348     -1041.85300
 -14905433.12906  21318771.69006 -11601086.95348  21318767.74548      3038.72600
  -4797581.70306  23548266.87006  -3737321.02747  23548264.63247      -305.07000
  -1936343.85207  21563905.50307  -1497294.75848  21563901.71848     -1260.44200
 -11564266.35506  22304414.07306  -8995078.96948  22304412.79648      3041.12600
  10024875.40606  23215877.06506   7803387.90648  23215875.99948     -2761.25100
 08 11  4  1 38 59.9990000  0 10  3  6  7 13 16 19 21 23 25 31
 -12871162.27307  19566840.56507 -10010817.55549  19566838.37049      1167.06100
  -7461573.43407  19923602.12007  -5798206.00849  19923600.19049       107.34200
  -1700941.79306  23750749.14406  -1308750.75047  23750746.58547      3777.42100
 -10364543.36306  21846974.05006  -8059492.26247  21846970.70247       431.09200
   2523169.58207  20921650.23707   1965824.40648  20921646.69048     -1044.65300
 -14950918.70306  21310115.74506 -11636530.25448  21310112.26548      3032.37200
  -4792884.93006  23549160.40106  -3733661.20747  23549157.53047      -313.11800
  -1917308.98807  21567528.30807  -1482462.41448  21567523.58148     -1268.99100
 -11609827.27706  22295744.42506  -9030580.96147  22295742.85847      3037.39500
  10066349.85206  23223768.63606   7835705.62548  23223768.18348     -2764.96300
 08 11  4  1 39 14.9990000  0 10  3  6  7 13 16 19 21 23 25 31
 -12888536.19507  19563534.49507 -10024355.68449  19563531.73749      1158.26100
  -7463066.60907  19923318.12007  -5799369.52049  19923316.40149        99.54500
  -1757583.68406  23739970.55806  -1352887.26647  23739968.38247      3776.12600
 -10370853.94906  21845772.97206  -8064409.59447  21845769.59347       420.70600
   2538881.81607  20924639.83107   1978067.69548  20924636.70648     -1047.48200
 -14996308.18407  21301478.33107 -11671898.67248  21301474.64748      3025.96500
  -4788066.82406  23550077.51106  -3729906.85547  23550074.42147      -321.20700
  -1898145.62107  21571174.93307  -1467529.92648  21571170.46448     -1277.55800
 -11655331.30906  22287084.98706  -9066038.64847  22287083.71047      3033.60200
  10107880.48806  23231671.45606   7868067.12948  23231671.09748     -2768.70900
 08 11  4  1 39 29.9990000  0 10  3  6  7 13 16 19 21 23 25 31
 -12905780.23007  19560253.15907 -10037792.59049  19560250.01949      1149.60200
  -7464444.98007  19923055.51107  -5800443.56349  19923053.78049        91.89100
  -1814207.83606  23729195.47906  -1397009.94947  23729192.91747      3774.94300
 -10377010.53506  21844601.44006  -8069206.94147  21844598.38247       410.43900
   2554634.50407  20927637.83907   1990342.50848  20927634.45248     -1050.17900
 -15041603.41806  21292859.19806 -11707193.65248  21292855.37048      3019.68200
  -4783129.61706  23551016.13606  -3726059.68047  23551013.63647      -329.14700
  -1878855.82007  21574845.79207  -1452498.92248  21574841.14048     -1285.98700
 -11700780.13306  22278436.90106  -9101453.32047  22278434.99947      3029.92200
  10149465.14506  23239585.09706   7900470.71548  23239584.67548     -2772.31000
 08 11  4  1 39 44.9990000  0 10  3  6  7 13 16 19 21 23 25 31
 -12922889.42607  19556996.94007 -10051124.42649  19556994.07749      1140.61300
  -7465704.00407  19922816.10407  -5801424.61749  19922814.19449        83.93500
  -1870809.33206  23718424.56506  -1441114.99647  23718421.63247      3773.43300
 -10383008.43806  21843460.45606  -8073880.64547  21843457.40947       399.86000
   2570432.32407  20930643.74507   2002652.49648  20930640.94848     -1053.18800
 -15086799.36306  21284258.40906 -11742411.26648  21284254.97948      3013.06300
  -4778068.42206  23551980.12006  -3722115.90247  23551977.07747      -337.41300
  -1859435.28107  21578541.55007  -1437366.03548  21578536.68348     -1294.70300
 -11746168.68006  22269799.30806  -9136821.01647  22269797.21847      3025.90300
  10191108.31606  23247509.90906   7932919.91448  23247508.64748     -2776.21100
 08 11  4  1 39 59.9990000  0 10  3  6  7 13 16 19 21 23 25 31
 -12939868.78907  19553766.52607 -10064355.09449  19553763.67949      1131.95800
  -7466848.43007  19922598.43307  -5802316.37549  19922596.17949        76.29500
  -1927392.71106  23707656.45606  -1485205.91447  23707654.03447      3772.22500
 -10388852.46107  21842348.44807  -8078434.41447  21842345.45647       389.60200
   2586270.59407  20933657.77607   2014993.99648  20933655.13248     -1055.88500
 -15131900.58206  21275675.95606 -11777555.06648  21275672.27648      3006.74800
  -4772887.84806  23552965.72906  -3718079.09847  23552962.83147      -345.37200
  -1839888.94507  21582260.94007  -1422135.12548  21582256.35848     -1303.08900
 -11791501.55506  22261172.52606  -9172145.32447  22261170.84347      3022.19200
  10232805.21106  23255444.63606   7965410.96148  23255443.04248     -2779.79300
 08 11  4  1 40 14.9990000  0 10  3  6  7 13 16 19 21 23 25 31
 -12956720.02707  19550559.21407 -10077485.93449  19550557.03049      1123.41600
  -7467880.02707  19922402.30007  -5803120.21549  19922399.94049        68.77300
  -1983959.34006  23696892.59706  -1529283.78547  23696889.97247      3771.10900
 -10394544.37507  21841264.64407  -8082869.66047  21841261.73747       379.46100
   2602147.46907  20936679.14407   2027365.57848  20936676.19448     -1058.45800
 -15176908.69107  21267111.37807 -11812626.30548  21267107.94048      3000.54100
  -4767589.84406  23553974.38606  -3713950.78147  23553971.71847      -353.20000
  -1820218.76607  21586004.01907  -1406807.71148  21586000.02648     -1311.34500
 -11836780.08606  22252556.43306  -9207427.30548  22252554.90148      3018.56900
  10274553.87506  23263388.77606   7997942.35248  23263387.44848     -2783.24400
 08 11  4  1 40 29.9990000  0 10  3  6  7 13 16 19 21 23 25 31
 -12973441.25807  19547377.47207 -10090515.44549  19547375.99949      1114.74900
  -7468797.35207  19922227.14407  -5803835.01649  19922225.17949        61.15500
  -2040507.15206  23686132.32306  -1573346.99647  23686129.19847      3769.85400
 -10400082.37507  21840210.89407  -8087184.98047  21840208.54247       369.20000
   2618064.75407  20939708.00307   2039768.65248  20939705.31548     -1061.15200
 -15221821.63706  21258564.40906 -11847623.39548  21258561.14448      2994.19600
  -4762172.62106  23555005.07306  -3709729.55947  23555002.15547      -361.14800
  -1800423.51207  21589770.55007  -1391382.85948  21589766.90948     -1319.68400
 -11882002.16806  22243950.94806  -9242665.27047  22243948.68347      3014.80500
  10316355.96906  23271343.57306   8030515.38347  23271341.40947     -2786.80600
 08 11  4  1 40 44.9990000  0 10  3  6  7 13 16 19 21 23 25 31
 -12990031.60907  19544220.24507 -10103442.98849  19544218.72949      1106.02300
  -7469599.48807  19922074.83907  -5804460.05149  19922073.08149        53.47600
  -2097034.89506  23675374.80806  -1617394.56347  23675372.02647      3768.51600
 -10405465.49607  21839186.96407  -8091379.62947  21839184.51947       358.87500
   2634023.42607  20942744.89407   2052203.98048  20942742.46448     -1063.91100
 -15266638.22706  21250036.32306 -11882545.40648  21250032.56548      2987.77300
  -4756635.17605  23556058.06505  -3705414.64847  23556055.87047      -369.16300
  -1780502.36707  21593562.12007  -1375859.91048  21593557.91748     -1328.07600
 -11927166.59406  22235356.31506  -9277858.32848  22235354.41748      3010.96200
  10358212.29306  23279308.72906   8063130.68047  23279306.09747     -2790.42200
 08 11  4  1 40 59.9990000  0 10  3  6  7 13 16 19 21 23 25 31
 -13006495.15607  19541087.57307 -10116271.71549  19541085.66749      1097.57000
  -7470290.71107  19921943.69007  -5804998.66049  19921941.80049        46.08200
  -2153546.33606  23664620.80006  -1661429.43847  23664617.91347      3767.42900
 -10410697.92607  21838190.87007  -8095456.84847  21838188.67547       348.82900
   2650019.23807  20945789.11207   2064668.26248  20945786.21448     -1066.38800
 -15311362.34806  21241525.71406 -11917395.35248  21241521.82748      2981.60800
  -4750981.52005  23557134.08105  -3701009.20347  23557131.99147      -376.91000
  -1760459.71907  21597375.81507  -1360242.26248  21597372.06948     -1336.17700
 -11972277.12106  22226772.34706  -9313009.37147  22226769.73347      3007.36800
  10400118.75806  23287283.65906   8095785.05147  23287281.15547     -2793.76400
 08 11  4  1 41 14.9990000  0 10  3  6  7 13 16 19 21 23 25 31
 -13022830.35507  19537978.78407 -10129000.44149  19537976.58549      1089.01300
  -7470869.66407  19921833.33907  -5805449.79749  19921831.54249        38.59700
  -2210040.14106  23653870.76106  -1705450.55547  23653868.40547      3766.25400
 -10415778.38307  21837223.76907  -8099415.63347  21837221.19447       338.69700
   2666053.62507  20948840.01107   2077162.57848  20948837.03848     -1068.95900
 -15355992.45706  21233032.88606 -11952172.05548  21233029.27648      2975.34100
  -4745210.34805  23558232.18305  -3696512.18847  23558229.55847      -384.74500
  -1740294.48807  21601213.02607  -1344529.09848  21601209.33948     -1344.34900
 -12017332.19506  22218198.69806  -9348117.22348  22218196.15548      3003.67200
  10442076.20706  23295267.86206   8128479.13747  23295265.24147     -2797.16300
 08 11  4  1 41 29.9990000  0 10  3  6  7 13 16 19 21 23 25 31
 -13039036.19507  19534894.47207 -10141628.35949  19534892.87049      1080.38900
  -7471335.30507  19921744.83107  -5805812.62549  19921742.82349        31.04300
  -2266514.42206  23643123.97906  -1749456.46947  23643121.23347      3764.95200
 -10420705.63306  21836286.25306  -8103255.05547  21836283.59747       328.48300
   2682127.85907  20951899.00307   2089687.95348  20951895.39748     -1071.61600
 -15400527.13307  21224558.33907 -11986874.38748  21224554.73348      2968.97800
  -4739320.50005  23559353.02605  -3691922.68447  23559351.23747      -392.65700
  -1720005.64107  21605074.28407  -1328719.63348  21605070.28848     -1352.59000
 -12062330.18006  22209636.22206  -9383180.58248  22209632.53448      2999.86600
  10484085.82806  23303262.00306   8161213.87147  23303259.51147     -2800.64100
 08 11  4  1 41 44.9990000  0 10  3  6  7 13 16 19 21 23 25 31
 -13055108.94107  19531836.26907 -10154152.57049  19531834.31249      1071.51600
  -7471683.98407  19921678.26907  -5806084.32049  19921676.49949        23.24500
  -2322965.21506  23632380.90106  -1793444.07847  23632379.31947      3763.38600
 -10425475.93806  21835378.55806  -8106972.18847  21835375.79647       318.02000
   2698245.67207  20954966.09707   2102247.28148  20954962.65548     -1074.52100
 -15444962.47307  21216102.60407 -12021499.32049  21216098.74149      2962.35600
  -4733308.43005  23560497.53405  -3687237.96947  23560495.26547      -400.80500
  -1699589.86707  21608959.27607  -1312811.23048  21608954.70248     -1361.05200
 -12107267.06306  22201084.97906  -9418196.33648  22201081.79648      2995.79200
  10526151.28507  23311267.20607   8193992.12547  23311264.14747     -2804.36400
 08 11  4  1 41 59.9990000  0 10  3  6  7 13 16 19 21 23 25 31
 -13071048.18407  19528803.14407 -10166572.76649  19528800.82749      1062.61600
  -7471915.68407  19921634.33907  -5806264.85549  19921631.91749        15.44700
  -2379392.20706  23621644.19806  -1837413.12947  23621641.39747      3761.79900
 -10430089.23406  21834500.98706  -8110566.96147  21834498.14447       307.55300
   2714407.16807  20958041.44007   2114840.66448  20958038.19848     -1077.43300
 -15489298.12106  21207665.73706 -12056046.55948  21207662.06948      2955.71000
  -4727174.00805  23561665.09705  -3682457.89847  23561661.22247      -408.96100
  -1679047.34407  21612868.51907  -1296804.06648  21612864.05448     -1369.50200
 -12152142.48406  22192545.40106  -9453164.19948  22192542.43348      2991.69500
  10568272.45306  23319282.60406   8226813.79347  23319279.84747     -2808.07800
 08 11  4  1 42 14.9990000  0 10  3  6  7 13 16 19 21 23 25 31
 -13086860.81607  19525794.55807 -10178894.29349  19525791.62449      1054.17600
  -7472037.14807  19921611.56507  -5806359.50849  19921608.77249         8.09800
  -2435801.52006  23610909.23706  -1881368.44147  23610906.86647      3760.62100
 -10434552.09407  21833651.41707  -8114044.51247  21833649.42147       297.52400
   2730605.84807  20961123.97907   2127463.00448  20961120.68348     -1079.91200
 -15533540.39806  21199246.28406 -12090521.05148  21199242.65148      2949.48500
  -4720923.43005  23562854.67505  -3677587.32447  23562851.19047      -416.70500
  -1658384.76207  21616800.22207  -1280703.37948  21616796.28048     -1377.50500
 -12196962.54706  22184016.47206  -9488088.92248  22184013.30048      2988.00400
  10610442.70306  23327307.01906   8259673.69947  23327304.90147     -2811.35000
 08 11  4  1 42 29.9990000  0 10  3  6  7 13 16 19 21 23 25 31
 -13102542.50807  19522810.28407 -10191113.79349  19522808.21849      1045.44600
  -7472043.93007  19921609.59707  -5806364.78948  19921607.17148         0.45200
  -2492188.52706  23600179.50306  -1925306.35547  23600177.12447      3759.13400
 -10438860.16407  21832831.92507  -8117401.45347  21832829.49147       287.20500
   2746845.83207  20964214.53407   2140117.52748  20964211.44048     -1082.66600
 -15577684.73006  21190846.23706 -12124919.22348  21190842.35848      2942.95500
  -4714552.55505  23564067.15105  -3672623.02047  23564063.21847      -424.72500
  -1637598.09007  21620755.81507  -1264505.96948  21620751.85448     -1385.77800
 -12241722.64506  22175498.37006  -9522966.91048  22175495.63248      2984.00700
  10652666.35206  23335341.67506   8292575.20347  23335339.48747     -2814.91000
 08 11  4  1 42 44.9990000  0 10  3  6  7 13 16 19 21 23 25 31
 -13118096.50007  19519850.71407 -10203233.78149  19519848.64449      1036.93300
  -7471939.72707  19921629.38607  -5806283.58249  19921627.65949        -6.94700
  -2548556.25405  23589452.66705  -1969229.25047  23589450.99547      3757.84800
 -10443016.82006  21832040.97206  -8120640.41047  21832038.50347       277.11000
   2763123.93007  20967311.93307   2152801.76248  20967308.75348     -1085.20700
 -15621734.55906  21182463.85406 -12159243.75448  21182460.49148      2936.65500
  -4708064.90205  23565301.10405  -3667567.70347  23565298.26547      -432.51000
  -1616691.00807  21624734.16707  -1248214.73448  21624730.12448     -1393.80500
 -12286425.75406  22166991.83106  -9557800.49648  22166988.59348      2980.20700
  10694939.73406  23343386.08906   8325515.47347  23343383.90947     -2818.22600
 08 11  4  1 42 59.9990000  0 10  3  6  7 13 16 19 21 23 25 31
 -13133524.07807  19516914.22207 -10215255.26249  19516912.78049      1028.50500
  -7471725.85207  19921669.87807  -5806116.92648  19921668.39748       -14.25800
  -2604905.74205  23578729.75305  -2013137.90647  23578727.94447      3756.63300
 -10447023.40606  21831278.39406  -8123762.42647  21831275.80447       267.10600
   2779438.87507  20970416.78407   2165514.70748  20970413.51548     -1087.66300
 -15665690.49206  21174098.87006 -12193495.12148  21174095.79248      2930.39600
  -4701461.61706  23566558.03406  -3662422.28947  23566554.96047      -440.21900
  -1595665.03507  21628734.98707  -1231830.85948  21628731.12448     -1401.73200
 -12331072.91806  22158496.05006  -9592590.49648  22158492.71448      2976.47800
  10737261.48806  23351440.15906   8358493.44147  23351436.95647     -2821.45000
 08 11  4  1 43 14.9990000  0 10  3  6  7 13 16 19 21 23 25 31
 -13148819.27707  19514003.81507 -10227173.58249  19514002.03849      1019.68000
  -7471396.52007  19921732.79207  -5805860.30549  19921730.63249       -21.95500
  -2661230.88705  23568010.76905  -2057027.61347  23568009.57747      3755.01000
 -10450874.16806  21830545.90106  -8126763.04347  21830543.33947       256.71700
   2795796.37907  20973529.14407   2178260.80148  20973526.42548     -1090.50000
 -15709546.65206  21165753.01906 -12227668.73048  21165749.90948      2923.74400
  -4694737.05906  23567837.81506  -3657182.36747  23567834.99547      -448.30400
  -1574514.74607  21632759.79207  -1215350.13348  21632755.55048     -1410.01900
 -12375658.03506  22150011.86206  -9627332.15248  22150008.94048      2972.34100
  10779637.25406  23359502.90906   8391513.51647  23359500.28447     -2825.05100
 08 11  4  1 43 29.9990000  0 10  3  6  7 13 16 19 21 23 25 31
 -13163984.28107  19511118.27607 -10238990.46949  19511116.26149      1011.00000
  -7470953.97707  19921817.21407  -5805515.46149  19921815.17149       -29.50300
  -2717533.32806  23557297.97906  -2100899.61747  23557295.83547      3753.49600
 -10454571.10906  21829842.29206  -8129643.78148  21829839.92948       246.46300
   2812194.54307  20976649.62007   2191038.57848  20976647.05048     -1093.21100
 -15753304.79706  21157426.24506 -12261765.96548  21157422.97948      2917.21000
  -4687893.12505  23569139.72905  -3651849.41847  23569137.01547      -456.26200
  -1553242.30507  21636808.17507  -1198774.21148  21636803.63248     -1418.16300
 -12420182.68006  22141538.91706  -9662026.67248  22141535.64448      2968.31000
  10822064.89806  23367576.94006   8424574.00847  23367574.28047     -2828.51000
 08 11  4  1 43 44.9990000  0 10  3  6  7 13 16 19 21 23 25 31
 -13179018.03507  19508257.24507 -10250705.07049  19508255.55049      1002.25000
  -7470397.39807  19921922.86207  -5805081.75849  19921920.60449       -37.10500
  -2773812.06606  23546588.52606  -2144753.16047  23546586.12047      3751.91600
 -10458113.26207  21829168.44007  -8132403.90248  21829165.56948       236.14300
   2828634.14507  20979777.89407   2203848.64148  20979775.11648     -1095.97300
 -15796963.93806  21149118.47906 -12295786.05948  21149114.76548      2910.60900
  -4680928.94105  23570465.24505  -3646422.77047  23570462.82347      -464.27900
  -1531846.95707  21640879.49507  -1182102.51648  21640875.06948     -1426.35700
 -12464645.75406  22133078.01906  -9696673.22748  22133075.21448      2964.20500
  10864545.22306  23375660.81506   8457675.50847  23375658.06947     -2832.02200
 08 11  4  1 43 59.9990000  0 10  3  6  7 13 16 19 21 23 25 31
 -13193922.47307  19505421.13607 -10262318.91849  19505419.21049       993.62900
  -7469728.67607  19922050.30807  -5804560.67248  19922048.12448       -44.58200
  -2830068.35206  23535883.35406  -2188589.22347  23535880.90147      3750.41900
 -10461502.58607  21828523.23707  -8135044.93848  21828520.52248       225.95500
   2845113.39507  20982914.44007   2216689.60548  20982911.08948     -1098.61700
 -15840525.51606  21140828.37806 -12329730.14548  21140825.04248      2904.10500
  -4673846.33606  23571813.05806  -3640903.86347  23571811.08147      -472.17400
  -1510331.01207  21644973.60407  -1165336.85248  21644969.90148     -1434.39600
 -12509048.62906  22124628.47906  -9731272.85948  22124625.26148      2960.19200
  10907076.24605  23383754.33105   8490816.54347  23383751.38647     -2835.40200
 08 11  4  1 44 14.9990000  0 10  3  6  7 13 16 19 21 23 25 31
 -13208698.05907  19502609.43307 -10273832.35549  19502607.25349       985.03900
  -7468948.24207  19922198.73707  -5803952.54748  19922196.60148       -52.02900
  -2886302.15206  23525181.74506  -2232407.75047  23525179.77647      3748.92000
 -10464739.42206  21827907.61206  -8137567.14848  21827904.76548       215.78900
   2861632.09807  20986057.88607   2229561.32448  20986053.65148     -1101.24700
 -15883989.82406  21132557.53406 -12363598.43048  21132554.44848      2897.62100
  -4666645.42606  23573183.74506  -3635292.75047  23573180.43347      -480.06100
  -1488694.95707  21649091.23707  -1148477.60548  21649086.75348     -1442.40400
 -12553391.33206  22116189.78406  -9765825.61748  22116186.90548      2956.18000
  10949657.38305  23391856.81505   8523996.60947  23391854.68347     -2838.74200
 08 11  4  1 44 29.9990000  0 10  3  6  7 13 16 19 21 23 25 31
 -13223343.92607  19499822.33107 -10285244.71149  19499819.79649       976.39100
  -7468055.50407  19922368.74507  -5803256.89148  19922365.97248       -59.51600
  -2942512.56306  23514486.01906  -2276208.05947  23514483.08547      3747.36100
 -10467823.19906  21827320.34706  -8139970.09047  21827318.34747       205.58500
   2878190.98007  20989208.87807   2242464.34848  20989205.05848     -1103.92600
 -15927355.84406  21124305.66706 -12397390.10548  21124302.64748      2891.06800
  -4659325.65606  23574576.44806  -3629589.06347  23574573.37847      -487.98500
  -1466938.40607  21653231.38607  -1131524.43448  21653226.82748     -1450.43700
 -12597672.87106  22107763.80006  -9800330.69948  22107760.57748      2952.10300
  10992289.24605  23399969.95605   8557216.18447  23399967.13247     -2842.12400
 08 11  4  1 44 44.9990000  0 10  3  6  7 13 16 19 21 23 25 31
 -13237861.23407  19497059.58907 -10296556.89849  19497057.50349       967.82100
  -7467051.66807  19922559.70607  -5802474.68449  19922557.85149       -66.92200
  -2998700.52705  23503793.72905  -2319990.86747  23503791.31547      3745.86400
 -10470754.84806  21826762.12806  -8142254.49247  21826760.41747       195.44300
   2894788.97307  20992367.19007   2255397.84448  20992363.50748     -1106.53300
 -15970624.33606  21116071.93306 -12431105.81648  21116068.51548      2884.56600
  -4651888.37906  23575991.42506  -3623793.78547  23575988.92947      -495.81800
  -1445062.64507  21657394.15907  -1114478.41048  21657389.26948     -1458.38400
 -12641893.89806  22099348.62806  -9834788.64548  22099345.75748      2948.06800
  11034970.72305  23408091.84705   8590474.42647  23408089.61647     -2845.43200
 08 11  4  1 44 59.9990000  0 10  3  6  7 13 16 19 21 23 25 31
 -13252250.29707  19494321.44007 -10307769.14849  19494319.22949       959.27100
  -7465937.35507  19922771.56507  -5801606.37549  19922769.68349       -74.28700
  -3054865.88706  23493105.37806  -2363756.05947  23493103.43347      3744.35700
 -10473534.85206  21826233.41706  -8144420.74247  21826231.27647       185.33400
   2911425.55107  20995533.00307   2268361.41048  20995529.69448     -1109.10500
 -16013795.82806  21107856.69806 -12464745.93449  21107853.39449      2878.09900
  -4644333.85905  23577429.02605  -3617907.15247  23577426.51947      -503.63500
  -1423068.57407  21661579.62007  -1097340.19148  21661575.11248     -1466.27100
 -12686054.67606  22090944.96406  -9869199.63348  22090942.19448      2944.05200
  11077701.15206  23416223.05006   8623770.83647  23416221.37047     -2848.69500
 08 11  4  1 45 14.9990000  0 10  3  6  7 13 16 19 21 23 25 31
 -13266509.64507  19491607.87807 -10318880.32049  19491606.06949       950.62300
  -7464711.11707  19923005.19807  -5800650.85949  19923003.16349       -81.74900
  -3111006.90605  23482422.71405  -2407502.30947  23482420.26547      3742.73500
 -10476161.83206  21825734.07306  -8146467.74647  21825730.93747       175.13200
   2928102.19107  20998706.36207   2281356.19948  20998702.97948     -1111.77600
 -16056868.44507  21099660.42507 -12498309.01249  21099657.08949      2871.50800
  -4636660.74605  23578888.97205  -3611928.09847  23578886.22647      -511.54100
  -1400954.86707  21665787.98707  -1080108.73048  21665783.40148     -1474.24700
 -12730153.41006  22082553.50306  -9903562.26648  22082550.75348      2939.91600
  11120481.80905  23424363.89405   8657106.39147  23424362.48747     -2852.04400
 08 11  4  1 45 29.9990000  0 10  3  6  7 13 16 19 21 23 25 31
 -13280642.82407  19488918.80807 -10329893.17649  19488916.35149       942.21200
  -7463376.39107  19923258.97207  -5799610.80949  19923256.89749       -88.98200
  -3167126.78105  23471743.02605  -2451232.05147  23471740.49947      3741.32500
 -10478639.24606  21825262.15106  -8148398.20347  21825260.01147       165.16100
   2944815.62907  21001886.69807   2294379.64848  21001883.51548     -1114.22900
 -16099845.30907  21091482.21407 -12531797.47748  21091478.65548      2865.12400
  -4628872.35905  23580370.26105  -3605859.23846  23580368.01146      -519.22600
  -1378725.23807  21670017.41707  -1062786.94148  21670012.97948     -1481.97500
 -12774193.10906  22074172.82306  -9937878.89848  22074170.66748      2935.98000
  11163309.23806  23432513.79206   8690478.37547  23432512.36247     -2855.16200
 08 11  4  1 45 44.9990000  0 10  3  6  7 13 16 19 21 23 25 31
 -13294647.50407  19486253.54207 -10340805.91049  19486251.44849       933.64500
  -7461931.28507  19923533.90907  -5798484.74249  19923531.61649       -96.34000
  -3223222.84805  23461068.30805  -2494943.24647  23461065.63247      3739.73800
 -10480964.92607  21824819.67507  -8150210.41847  21824816.99147       155.04500
   2961567.92207  21005074.62807   2307433.37548  21005071.64048     -1116.82000
 -16142724.15606  21083322.55006 -12565209.55548  21083318.75348      2858.59000
  -4620966.65605  23581875.15105  -3599698.95747  23581872.53847      -527.04700
  -1356377.73007  21674270.10407  -1045373.30548  21674265.42148     -1489.83400
 -12818171.23406  22065804.30006  -9972147.56648  22065801.60448      2931.87500
  11206185.47306  23440673.22906   8723888.40247  23440671.01547     -2858.41600
 08 11  4  1 45 59.9990000  0 10  3  6  7 13 16 19 21 23 25 31
 -13308524.65607  19483612.76907 -10351619.28149  19483610.85849       925.14300
  -7460376.64107  19923829.95607  -5797273.34449  19923826.98749      -103.64300
  -3279295.78905  23450397.58105  -2538636.42647  23450395.14747      3738.19600
 -10483139.86707  21824405.93307  -8151905.18047  21824402.81947       144.99600
   2978358.18407  21008269.88607   2320516.69948  21008266.91748     -1119.35100
 -16185505.60906  21075181.22906 -12598545.74648  21075177.89448      2852.09700
  -4612944.36305  23583401.24505  -3593447.82047  23583399.68347      -534.82000
  -1333913.73807  21678545.21407  -1027868.90248  21678540.33148     -1497.59900
 -12862088.42206  22057447.36206 -10006368.74648  22057444.79648      2927.81300
  11249109.41405  23448840.62805   8757335.60947  23448838.87447     -2861.59600
 08 11  4  1 46 14.9990000  0 10  3  6  7 13 16 19 21 23 25 31
 -13322272.05107  19480996.97207 -10362331.53149  19480994.71849       916.49300
  -7458710.40607  19924147.14407  -5795974.97349  19924144.45249      -111.08200
  -3335342.89505  23439732.04205  -2582309.47747  23439729.65147      3736.47400
 -10485161.75807  21824021.37007  -8153480.69547  21824018.26547       134.79300
   2995188.75007  21011472.51907   2333631.43448  21011469.60148     -1122.03800
 -16228187.25807  21067059.86207 -12631804.15648  21067055.87448      2845.44300
  -4604802.92206  23584951.81506  -3587103.82847  23584948.99147      -542.76300
  -1311331.05907  21682842.72907  -1010272.01248  21682838.25348     -1505.51200
 -12905942.00006  22049102.09706 -10040540.36748  22049099.67948      2923.57200
  11292083.19506  23457018.72906   8790821.63747  23457016.90547     -2864.91900
 08 11  4  1 46 29.9990000  0 10  3  6  7 13 16 19 21 23 25 31
 -13335888.65207  19478405.83907 -10372941.86349  19478403.79249       907.77300
  -7456931.80507  19924485.59707  -5794589.04749  19924483.60149      -118.57300
  -3391363.06306  23429071.98706  -2625961.51647  23429068.90547      3734.67800
 -10487029.80507  21823665.69007  -8154936.31647  21823662.67547       124.53600
   3012060.55907  21014683.33907   2346778.28148  21014680.25748     -1124.78700
 -16270767.93407  21058956.88607 -12664983.89148  21058953.51548      2838.71200
  -4596541.62506  23586523.91706  -3580666.46947  23586520.83947      -550.75300
  -1288629.07407  21687162.30007   -992582.16048  21687158.38248     -1513.46600
 -12949730.86306  22040769.17506 -10074661.54748  22040766.96848      2919.25800
  11335107.57006  23465205.74506   8824347.09847  23465204.21047     -2868.29200
 08 11  4  1 46 44.9990000  0 10  3  6  7 13 16 19 21 23 25 31
 -13349378.51607  19475838.58107 -10383453.44549  19475836.80849       899.32400
  -7455044.82407  19924844.62807  -5793118.66449  19924842.33949      -125.79900
  -3447359.78106  23418415.93306  -2669595.31347  23418413.24947      3733.11500
 -10488747.91407  21823338.63607  -8156275.10248  21823335.92948       114.54100
   3028969.62507  21017900.64407   2359954.17648  21017898.23748     -1127.27100
 -16313251.28107  21050872.49507 -12698087.79348  21050868.18748      2832.22300
  -4588165.03106  23588117.51106  -3574139.24647  23588114.84347      -558.44000
  -1265812.03507  21691504.07307   -974802.67248  21691500.43348     -1521.13600
 -12993458.45706  22032448.07306 -10108734.99248  22032445.71448      2915.17300
  11378178.51206  23473402.00306   8857908.83247  23473399.96847     -2871.39600
 08 11  4  1 46 59.9990000  0 10  3  6  7 13 16 19 21 23 25 31
 -13362740.99207  19473296.08907 -10393865.76649  19473293.95249       890.83200
  -7453048.81607  19925224.27607  -5791563.33249  19925222.12849      -133.06700
  -3503332.10505  23407765.05005  -2713210.07447  23407761.89047      3731.48800
 -10490315.42207  21823040.34707  -8157496.55548  21823037.46448       104.50100
   3045916.81607  21021125.78407   2373159.77348  21021123.29648     -1129.81300
 -16355636.34406  21042806.47206 -12731115.10248  21042802.43748      2825.67100
  -4579672.17606  23589733.11206  -3567521.44547  23589730.49947      -566.19000
  -1242879.46507  21695868.22207   -956933.14548  21695863.83148     -1528.83800
 -13037123.81306  22024138.83106 -10142759.93848  22024136.69848      2911.02400
  11421296.62906  23481606.71406   8891507.31647  23481605.01947     -2874.54100
 08 11  4  1 47 14.9990000  0 10  3  6  7 13 16 19 21 23 25 31
 -13375975.11707  19470777.58907 -10404178.07049  19470775.51149       882.27500
  -7450943.26207  19925624.91707  -5789922.63749  19925623.04649      -140.37000
  -3559278.87106  23397118.38606  -2756804.94947  23397115.72247      3729.78400
 -10491731.67607  21822770.91707  -8158600.11747  21822768.01547        94.41700
   3062902.82806  21024357.97206   2386395.62148  21024355.43748     -1132.40100
 -16397922.26606  21034760.00306 -12764065.16048  21034755.75748      2819.06100
  -4571062.12905  23591371.97905  -3560812.32847  23591369.32747      -574.00300
  -1219830.89807  21700254.47207   -938973.22348  21700249.56948     -1536.57100
 -13080725.78906  22015841.90106 -10176735.49648  22015839.02648      2906.79800
  11464462.63306  23489821.65106   8925143.10547  23489819.75347     -2877.73400
 08 11  4  1 47 29.9990000  0 10  3  6  7 13 16 19 21 23 25 31
 -13389079.83207  19468283.85407 -10414389.53149  19468281.53449       873.64800
  -7448727.02007  19926046.54207  -5788195.69149  19926044.87849      -147.74900
  -3615198.64706  23386477.73706  -2800378.81647  23386474.94047      3727.98500
 -10492995.57006  21822530.64406  -8159584.98048  21822527.76948        84.26000
   3079928.84806  21027598.24506   2399662.64548  21027594.88648     -1135.06800
 -16440107.68806  21026732.60406 -12796936.90248  21026727.98348      2812.36100
  -4562333.92605  23593032.66705  -3554011.14847  23593030.14047      -581.88000
  -1196665.56307  21704661.87007   -920922.32048  21704658.51548     -1544.35600
 -13124262.98006  22007556.94006 -10210660.58248  22007554.07348      2902.47900
  11507677.41406  23498044.96406   8958816.92647  23498043.19847     -2880.98500
 08 11  4  1 47 44.9990000  0 10  3  6  7 13 16 19 21 23 25 31
 -13402058.71507  19465814.01107 -10424502.94949  19465811.43349       865.25900
  -7446403.72707  19926488.69807  -5786385.33249  19926486.69449      -154.88600
  -3671094.68805  23375840.50305  -2843934.13347  23375838.17147      3726.40300
 -10494110.59807  21822318.40107  -8160453.83648  21822315.46448        74.33500
   3096991.41406  21030844.79206   2412958.14848  21030841.45648     -1137.50400
 -16482195.83607  21018723.41707 -12829732.85548  21018718.99948      2805.87700
  -4553491.05905  23594715.55005  -3547120.62147  23594712.77247      -589.52400
  -1173387.17207  21709092.51907   -902783.34448  21709088.30448     -1551.89300
 -13167738.48806  21999284.08106 -10244537.60248  21999281.19848      2898.36700
  11550937.25006  23506276.58906   8992525.85247  23506275.07747     -2883.98900
 08 11  4  1 47 59.9990000  0 10  3  6  7 13 16 19 21 23 25 31
 -13414910.02307  19463368.37007 -10434516.94549  19463366.56549       856.75400
  -7443971.69507  19926951.52607  -5784490.24649  19926949.21449      -162.13500
  -3726965.01605  23365208.90105  -2887469.44147  23365206.09347      3724.68900
 -10495075.01207  21822134.64407  -8161205.34048  21822132.18748        64.29400
   3114092.25006  21034099.04206   2426283.47748  21034095.56248     -1140.05600
 -16524184.77007  21010733.03407 -12862451.49248  21010729.01948      2799.26200
  -4544531.60506  23596420.26106  -3540139.24647  23596417.62447      -597.29700
  -1149994.30107  21713544.16707   -884555.12948  21713540.08148     -1559.52500
 -13211150.25006  21991022.62806 -10278364.94148  21991020.55448      2894.11700
  11594243.75406  23514517.60406   9026271.13347  23514516.41747     -2887.10000
 08 11  4  1 48 14.9990000  0 10  3  6  7 13 16 19 21 23 25 31
 -13427634.25007  19460947.17507 -10444431.92649  19460945.39449       848.28200
  -7441431.67607  19927434.88607  -5782511.01249  19927432.47649      -169.33500
  -3782809.53106  23354582.12806  -2930984.64147  23354579.64747      3722.96800
 -10495889.56607  21821979.92507  -8161840.06348  21821977.22648        54.30400
   3131230.78106  21037360.69806   2439638.16848  21037357.71048     -1142.56900
 -16566074.87507  21002761.40107 -12895093.12548  21002757.18348      2792.67400
  -4535456.30905  23598147.38605  -3533067.59446  23598145.50746      -605.02000
  -1126487.73007  21718016.44007   -866238.32848  21718012.82748     -1567.10500
 -13254498.52706  21982773.67506 -10312142.81348  21982771.42148      2889.88500
  11637596.23806  23522768.13606   9060052.25847  23522766.62047     -2890.16600
 08 11  4  1 48 29.9990000  0 10  3  6  7 13 16 19 21 23 25 31
 -13440231.63307  19458549.97207 -10454248.06649  19458548.33949       839.82600
  -7438783.85207  19927938.71407  -5780447.77349  19927936.71849      -176.52200
  -3838628.05906  23343960.19806  -2974479.59047  23343958.58147      3721.23500
 -10496554.18407  21821853.43307  -8162357.94548  21821850.81248        44.30800
   3148407.02707  21040629.16707   2453022.25448  21040626.12048     -1145.08300
 -16607865.95707  20994809.18307 -12927657.59848  20994804.58148      2786.07200
  -4526265.29705  23599896.01105  -3525905.78146  23599894.40946      -612.73400
  -1102867.84007  21722511.30007   -847833.23848  21722507.14748     -1574.65900
 -13297783.03906  21974536.94006 -10345870.99648  21974535.01148      2885.63400
  11680994.53906  23531026.79206   9093869.08647  23531025.10147     -2893.22000
 08 11  4  1 48 44.9990000  0 10  3  6  7 13 16 19 21 23 25 31
 -13452701.08207  19456177.55807 -10463964.52349  19456175.19049       831.29700
  -7436027.28507  19928463.35407  -5778299.80149  19928461.04249      -183.77100
  -3894419.25005  23333343.61205  -3017953.23847  23333341.56247      3719.41300
 -10497068.08606  21821755.61206  -8162758.39848  21821752.74548        34.26000
   3165622.00006  21043905.01906   2466436.52048  21043902.50748     -1147.66500
 -16649556.90607  20986875.44007 -12960144.03948  20986871.12048      2779.39700
  -4516957.53105  23601667.51105  -3518652.98047  23601665.45247      -620.51800
  -1079133.99207  21727028.51107   -829339.33648  21727023.28848     -1582.25700
 -13341002.37106  21966312.55006 -10379548.39148  21966310.75748      2881.28900
  11724439.50006  23539294.21406   9127722.28547  23539292.14047     -2896.33100
 08 11  4  1 48 59.9990000  0 10  3  6  7 13 16 19 21 23 25 31
 -13465042.76607  19453828.57307 -10473581.42249  19453826.83149       822.77900
  -7433162.44107  19929008.42507  -5776067.44949  19929006.41749      -190.99000
  -3950183.05506  23322732.16706  -3061405.53147  23322730.60847      3717.58700
 -10497431.57807  21821686.51907  -8163041.64548  21821683.91748        24.23300
   3182875.43406  21047187.58906   2479880.74648  21047185.56548     -1150.22900
 -16691147.65207  20978961.01107 -12992552.41048  20978956.44448      2772.71600
  -4507533.23405  23603460.97205  -3511309.35947  23603458.87847      -628.28600
  -1055286.71907  21731566.52607   -810757.03948  21731561.47648     -1589.81800
 -13384156.56306  21958100.69806 -10413175.02748  21958099.23748      2876.94600
  11767930.69106  23547569.97206   9161611.49247  23547568.60847     -2899.41300
 08 11  4  1 49 14.9990000  0 10  3  6  7 13 16 19 21 23 25 31
 -13477257.10207  19451504.58907 -10483099.08649  19451502.09349       814.28900
  -7430189.54707  19929574.19807  -5773750.91449  19929572.01149      -198.19300
  -4005919.48006  23312125.88606  -3104836.50047  23312123.95247      3715.76200
 -10497644.90207  21821645.76907  -8163207.87948  21821642.96048        14.22200
   3200167.17606  21050478.23706   2493354.82448  21050475.48748     -1152.78300
 -16732638.32807  20971065.58107 -13024882.80148  20971060.83948      2766.04500
  -4497992.59805  23605276.17505  -3503875.09846  23605274.21046      -636.04200
  -1031326.43007  21736125.62807   -792086.69548  21736121.62048     -1597.35300
 -13427245.46906  21949900.65906 -10446750.79348  21949898.89748      2872.59400
  11811467.82406  23555854.47206   9195536.48847  23555853.79247     -2902.47600
 08 11  4  1 49 29.9990000  0 10  3  6  7 13 16 19 21 23 25 31
 -13489342.82807  19449204.69807 -10492516.53149  19449202.49949       805.71500
  -7427107.54307  19930160.73707  -5771349.34449  19930158.07749      -205.46700
  -4061626.87506  23301524.35406  -3148244.85947  23301522.75347      3713.82600
 -10497706.87107  21821633.77607  -8163256.18048  21821631.61248         4.13100
   3217498.41006  21053776.65906   2506859.66848  21053773.27248     -1155.41600
 -16774027.59807  20963189.51907 -13057134.17648  20963184.25748      2759.28500
  -4488334.61705  23607113.94005  -3496349.41047  23607111.96047      -643.86500
  -1007252.24207  21740706.81507   -773327.61348  21740702.96048     -1604.94600
 -13470267.51606  21941714.24506 -10480274.46948  21941712.39048      2868.13600
  11855051.98006  23564148.64406   9229498.12147  23564147.36647     -2905.61000
 08 11  4  1 49 44.9990000  0 10  3  6  7 13 16 19 21 23 25 31
 -13501299.02707  19446929.19807 -10501833.04349  19446927.46049       797.08000
  -7423915.68407  19930768.27607  -5768862.19149  19930765.64049      -212.79100
  -4117303.97705  23290929.76105  -3191629.59847  23290927.48747      3711.80700
 -10497616.60207  21821651.51107  -8163185.84848  21821649.37048        -6.01800
   3234870.12107  21057082.42507   2520396.06648  21057079.08948     -1158.11400
 -16815314.13307  20955332.95607 -13089305.50448  20955327.72648      2752.43600
  -4478558.18805  23608975.19005  -3488731.41847  23608972.08947      -651.76200
   -983063.50807  21745310.03407   -754479.25048  21745305.92548     -1612.58200
 -13513221.43806  21933540.08906 -10513745.05948  21933537.83148      2863.59500
  11898683.71106  23572451.94006   9263496.83647  23572450.31547     -2908.78200
 08 11  4  1 49 59.9990000  0 10  3  6  7 13 16 19 21 23 25 31
 -13513124.43807  19444679.02607 -10511047.64549  19444677.22649       788.36100
  -7420612.94507  19931396.67507  -5766288.62549  19931394.44049      -220.18300
  -4172949.38305  23280341.22205  -3234989.64847  23280338.44847      3709.69400
 -10497373.09007  21821697.56507  -8162996.11347  21821695.35147       -16.23400
   3252283.52007  21060396.30007   2533964.94548  21060393.00348     -1160.89300
 -16856496.56607  20947496.04207 -13121395.70348  20947491.19048      2745.49600
  -4468662.45305  23610857.84705  -3481020.46547  23610855.43347      -659.71600
   -958759.37507  21749934.68307   -735540.95748  21749930.98348     -1620.27600
 -13556105.78107  21925379.94007 -10547161.43048  21925376.95248      2858.95600
  11942364.17206  23580763.64406   9297533.54747  23580761.66347     -2912.03100
 08 11  4  1 50 14.9990000  0 10  3  6  7 13 16 19 21 23 25 31
 -13524818.09407  19442454.01107 -10520159.58649  19442451.94449       779.57700
  -7417198.35907  19932046.15107  -5763627.90649  19932044.00749      -227.63900
  -4228561.68406  23269758.22906  -3278323.89847  23269756.00347      3707.48700
 -10496975.38306  21821773.09706  -8162686.22347  21821770.29247       -26.51400
   3269739.59806  21063717.92506   2547567.07848  21063714.48748     -1163.73900
 -16897573.78107  20939679.12807 -13153403.92248  20939675.74948      2738.48100
  -4458646.41405  23612764.08105  -3473215.76247  23612761.49547      -667.73600
   -934339.16807  21754581.72907   -716512.23848  21754577.42948     -1628.01400
 -13598919.16806  21917232.39406 -10580522.50448  21917229.14748      2854.22600
  11986094.35506  23589084.45606   9331608.99647  23589082.76147     -2915.34600
 08 11  4  1 50 29.9990000  0 10  3  6  7 13 16 19 21 23 25 31
 -13536382.05907  19440253.11207 -10529170.46949  19440250.83549       770.93100
  -7413673.82007  19932717.03407  -5760881.51249  19932715.12449      -234.96900
  -4284142.39105  23259181.61205  -3321633.52047  23259178.85147      3705.38000
 -10496425.38306  21821877.37806  -8162257.65647  21821875.10847       -36.66700
   3287236.57806  21067047.58106   2561201.09448  21067044.38648     -1166.46500
 -16938547.33207  20931882.11207 -13185331.35248  20931878.46048      2731.57000
  -4448511.84805  23614692.73705  -3465318.68847  23614690.04247      -675.63800
   -909804.98007  21759250.64407   -697394.70348  21759245.97948     -1635.61300
 -13641663.12507  21909098.35407 -10613829.48448  21909095.38648      2849.59700
  12029872.24606  23597415.79206   9365721.60947  23597413.44847     -2918.52600
 08 11  4  1 50 44.9990000  0 10  3  6  7 13 16 19 21 23 25 31
 -13547818.79707  19438077.05007 -10538082.21549  19438074.99149       762.44900
  -7410042.04307  19933407.94007  -5758051.55149  19933405.97649      -242.11800
  -4339693.72706  23248610.41706  -3364920.25047  23248608.28847      3703.42200
 -10495725.69106  21822010.55806  -8161712.46147  21822008.35447       -46.64600
   3304771.86707  21070384.07307   2574864.93848  21070381.36248     -1169.01900
 -16979419.59407  20924104.65907 -13217179.85948  20924100.64748      2724.81700
  -4438261.38305  23616643.01905  -3457331.32847  23616640.26547      -683.36400
   -885159.75007  21763940.19007   -678190.62148  21763936.06948     -1643.01500
 -13684339.78906  21900977.57306 -10647084.02048  21900974.83148      2845.11100
  12073695.05106  23605755.33906   9399869.22747  23605752.83147     -2921.52000
 08 11  4  1 50 59.9990000  0 10  3  6  7 13 16 19 21 23 25 31
 -13559125.40207  19435925.39407 -10546892.55949  19435923.18349       753.77400
  -7406300.19107  19934120.37007  -5755135.81649  19934118.25349      -249.45700
  -4395212.42605  23238045.20605  -3408181.56647  23238042.97647      3701.24700
 -10494873.36306  21822173.34706  -8161048.32047  21822171.50347       -56.82200
   3322348.75807  21073728.92507   2588561.21548  21073726.43748     -1171.79300
 -17020187.46106  20916346.45606 -13248947.02748  20916342.70248      2717.85800
  -4427892.12105  23618615.90905  -3449251.38346  23618612.97646      -691.28400
   -860400.72707  21768651.60407   -658897.89148  21768647.56948     -1650.60200
 -13726945.94507  21892870.27607 -10680283.60548  21892866.60148      2840.41000
  12117565.73806  23614103.67506   9434054.14147  23614101.83547     -2924.71300
 08 11  4  1 51 14.9990000  0 10  3  6  7 13 16 19 21 23 25 31
 -13570303.33607  19433798.16707 -10555602.63349  19433796.43749       745.19600
  -7402450.01607  19934852.69007  -5752135.66849  19934850.45249      -256.67800
  -4450699.55505  23227487.07305  -3451418.27747  23227484.26547      3699.14200
 -10493870.09806  21822364.20606  -8160266.55147  21822361.80047       -66.88400
   3339965.37107  21077081.40107   2602288.43848  21077078.04248     -1174.44100
 -17060852.39807  20908608.67507 -13280633.98448  20908604.33548      2710.99600
  -4417405.55906  23620611.85406  -3441080.03546  23620608.56246      -699.10400
   -835529.68807  21773384.63607   -639517.88348  21773380.72948     -1658.06900
 -13769482.83606  21884775.72906 -10713429.23848  21884771.95248      2835.79300
  12161482.34406  23622460.87806   9468274.81647  23622458.89747     -2927.77400
 08 11  4  1 51 29.9990000  0 10  3  6  7 13 16 19 21 23 25 31
 -13581352.43007  19431695.33107 -10564212.31349  19431693.52649       736.60600
  -7398491.30907  19935606.23707  -5749050.96149  19935603.76149      -263.91400
  -4506154.52005  23216933.66705  -3494629.93847  23216931.86247      3696.99800
 -10492715.65206  21822583.83906  -8159366.99647  21822581.32347       -76.96300
   3357622.00407  21080441.49507   2616046.84848  21080437.89048     -1177.10900
 -17101413.73007  20900889.91707 -13312240.21948  20900885.81948      2704.08900
  -4406801.39505  23622630.12805  -3432817.05947  23622626.15147      -706.94400
   -810546.71107  21778138.85407   -620050.62948  21778134.23348     -1665.53200
 -13811949.72707  21876694.54207 -10746520.31648  21876690.72648      2831.12600
  12205445.21506  23630827.12806   9502531.56647  23630824.33147     -2930.85800
 08 11  4  1 51 44.9990000  0 10  3  6  7 13 16 19 21 23 25 31
 -13592273.63707  19429617.37807 -10572722.34449  19429615.68349       728.08000
  -7394425.27307  19936379.94807  -5745882.62549  19936378.01549      -271.06900
  -4561578.09005  23206386.96405  -3537817.12147  23206385.17147      3694.90500
 -10491411.15207  21822832.67507  -8158350.50048  21822829.93348       -86.96700
   3375317.72707  21083808.90107   2629835.71148  21083804.81948     -1179.71500
 -17141872.32807  20893190.53407 -13343766.39548  20893187.06948      2697.24000
  -4396080.89806  23624670.55006  -3424463.42247  23624666.66347      -714.70000
   -785453.10907  21782914.21407   -600497.16848  21782909.12048     -1672.90700
 -13854347.50807  21868626.06507 -10779557.54748  21868622.92548      2826.51900
  12249453.17606  23639201.44006   9536823.43047  23639198.41347     -2933.86400
 08 11  4  1 51 59.9990000  0 10  3  6  7 13 16 19 21 23 25 31
 -13603065.19107  19427563.85407 -10581131.34849  19427561.85449       719.43700
  -7390250.00407  19937174.33107  -5742629.15649  19937172.70249      -278.35100
  -4616968.08605  23195846.91705  -3580978.14847  23195844.63247      3692.66600
 -10489954.65606  21823108.92506  -8157215.57848  21823106.74948       -97.10000
   3393054.45707  21087183.96407   2643656.54348  21087180.23348     -1182.44900
 -17182226.20307  20885512.01107 -13375210.95348  20885507.97948      2690.25800
  -4385241.99206  23626732.41706  -3416017.51247  23626729.24147      -722.59400
   -760247.28107  21787709.63607   -580856.27348  21787705.60848     -1680.38900
 -13896673.76207  21860571.61207 -10812539.02347  21860568.41747      2821.75000
  12293507.82006  23647584.01106   9571151.68847  23647581.99547     -2936.97600
 08 11  4  1 52 14.9990000  0 10  3  6  7 13 16 19 21 23 25 31
 -13613725.37907  19425535.13607 -10589437.98449  19425533.67149       710.67900
  -7385964.04707  19937989.62007  -5739289.46149  19937988.30449      -285.73000
  -4672322.50905  23185313.63605  -3624111.40647  23185311.17947      3690.29500
 -10488344.75007  21823415.64407  -8155961.11748  21823413.39048      -107.32700
   3410833.87907  21090566.92507   2657510.63348  21090563.64448     -1185.29500
 -17222473.35506  20877852.83106 -13406572.35548  20877849.28048      2683.14300
  -4374283.24206  23628818.08906  -3407478.23047  23628815.12447      -730.58300
   -734927.89507  21792528.45607   -561126.90248  21792523.71448     -1687.95900
 -13938926.57807  21852531.28407 -10845463.30147  21852528.80047      2816.85400
  12337610.66006  23655976.40106   9605517.51647  23655973.80447     -2940.18900
 08 11  4  1 52 29.9990000  0 10  3  6  7 13 16 19 21 23 25 31
 -13624254.57407  19423531.60407 -10597642.55149  19423529.32349       701.94600
  -7381567.93007  19938826.66707  -5735863.90649  19938824.56949      -293.07400
  -4727641.11306  23174787.08906  -3667216.83647  23174784.49947      3687.90700
 -10486581.93406  21823750.89406  -8154587.48848  21823749.55848      -117.52100
   3428655.76207  21093958.27607   2671397.80948  21093955.44048     -1188.12600
 -17262614.05107  20870214.05807 -13437850.81648  20870211.24148      2676.04600
  -4363204.82406  23630926.48706  -3398845.68847  23630923.71447      -738.56100
   -709495.73407  21797368.15907   -541309.62948  21797363.34348     -1695.47700
 -13981106.06306  21844504.49506 -10878330.41447  21844502.10847      2811.96600
  12381761.21906  23664378.37806   9639920.49647  23664376.56547     -2943.37100
 08 11  4  1 52 44.9990000  0 10  3  6  7 13 16 19 21 23 25 31
 -13634655.37507  19421552.71407 -10605747.07049  19421550.24149       693.38700
  -7377064.14507  19939683.38607  -5732354.45749  19939681.62049      -300.25200
  -4782926.21906  23164266.48706  -3710296.12547  23164263.78847      3685.67400
 -10484668.53506  21824114.97906  -8153096.53148  21824113.08548      -127.56000
   3446517.49607  21097357.72207   2685316.03948  21097354.45648     -1190.78200
 -17302650.46107  20862595.56507 -13469048.02348  20862591.97248      2669.09400
  -4352009.49606  23633056.64406  -3390122.07447  23633053.74147      -746.35500
   -683953.40207  21802228.19807   -521406.52048  21802223.67148     -1702.82200
 -14023214.20306  21836491.73706 -10911141.94547  21836489.01547      2807.20900
  12425957.03106  23672787.95606   9674358.74247  23672786.75347     -2946.38700
 08 11  4  1 52 59.9990000  0 10  3  6  7 13 16 19 21 23 25 31
 -13644927.34407  19419597.78407 -10613751.19949  19419595.19849       684.79800
  -7372452.46507  19940561.31507  -5728760.94549  19940558.92949      -307.44500
  -4838177.03506  23153752.33906  -3753348.68847  23153750.42547      3683.38800
 -10482604.27006  21824508.32306  -8151488.02348  21824505.56548      -137.61800
   3464419.57807  21100764.14407   2699265.71148  21100761.31948     -1193.47200
 -17342582.02707  20854997.18307 -13500163.52748  20854993.93348      2662.10400
  -4340696.87506  23635209.45606  -3381307.04747  23635206.83947      -754.17500
   -658300.84007  21807109.90107   -501417.53948  21807105.46448     -1710.17100
 -14065250.24206  21828492.37806 -10943897.30948  21828490.40948      2802.40300
  12470198.34806  23681206.47206   9708832.45747  23681205.55447     -2949.42100
 08 11  4  1 53 14.9990000  0 10  3  6  7 13 16 19 21 23 25 31
 -13655070.73007  19417667.50307 -10621655.13349  19417665.64749       676.22600
  -7367733.19507  19941459.08107  -5725083.59449  19941456.46449      -314.61800
  -4893393.40606  23143244.74506  -3796374.41047  23143242.33547      3681.09100
 -10480389.52006  21824929.80806  -8149762.25048  21824926.49948      -147.65000
   3482361.92607  21104178.44807   2713246.75848  21104176.01548     -1196.15700
 -17382408.76606  20847417.83106 -13531197.34048  20847414.49548      2655.11600
  -4329267.16006  23637384.90906  -3372400.77747  23637381.70647      -761.98100
   -632538.48407  21812013.10407   -481343.01248  21812007.83948     -1717.49000
 -14107214.03906  21820507.06506 -10976596.38747  21820505.12447      2797.58600
  12514484.72306  23689634.15906   9743341.29747  23689632.67147     -2952.42500
 08 11  4  1 53 29.9990000  0 10  3  6  7 13 16 19 21 23 25 31
 -13665086.03907  19415761.72907 -10629459.26249  19415759.79649       667.68700
  -7362907.00807  19942377.64407  -5721322.92649  19942374.85449      -321.74600
  -4948575.48006  23132744.30806  -3839373.42647  23132741.51947      3678.80500
 -10478024.75806  21825379.61206  -8147919.57848  21825376.52248      -157.65100
   3500344.07007  21107600.76907   2727258.80948  21107598.08548     -1198.81000
 -17422130.99206  20839859.19806 -13562149.70748  20839856.05048      2648.14800
  -4317720.69506  23639581.06506  -3363403.54347  23639578.90947      -769.76400
   -606667.23007  21816935.71407   -461183.59448  21816931.46048     -1724.75000
 -14149105.88706  21812535.69006 -11009239.38748  21812533.54648      2792.79000
  12558815.46506  23698071.00306   9777884.66847  23698068.31947     -2955.38300
 08 11  4  1 53 44.9990000  0 10  3  6  7 13 16 19 21 23 25 31
 -13674972.51207  19413880.38607 -10637163.01249  19413878.60449       659.09800
  -7357973.14507  19943316.43307  -5717478.36749  19943313.64049      -328.92400
  -5003722.22306  23122250.19806  -3882344.90647  23122247.66347      3676.44900
 -10475509.21506  21825858.37006  -8145959.42248  21825855.55048      -167.70300
   3518366.91807  21111030.66707   2741302.58648  21111028.00348     -1201.52300
 -17461747.69507  20832320.96407 -13593019.85549  20832317.21049      2641.11400
  -4306056.94105  23641800.86205  -3354314.89847  23641798.32747      -777.58400
   -580686.42607  21821879.87807   -440938.82048  21821875.55848     -1732.05400
 -14190924.52006  21804577.30806 -11041825.32448  21804575.62848      2787.90900
  12603191.34806  23706514.71406   9812463.23847  23706513.22247     -2958.39200
 08 11  4  1 53 59.9990000  0 10  3  6  7 13 16 19 21 23 25 31
 -13684733.11707  19412022.89407 -10644768.67249  19412021.38649       650.70700
  -7352934.69907  19944275.19807  -5713552.30549  19944272.65549      -335.89600
  -5058836.04306  23111761.90106  -3925290.73447  23111759.71047      3674.25500
 -10472845.98406  21826364.78406  -8143884.18048  21826362.51548      -177.54900
   3536427.47707  21114466.80007   2755375.73848  21114464.73748     -1204.03700
 -17501261.52007  20824801.55807 -13623809.84849  20824797.76149      2634.25500
  -4294278.89106  23644041.76906  -3345137.18847  23644039.99147      -785.20300
   -554599.47307  21826844.15907   -420611.34848  21826839.72948     -1739.13000
 -14232672.46906  21796633.21406 -11074356.19148  21796630.58148      2783.19700
  12647609.24606  23714967.90106   9847074.53547  23714965.95647     -2961.19300
 08 11  4  1 54 14.9990000  0 10  3  6  7 13 16 19 21 23 25 31
 -13694368.24207  19410189.21407 -10652276.55549  19410187.28449       642.34200
  -7347792.16007  19945253.98707  -5709545.12149  19945251.73349      -342.83600
  -5113917.10906  23101280.48706  -3968211.03147  23101278.23747      3672.07100
 -10470035.64106  21826899.67506  -8141694.30148  21826897.08548      -187.35600
   3554525.32407  21117910.77607   2769477.94548  21117907.71448     -1206.52300
 -17540672.82007  20817301.69007 -13654519.94149  20817298.32749      2627.42000
  -4282386.91006  23646305.51906  -3335870.72347  23646302.93347      -792.79900
   -528406.93807  21831828.30007   -400201.58648  21831823.67148     -1746.16900
 -14274349.99206  21788702.30806 -11106832.18048  21788699.97648      2778.50200
  12692068.63706  23723428.58906   9881718.15647  23723426.39447     -2963.95900
 08 11  4  1 54 29.9990000  0 10  3  6  7 13 16 19 21 23 25 31
 -13703878.51607  19408379.76907 -10659687.15649  19408378.10449       634.01800
  -7342546.39107  19946252.38607  -5705457.50849  19946249.64049      -349.71800
  -5168965.72706  23090804.87806  -4011106.03547  23090802.92947      3669.90800
 -10467078.94506  21827462.21406  -8139390.39147  21827459.86247      -197.11300
   3572659.84007  21121361.80007   2783608.73448  21121358.48348     -1208.96800
 -17579981.92607  20809821.13607 -13685150.41849  20809817.64749      2620.60700
  -4270381.39806  23648589.80006  -3326515.78547  23648587.01547      -800.36700
   -502109.85507  21836832.09707   -379710.35548  21836827.69848     -1753.13900
 -14315957.26206  21780784.59706 -11139253.43448  21780782.41348      2773.81800
  12736568.69905  23731896.41705   9916393.46547  23731894.07747     -2966.67100
 08 11  4  1 54 44.9990000  0 10  3  6  7 13 16 19 21 23 25 31
 -13713263.15207  19406593.79207 -10666999.86749  19406592.31949       625.64200
  -7337196.60507  19947270.29207  -5701288.84049  19947267.58149      -356.65200
  -5223981.02706  23080336.25306  -4053975.09047  23080333.42147      3667.68700
 -10463975.17606  21828052.92506  -8136971.87948  21828050.46048      -206.91800
   3590831.84807  21124819.62007   2797768.73848  21124816.14048     -1211.46700
 -17619188.07007  20802360.97207 -13715700.65249  20802356.72249      2613.74300
  -4258262.12506  23650896.18306  -3317072.20747  23650893.63247      -807.95200
   -475707.70307  21841856.26107   -359137.27348  21841852.26948     -1760.14300
 -14357493.24606  21772880.27606 -11171619.13748  21772878.30048      2769.06600
  12781110.06605  23740371.78405   9951100.95747  23740370.15147     -2969.42400
 08 11  4  1 54 59.9990000  0 10  3  6  7 13 16 19 21 23 25 31
 -13722522.60207  19404832.03407 -10674215.02049  19404830.23749       617.29700
  -7331743.27307  19948307.92507  -5697039.50049  19948305.07349      -363.55500
  -5278962.38306  23069873.72206  -4096817.70747  23069870.54647      3665.42400
 -10460724.50006  21828671.20606  -8134438.89548  21828668.74548      -216.71200
   3609041.18407  21128284.83107   2811957.82848  21128281.74548     -1213.95600
 -17658291.11707  20794919.66707 -13746170.54749  20794915.69449      2606.87000
  -4246029.12906  23653223.82306  -3307539.98447  23653221.78847      -815.53300
   -449201.03507  21846900.22907   -338482.74248  21846895.69448     -1767.11100
 -14398957.73806  21764990.03406 -11203929.12148  21764988.34748      2764.29900
  12825692.34405  23748855.75305   9985840.34447  23748853.68747     -2972.15200
 08 11  4  1 55 14.9990000  0 11  3  6  7 13 16 19 21 23 25 27 31
 -13731655.68807  19403093.88607 -10681331.69949  19403091.55049       608.87200
  -7326185.39507  19949365.45607  -5692708.67649  19949362.93349      -370.52500
  -5333908.48005  23059417.23705  -4139632.83647  23059414.81247      3663.07300
 -10457325.98807  21829317.75307  -8131790.71948  21829315.40148      -226.56700
   3627288.93407  21131756.93307   2826176.84448  21131753.67948     -1216.51700
 -17697289.86307  20787498.26107 -13776559.18049  20787494.87049      2599.91600
  -4233681.42605  23655573.24505  -3297918.40247  23655570.83947      -823.18000
   -422589.05507  21851964.35407   -317746.14148  21851960.36648     -1774.13200
 -14440349.41806  21757113.47906 -11236182.38748  21757111.04648      2759.44500
   -153687.43014  24459306.55804   -108242.68056  24459304.37046         0.00000
  12870316.40205  23757347.15905  10020612.30947  23757345.13247     -2974.93700
 08 11  4  1 55 29.9990000  0 11  3  6  7 13 16 19 21 23 25 27 31
 -13740663.60907  19401379.35407 -10688350.85549  19401377.25349       600.52800
  -7320524.16407  19950442.91707  -5688297.32849  19950440.78449      -377.41500
  -5388820.15205  23048968.60405  -4182421.13747  23048965.31247      3660.77800
 -10453780.87906  21829992.69806  -8129028.30948  21829990.49948      -236.34100
   3645574.07807  21135236.38607   2840425.00448  21135233.46448     -1219.01000
 -17736185.15607  20780096.76107 -13806867.18849  20780093.22649      2593.02000
  -4221220.30506  23657945.10406  -3288208.45747  23657942.44847      -830.74100
   -395873.11307  21857048.43307   -296928.53148  21857044.36248     -1781.06300
 -14481668.98006  21749251.15106 -11268379.45748  21749249.05848      2754.63700
   -206895.20304  24449181.50304   -149703.28146  24449179.55446      3547.18500
  12914981.07405  23765846.52605  10055415.91446  23765844.33146     -2977.64500
 08 11  4  1 55 44.9990000  0 11  3  6  7 13 16 19 21 23 25 27 31
 -13749548.82007  19399688.58907 -10695274.39149  19399686.57349       592.34700
  -7314761.95307  19951539.30007  -5683807.29749  19951537.46049      -384.14700
  -5443699.36705  23038524.65105  -4225184.14847  23038522.13647      3658.61400
 -10450091.51207  21830694.82307  -8126153.47748  21830692.78048      -245.95800
   3663894.54707  21138722.90907   2854700.69148  21138719.77648     -1221.36500
 -17774979.01607  20772714.40907 -13837096.16049  20772710.65149      2586.25700
  -4208647.96506  23660337.54206  -3278411.82847  23660334.03447      -838.15600
   -369056.10907  21862151.29207   -276032.17648  21862147.75748     -1787.80000
 -14522918.29706  21741401.47206 -11300521.77748  21741399.76948      2749.95400
   -260098.40605  24439057.49505   -191160.28546  24439055.21046      3546.88000
  12959684.05105  23774353.04205  10090249.36746  23774351.65146     -2980.19800
 08 11  4  1 55 59.9990000  0 11  3  6  7 13 16 19 21 23 25 27 31
 -13758310.99607  19398021.41707 -10702102.05549  19398019.28849       584.14500
  -7308898.82007  19952655.02607  -5679238.62149  19952652.82749      -390.87600
  -5498545.68806  23028088.10406  -4267921.52347  23028085.00747      3656.42100
 -10446257.93406  21831424.44006  -8123166.27748  21831421.87048      -255.57200
   3682250.21907  21142216.08907   2869003.79748  21142212.63248     -1223.71100
 -17813671.33607  20765351.45607 -13867246.02049  20765347.51549      2579.48800
  -4195964.23406  23662750.87006  -3268528.40647  23662748.50747      -845.58200
   -342138.02707  21867273.88607   -255057.05548  21867269.37848     -1794.53900
 -14564097.05106  21733565.04206 -11332609.11348  21733563.79648      2745.25000
   -313296.58204  24428933.85404   -232613.37146  24428932.22946      3546.54500
  13004425.19506  23782867.43306  10125112.53946  23782865.75746     -2982.74300
 08 11  4  1 56 14.9990000  0 11  3  6  7 13 16 19 21 23 25 27 31
 -13766947.63707  19396377.61207 -10708831.90249  19396375.55449       575.77600
  -7302932.57407  19953790.50307  -5674589.60249  19953788.04249      -397.75000
  -5553356.27306  23017658.18306  -4310631.05947  23017655.12047      3654.03900
 -10442277.77006  21832181.62006  -8120064.84848  21832179.08148      -265.34400
   3700643.58207  21145716.05007   2883336.28548  21145712.31548     -1226.22400
 -17852259.45707  20758008.58907 -13897314.67649  20758005.05049      2572.54100
  -4183166.87505  23665186.10405  -3258556.45347  23665184.17547      -853.15700
   -315116.75407  21872415.59707   -234001.53548  21872411.57348     -1801.41800
 -14605202.47306  21725743.06506 -11364639.28948  21725741.46848      2740.36100
   -366487.07805  24418812.21405   -274060.49646  24418810.07346      3546.03300
  13049206.71105  23791388.89405  10160007.15647  23791388.28047     -2985.43400
 08 11  4  1 56 29.9990000  0 11  3  6  7 13 16 19 21 23 25 27 31
 -13775461.28907  19394758.00307 -10715465.91449  19394755.76149       567.57700
  -7296865.43407  19954945.23707  -5669861.95349  19954942.51949      -404.47600
  -5608132.86706  23007234.30006  -4353314.10947  23007231.60147      3651.77300
 -10438153.31306  21832966.80806  -8116850.99248  21832964.33148      -274.96400
   3719072.56607  21149223.36207   2897696.53148  21149220.21848     -1228.59900
 -17890745.43007  20750685.29207 -13927303.73449  20750681.37449      2565.73200
  -4170258.21506  23667642.62006  -3248497.73047  23667640.56547      -860.57700
   -287994.76607  21877576.69007   -212867.53948  21877572.66748     -1808.13300
 -14646236.34806  21717934.73706 -11396613.72348  21717932.95248      2735.59200
   -419671.86705  24408691.28405   -315503.17246  24408689.95246      3545.65300
  13094026.30506  23799918.33906  10194931.43847  23799917.01547     -2987.97300
 08 11  4  1 56 44.9990000  0 11  3  6  7 13 16 19 21 23 25 27 31
 -13783847.18407  19393162.03407 -10722000.37949  19393159.91749       559.06000
  -7290692.84807  19956119.47907  -5665052.14549  19956117.13249      -411.50600
  -5662870.42206  22996818.44806  -4395966.73047  22996815.44847      3649.17000
 -10433879.85906  21833779.85406  -8113521.04348  21833777.16748      -284.89700
   3737541.94107  21152737.75307   2912088.24248  21152735.11248     -1231.29200
 -17929124.22707  20743381.94807 -13957209.28949  20743377.74149      2558.58600
  -4157233.33606  23670121.61206  -3238348.48047  23670119.12847      -868.32500
   -260767.58207  21882758.07307   -191651.57048  21882754.60448     -1815.14600
 -14687193.60506  21710140.85406 -11428528.47348  21710138.83948      2730.48400
   -472845.78105  24398572.49505   -356937.39146  24398571.06546      3544.92800
  13138888.55506  23808454.94006  10229888.96147  23808454.29647     -2990.81700
 08 11  4  1 56 59.9990000  0 11  3  6  7 13 16 19 21 23 25 27 31
 -13792108.87507  19391590.05807 -10728438.04749  19391588.28049       550.77900
  -7284418.36307  19957313.48707  -5660162.94549  19957311.22249      -418.29900
  -5717572.20706  22986408.47906  -4438591.48847  22986405.86247      3646.78600
 -10429461.07006  21834620.76106  -8110077.82448  21834618.06248      -294.58600
   3756048.18407  21156259.36207   2926508.68448  21156256.83548     -1233.74900
 -17967399.12107  20736098.14407 -13987033.87949  20736093.68749      2551.66000
  -4144095.96905  23672620.92505  -3228111.58647  23672618.98747      -875.82400
   -233439.01607  21887958.70607   -170356.59048  21887954.64048     -1821.90400
 -14728077.36706  21702360.83106 -11460385.95348  21702358.97248      2725.58400
   -526012.02505  24388455.30805   -398365.69147  24388454.19047      3544.41600
  13183789.78106  23816999.44006  10264876.86347  23816998.00747     -2993.41500
 08 11  4  1 57 14.9990000  0 11  3  6  7 13 16 19 21 23 25 27 31
 -13800247.74607  19390041.30807 -10734780.02049  19390038.90149       542.59100
  -7278043.58207  19958526.69807  -5655195.58249  19958524.25749      -424.98500
  -5772239.14106  22976005.67506  -4481189.08247  22976003.45647      3644.46200
 -10424898.60906  21835488.83106  -8106522.66848  21835486.27248      -304.16400
   3774589.99207  21159787.90107   2940956.83248  21159784.96048     -1236.12100
 -18005571.43407  20728834.56507 -14016778.53549  20728830.24149      2544.82100
  -4130847.50406  23675142.47906  -3217788.09847  23675140.78847      -883.23100
   -206010.79707  21893178.21407   -148983.96548  21893173.73748     -1828.54800
 -14768888.78506  21694595.14406 -11492187.05148  21694592.74148      2720.76100
   -579171.85205  24378339.90905   -439788.86347  24378337.92947      3543.98800
  13228728.57806  23825551.08906  10299894.03947  23825549.99147     -2995.92000
 08 11  4  1 57 29.9990000  0 11  3  6  7 13 16 19 21 23 25 27 31
 -13808265.47307  19388515.65107 -10741027.60249  19388512.83549       534.51500
  -7271570.13307  19959758.47207  -5650151.34049  19959756.60449      -431.56300
  -5826872.64806  22965609.37806  -4523760.61347  22965607.19047      3642.23400
 -10420194.08606  21836384.15906  -8102856.81647  21836381.65547      -313.63500
   3793165.72307  21163322.89407   2955431.42648  21163320.35848     -1238.38200
 -18043642.48807  20721589.80807 -14046444.28549  20721585.54249      2538.07000
  -4117489.63306  23677684.56506  -3207379.38347  23677682.27247      -890.52500
   -178484.92207  21898416.17507   -127535.24248  21898411.94848     -1835.05800
 -14809629.06606  21686842.40906 -11523932.73048  21686839.68748      2716.01900
   -632326.52705  24368224.57305   -481208.09847  24368223.10847      3543.64500
  13273703.10206  23834109.90906  10334939.07847  23834109.04647     -2998.30200
 08 11  4  1 57 44.9990000  0 11  3  6  7 13 16 19 21 23 25 27 31
 -13816159.60907  19387013.35407 -10747178.87549  19387011.47649       526.27600
  -7264995.87107  19961009.40107  -5645028.53549  19961007.26549      -438.28400
  -5881469.84006  22955219.62806  -4566303.86747  22955217.68747      3639.81300
 -10415345.14506  21837306.34706  -8099078.42647  21837304.05847      -323.26300
   3811777.75007  21166864.59707   2969934.28948  21166862.08948     -1240.80200
 -18081609.78907  20714364.46407 -14076029.19149  20714360.95249      2531.15300
  -4104020.10906  23680247.26106  -3196883.66847  23680244.52647      -897.96800
   -150859.28507  21903673.29207   -106008.78548  21903668.45648     -1841.70900
 -14850295.52006  21679103.64406 -11555620.86748  21679101.12448      2711.09700
   -685473.30505  24358111.08905   -522621.17647  24358109.21047      3543.11800
  13318715.55506  23842675.55006  10370013.64847  23842674.14447     -3000.83000
 08 11  4  1 57 59.9990000  0 11  3  6  7 13 16 19 21 23 25 27 31
 -13823927.07007  19385535.36207 -10753231.43849  19385533.10449       517.83100
  -7258317.77007  19962280.33907  -5639824.82049  19962277.76149      -445.20700
  -5936027.21906  22944838.22206  -4608816.10247  22944835.90147      3637.15900
 -10410348.84006  21838257.39406  -8095185.20747  21838255.13647      -333.08700
   3830429.30507  21170413.49507   2984467.96148  21170410.70248     -1243.43700
 -18119470.11707  20707159.66707 -14105530.73448  20707156.85148      2524.02200
  -4090435.76606  23682832.15906  -3186298.47347  23682829.17947      -905.62300
   -123131.08607  21908949.60407    -84402.39548  21908945.37448     -1848.54700
 -14890884.63306  21671379.85406 -11587248.75448  21671376.75348      2705.94100
   -738608.80905  24348000.19005   -564025.44547  24347997.93747      3542.36700
  13363768.93806  23851249.22906  10405120.09847  23851248.21047     -3003.55900
 08 11  4  1 58 14.9990000  0 11  3  6  7 13 16 19 21 23 25 27 31
 -13831572.44507  19384080.38607 -10759188.87149  19384078.15549       509.69200
  -7251540.26207  19963570.05007  -5634543.64149  19963568.12049      -451.83400
  -5990548.84406  22934463.05006  -4651300.47347  22934460.47647      3634.77500
 -10405209.62506  21839235.44806  -8091180.63747  21839233.09347      -342.61400
   3849116.20707  21173969.94807   2999029.17248  21173966.87448     -1245.79300
 -18157227.48007  20699975.05007 -14134952.03949  20699971.14449      2517.15800
  -4076741.08206  23685438.31506  -3175627.30147  23685434.87447      -912.97900
    -95304.94507  21914244.65107    -62719.70348  21914240.78848     -1855.07600
 -14931400.43806  21663669.52606 -11618819.51248  21663666.72948      2701.05400
   -791737.03905  24337889.33905   -605424.05946  24337887.96046      3541.88200
  13408858.71906  23859829.22206  10440254.92647  23859828.60847     -3005.98500
 08 11  4  1 58 29.9990000  0 11  3  6  7 13 16 19 21 23 25 27 31
 -13839095.23407  19382648.64407 -10765050.78549  19382647.04649       501.51900
  -7244663.14107  19964878.71407  -5629184.84849  19964876.48749      -458.47500
  -6045033.78906  22924094.76906  -4693756.26647  22924092.48347      3632.33000
 -10399927.05506  21840241.55006  -8087064.36748  21840238.77648      -352.17100
   3867838.83607  21177532.80007   3013618.22748  21177529.49148     -1248.17500
 -18194881.28107  20692809.76107 -14164292.65248  20692805.78848      2510.25300
  -4062935.46506  23688065.70606  -3164869.69146  23688061.95646      -920.37400
    -67380.66007  21919558.22907    -40960.52748  21919554.61248     -1861.61900
 -14971842.14107  21655973.68307 -11650332.52348  21655971.34748      2696.11400
   -844857.37505  24327781.20605   -646816.52046  24327779.99146      3541.35600
  13453985.18006  23868416.37006  10475418.34447  23868415.65947     -3008.43100
 08 11  4  1 58 44.9990000  0 11  3  6  7 13 16 19 21 23 25 27 31
 -13846493.39807  19381240.73707 -10770815.58649  19381239.15949       493.21100
  -7237684.25007  19966206.90907  -5623746.75049  19966204.53849      -465.25900
  -6099479.58606  22913734.18306  -4736181.54747  22913731.92147      3629.72000
 -10394499.29306  21841274.19006  -8082834.95348  21841271.69048      -361.85100
   3886599.48407  21181102.82307   3028236.90248  21181099.14448     -1250.71000
 -18232429.36707  20685665.00307 -14193550.90249  20685660.31949      2503.20600
  -4049016.94106  23690714.25306  -3154024.10946  23690710.41346      -927.90200
    -39356.42606  21924891.03406    -19123.49648  21924887.51148     -1868.28200
 -15012207.17606  21648292.58906 -11681785.78548  21648290.54248      2691.00200
   -897967.15605  24317675.21405   -688200.75446  24317673.70646      3540.65200
  13499150.49606  23877011.47206  10510612.03547  23877010.34747     -3011.02100
 08 11  4  1 58 59.9990000  0 11  3  6  7 13 16 19 21 23 25 27 31
 -13853764.39507  19379857.58907 -10776481.28949  19379855.52649       484.73300
  -7230601.41007  19967554.94807  -5618227.64849  19967552.07349      -472.18900
  -6153883.46506  22903381.10406  -4778574.16047  22903379.55047      3626.92500
 -10388923.80106  21842335.40906  -8078490.42648  21842332.64448      -371.69900
   3905400.56307  21184680.83907   3042887.07848  21184677.36648     -1253.40500
 -18269868.85907  20678540.29207 -14222724.52049  20678535.92149      2495.96600
  -4034983.31306  23693384.87806  -3143088.79746  23693381.15146      -935.57500
    -11230.18007  21930243.92507      2793.04748  21930240.06548     -1875.08300
 -15052492.79306  21640626.51906 -11713177.16448  21640624.69448      2685.70800
   -951063.82805  24307570.89405   -729574.78546  24307568.85846      3539.77800
  13544356.86306  23885613.63606  10545837.70847  23885612.94847     -3013.75800
 08 11  4  1 59 14.9990000  0 11  3  6  7 13 16 19 21 23 25 27 31
 -13860912.73007  19378497.15907 -10782051.42649  19378494.77649       476.55600
  -7223419.09007  19968921.59707  -5612631.04349  19968919.47949      -478.82100
  -6208249.44905  22893035.95605  -4820937.25847  22893033.75747      3624.39900
 -10383205.16807  21843423.63607  -8074034.35248  21843421.37848      -381.24200
   3924237.63307  21188264.80007   3057565.32848  21188260.62448     -1255.80500
 -18307204.03507  20671435.33107 -14251816.85949  20671431.52649      2489.01200
  -4020838.93006  23696075.90106  -3132067.21947  23696072.92547      -942.95900
     16993.33207  21935614.35407     24785.41048  21935610.46848     -1881.56700
 -15092703.16006  21632974.80806 -11744509.91848  21632972.78848      2680.69100
  -1004151.55505  24297468.56505   -770941.83646  24297466.97646      3539.18200
  13589599.77006  23894223.12006  10581091.87147  23894221.94047     -3016.19400
 08 11  4  1 59 29.9990000  0 11  3  6  7 13 16 19 21 23 25 27 31
 -13867941.04707  19377159.62807 -10787528.04749  19377156.92949       468.55400
  -7216140.12107  19970306.39407  -5606959.11749  19970304.21049      -485.26500
  -6262579.90605  22882697.06505  -4863272.65647  22882695.03447      3622.03000
 -10377346.34406  21844538.56506  -8069469.04348  21844535.79248      -390.58800
   3943108.31307  21191856.01107   3072269.76248  21191851.67548     -1258.04500
 -18344437.52307  20664350.05807 -14280829.97749  20664346.24549      2482.23300
  -4006586.54305  23698789.11205  -3120961.47747  23698784.33547      -950.15900
     45311.14807  21941003.43307     46851.23448  21940999.99548     -1887.85400
 -15132840.61706  21625337.13606 -11775785.84848  21625335.14448      2675.83000
  -1057232.62105  24287367.37005   -812303.70746  24287366.22946      3538.73800
  13634876.31306  23902838.63606  10616372.20347  23902837.62847     -3018.43600
 08 11  4  1 59 44.9990000  0 11  3  6  7 13 16 19 21 23 25 27 31
 -13874846.94107  19375845.49507 -10792909.25849  19375842.88649       460.39300
  -7208762.17207  19971710.34707  -5601210.07849  19971708.31249      -491.86300
  -6316872.03505  22872365.81505  -4905578.19547  22872363.13247      3619.47500
 -10371344.75006  21845680.55006  -8064792.49247  21845677.51547      -400.10600
   3962014.79707  21195453.75307   3087002.08648  21195449.60848     -1260.43200
 -18381566.60907  20657284.83907 -14309761.72749  20657280.88649      2475.27200
  -3992223.70306  23701521.98706  -3109769.64846  23701517.72646      -957.52300
     73725.49207  21946410.49507     68992.25848  21946406.90948     -1894.29000
 -15172902.19107  21617712.96407 -11807002.65248  21617711.39448      2670.77200
  -1110304.14805  24277268.40105   -853658.13746  24277267.32746      3538.10200
  13680188.78106  23911461.65906  10651680.55147  23911460.22247     -3020.83100
 08 11  4  1 59 59.9990000  0 11  3  6  7 13 16 19 21 23 25 27 31
 -13881627.91807  19374555.01107 -10798193.13749  19374552.88649       452.06500
  -7201282.56607  19973133.91707  -5595381.81649  19973131.77249      -498.64000
  -6371122.60205  22862042.25305  -4947851.36747  22862039.78047      3616.70400
 -10365197.82806  21846849.50306  -8060002.67647  21846846.64747      -409.79500
   3980960.00407  21199058.77607   3101764.57848  21199054.85848     -1263.01400
 -18418588.38307  20650239.69807 -14338609.85249  20650236.07749      2468.11800
  -3977747.71906  23704276.91706  -3098489.69547  23704272.51147      -965.06600
    102238.78507  21951836.61207     91210.39148  21951832.83548     -1900.88600
 -15212884.92207  21610104.52607 -11838158.02048  21610103.28848      2665.51500
  -1163363.20705  24267172.44805   -895002.85546  24267170.80046      3537.27100
  13725539.75006  23920092.08906  10687018.88347  23920089.56947     -3023.39800
 08 11  4  2  0 14.9990000  0 11  3  6  7 13 16 19 21 23 25 27 31
 -13888286.02707  19373287.98707 -10803381.25849  19373286.29649       443.87400
  -7193703.53107  19974576.01907  -5589476.07049  19974573.61249      -505.26900
  -6425333.38706  22851726.22906  -4990093.53947  22851723.79247      3614.05200
 -10358907.84806  21848046.70606  -8055101.40247  21848043.92147      -419.33200
   3999941.95707  21202670.92507   3116555.70748  21202666.85848     -1265.46400
 -18455504.85207  20643214.68307 -14367375.91449  20643210.99549      2461.09800
  -3963160.80905  23707052.12005  -3087123.27046  23707048.52246      -972.46100
    130848.60207  21957280.63607    113503.75448  21957276.38248     -1907.32100
 -15252790.44907  21602511.08107 -11869253.22348  21602509.26548      2660.36800
  -1216411.50005  24257077.24505   -936339.16446  24257075.53446      3536.55300
  13770927.07006  23928729.02606  10722385.57847  23928727.33147     -3025.82100
 08 11  4  2  0 29.9990000  0 11  3  6  7 13 16 19 21 23 25 27 31
 -13894822.17607  19372044.58107 -10808474.35949  19372042.65949       435.74300
  -7186026.23407  19976036.89407  -5583493.76249  19976034.52649      -511.82000
  -6479505.10506  22841417.37806  -5032305.27347  22841415.12447      3611.44800
 -10352475.98806  21849271.08906  -8050089.56347  21849268.11647      -428.79100
   4018959.43407  21206289.80007   3131374.52048  21206285.85848     -1267.83200
 -18492316.70707  20636209.83907 -14396060.46948  20636205.55048      2454.12400
  -3948464.12105  23709848.42505  -3075671.29346  23709845.37046      -979.77900
    159553.53107  21962743.02607    135871.20348  21962738.59748     -1913.66200
 -15292619.57407  21594931.76107 -11900288.90648  21594929.69848      2655.27500
  -1269449.86706  24246985.01106   -977667.75046  24246982.03446      3535.89100
  13816349.40606  23937372.76906  10757779.55147  23937370.72947     -3028.15600
 08 11  4  2  0 44.9990000  0 11  3  6  7 13 16 19 21 23 25 27 31
 -13901238.49607  19370823.34707 -10813474.08649  19370821.39449       427.75500
  -7178252.66007  19977516.21407  -5577436.44149  19977514.09749      -518.23800
  -6533639.19906  22831116.10406  -5074487.68047  22831113.40147      3608.94000
 -10345904.18806  21850521.09706  -8044968.69147  21850518.72647      -438.12000
   4038010.74207  21209915.07307   3146219.68448  21209911.49548     -1270.08700
 -18529025.76607  20629223.97907 -14424664.92648  20629219.76148      2447.27100
  -3933659.50005  23712665.83105  -3064135.22747  23712662.51147      -986.97500
    188351.50407  21968222.82307    158311.18048  21968218.69848     -1919.86500
 -15332373.70706  21587366.56506 -11931266.16448  21587364.55048      2650.27600
  -1322479.78105  24236892.91705  -1018989.75846  24236890.56946      3535.32800
  13861804.93006  23946023.02606  10793199.36747  23946021.19447     -3030.36800
 08 11  4  2  0 59.9990000  0 11  3  6  7 13 16 19 21 23 25 27 31
 -13907533.43807  19369625.37007 -10818379.24249  19369623.06549       419.66300
  -7170381.62507  19979014.10407  -5571303.16849  19979011.37049      -524.73600
  -6587733.93406  22820821.90906  -5116639.40247  22820819.75747      3606.31600
 -10339191.16006  21851798.57306  -8039737.77047  21851795.64747      -447.53500
   4057097.39107  21213547.47907   3161092.39848  21213543.65148     -1272.44300
 -18565630.39507  20622258.44007 -14453188.02048  20622253.51148      2440.30900
  -3918745.58206  23715503.82306  -3052514.00447  23715500.79647      -994.26100
    217243.46907  21973721.12807    180824.38347  21973716.95247     -1926.13100
 -15372051.26207  21579816.37007 -11962183.75048  21579813.55048      2645.17000
  -1375499.66805  24226803.28405  -1060303.94946  24226800.88646      3534.65900
  13907294.93006  23954679.92506  10828646.06347  23954678.08547     -3032.66700
 08 11  4  2  1 14.9990000  0 10  3  6  7 13 16 19 21 23 25 27
 -13913708.03907  19368450.32307 -10823190.62149  19368447.76949       411.64000
  -7162414.36307  19980529.93307  -5565094.91049  19980527.46449      -531.15100
  -6641790.02006  22810535.84706  -5158761.00847  22810533.30047      3603.73900
 -10332338.12506  21853102.80806  -8034397.75047  21853099.83147      -456.86900
   4076218.22307  21217185.54207   3175991.73848  21217182.28048     -1274.72200
 -18602131.42607  20615312.55007 -14481630.37548  20615308.16748      2433.40200
  -3903723.55105  23718362.57305  -3040808.52046  23718359.37446     -1001.46900
    246227.99607  21979236.69007    203409.71547  21979231.72947     -1932.30200
 -15411652.78507  21572281.00307 -11993042.08248  21572277.78048      2640.10200
  -1428510.23005  24216716.00305  -1101610.85546  24216713.67946      3534.03700
