     2              OBSERVATION DATA                        RINEX VERSION / TYPE
DAT2RINW 3.10 001   .                   04NOV08 22:57:28    PGM / RUN BY / DATE 
.                   .                                       OBSERVER / AGENCY   
0220390489          TRIMBLE 5700        Nav 2.30 Sig 2.30   REC # / TYPE / VERS 
                    TRM39105.00     NONE                    ANT # / TYPE        
----------------------------------------------------------- COMMENT             
Offset from BOTTOM OF ANTENNA to PHASE CENTER is  46.0 mm   COMMENT             
----------------------------------------------------------- COMMENT             
0174                                                        MARKER NAME
0174                                                        MARKER NUMBER       
 -3122234.1273  3971384.9353  3881107.0157                  APPROX POSITION XYZ 
        1.3762        0.0000        0.0000                  ANTENNA: DELTA H/E/N
*** Above antenna height is from mark to BOTTOM OF ANTENNA. COMMENT             
----------------------------------------------------------- COMMENT             
Note: The above offsets are CORRECTED.                      COMMENT             
Raw Offsets: H=      1.4180 E=      0.0000 N=      0.0000   COMMENT             
----------------------------------------------------------- COMMENT             
     1     1     0                                          WAVELENGTH FACT L1/2
     4    L1    C1    L2    P2                              # / TYPES OF OBSERV 
    30                                                      INTERVAL            
  2008    11     4     0    30    0.000000                  TIME OF FIRST OBS   
  2008    11     4     8    40    0.000000                  TIME OF LAST OBS    
    19                                                      # OF SATELLITES     
     3   645   645   645   645                              PRN / # OF OBS      
     4   202   202   202   202                              PRN / # OF OBS      
     6   573   573   573   573                              PRN / # OF OBS      
     7   533   533   533   533                              PRN / # OF OBS      
     8   450   450   450   450                              PRN / # OF OBS      
    11   691   691   691   691                              PRN / # OF OBS      
    13   379   379   379   379                              PRN / # OF OBS      
    16   467   467   467   467                              PRN / # OF OBS      
    17   369   369   369   369                              PRN / # OF OBS      
    19   734   734   734   734                              PRN / # OF OBS      
    20   408   408   408   408                              PRN / # OF OBS      
    21   256   256   256   256                              PRN / # OF OBS      
    23   411   411   411   411                              PRN / # OF OBS      
    25   567   567   567   567                              PRN / # OF OBS      
    27   508   508   508   508                              PRN / # OF OBS      
    28   502   502   502   502                              PRN / # OF OBS      
    29    24    24    24    24                              PRN / # OF OBS      
    31   245   245   245   245                              PRN / # OF OBS      
    32   444   444   444   444                              PRN / # OF OBS      
                                                            END OF HEADER       
 08 11  4  0 29 59.9980000  0  7  3  6 13 16 21 23 31
  -9265119.24607  20996715.97507  -7181585.94148  20996713.16648
  -7299007.61307  20489827.84207  -5668926.27048  20489824.75248
  -4591784.50806  22855618.41206  -3569483.22347  22855615.85747
  -1528308.88708  20030627.00608  -1186609.33249  20030622.92049
  -2918306.63306  23709944.88106  -2268441.17246  23709940.93246
  -5744526.90207  21225435.89607  -4458645.32848  21225430.79948
   1322946.87107  21118205.34207   1030220.70349  21118201.77549
 08 11  4  0 30 29.9980000  0  7  3  6 13 16 21 23 31
  -9378649.39507  20975111.97507  -7270051.00448  20975109.61548
  -7382274.67607  20473982.48207  -5733809.70348  20473979.68648
  -4694164.55106  22836136.22506  -3649259.87946  22836133.56146
  -1538442.25808  20028698.92808  -1194505.46549  20028694.85049
  -2982209.57006  23697784.50606  -2318235.63746  23697780.58846
  -5801223.57807  21214646.93607  -4502824.56348  21214641.74848
   1353172.24207  21123957.19307   1053772.93049  21123953.34649
 08 11  4  0 30 59.9980000  0  7  3  6 13 16 21 23 31
  -9491830.26207  20953574.71707  -7358243.87148  20953571.91248
  -7465114.89107  20458218.30307  -5798360.51249  20458215.66249
  -4796139.17605  22816730.52105  -3728720.59046  22816728.33846
  -1548345.15208  20026814.39608  -1202222.01249  20026810.22549
  -3045795.90605  23685682.87305  -2367783.42646  23685680.05746
  -5857345.53107  21203967.22507  -4546555.96948  21203962.01048
   1383700.79707  21129766.87307   1077561.39849  21129763.01449
 08 11  4  0 31 29.9980000  0  7  3  6 13 16 21 23 31
  -9604661.93407  20932103.38907  -7446164.67648  20932100.72948
  -7547529.00807  20442535.33407  -5862579.29348  20442532.91248
  -4897708.27006  22797403.46706  -3807865.35946  22797400.06846
  -1558020.67608  20024973.18608  -1209761.39149  20024969.02549
  -3109065.31605  23673643.06105  -2417084.28146  23673639.51046
  -5912893.85907  21193397.09207  -4589840.38748  21193391.69748
   1414530.23007  21135633.14607   1101584.29348  21135629.98248
 08 11  4  0 31 59.9980000  0  7  3  6 13 16 21 23 31
  -9717141.26207  20910698.92807  -7533810.89548  20910696.35048
  -7629514.50007  20426934.04507  -5926464.08649  20426931.46749
  -4998867.60206  22778153.22506  -3886690.79747  22778150.66647
  -1567468.34008  20023175.37308  -1217123.21949  20023171.58049
  -3172014.53906  23661664.85706  -2466135.61346  23661661.04146
  -5967866.03107  21182935.81807  -4632675.85548  21182930.64648
   1445662.06307  21141557.09207   1125842.86348  21141553.81448
 08 11  4  0 32 29.9980000  0  7  3  6 13 16 21 23 31
  -9829265.78907  20889362.09207  -7621180.66048  20889359.52548
  -7711070.02007  20411414.69307  -5990013.84048  20411412.03348
  -5099614.54706  22758981.81106  -3965194.90647  22758978.95547
  -1576689.09807  20021420.55307  -1224308.22749  20021416.68249
  -3234641.69906  23649747.52906  -2514935.96546  23649744.02946
  -6022260.57007  21172584.90407  -4675061.21148  21172579.95148
   1477095.74207  21147538.81807   1150336.63748  21147535.43948
 08 11  4  0 32 59.9980000  0  7  3  6 13 16 21 23 31
  -9941033.43407  20868093.79507  -7708272.32448  20868091.63548
  -7792194.24607  20395976.99007  -6053227.52048  20395974.56448
  -5199947.39106  22739888.68606  -4043376.35547  22739885.86947
  -1585683.63707  20019709.01407  -1231316.97349  20019704.97149
  -3296944.35505  23637892.08405  -2563483.46946  23637887.69746
  -6076077.01207  21162344.02107  -4716996.11348  21162339.40448
   1508831.33207  21153578.10707   1175065.65248  21153574.62748
 08 11  4  0 33 29.9980000  0  7  3  6 13 16 21 23 31
 -10052437.25407  20846894.39607  -7795080.49248  20846892.01848
  -7872881.06307  20380622.96707  -6116100.35948  20380620.54948
  -5299858.03106  22720876.60006  -4121228.78147  22720873.92447
  -1594448.17207  20018041.15407  -1238146.48849  20018037.12349
  -3358915.33206  23626098.85706  -2611772.53546  23626095.57646
  -6129309.01607  21152214.53707  -4758475.59448  21152209.31148
   1540874.00807  21159675.41207   1200033.95748  21159671.93248
 08 11  4  0 33 59.9980000  0  7  3  6 13 16 21 23 31
 -10163477.48807  20825764.21707  -7881605.36348  20825761.57248
  -7953130.87907  20365351.70907  -6178632.69149  20365349.51849
  -5399345.21506  22701944.72506  -4198751.26647  22701941.93247
  -1602985.12907  20016416.62307  -1244798.67649  20016412.46749
  -3420554.06306  23614369.52906  -2659802.69546  23614365.99046
  -6181956.98807  21142196.06807  -4799499.99648  21142190.96348
   1573221.79707  21165831.09207   1225240.00848  21165828.08848
 08 11  4  0 34 29.9980000  0  7  3  6 13 16 21 23 31
 -10274148.74207  20804704.00607  -7967842.70348  20804701.99848
  -8032939.79707  20350164.88107  -6240821.45349  20350162.27149
  -5498403.61306  22683094.90406  -4275939.59447  22683092.15847
  -1611292.43808  20014836.09208  -1251271.91849  20014831.62349
  -3481856.71906  23602704.19306  -2707570.97746  23602701.13946
  -6234017.23807  21132289.05307  -4840066.43448  21132283.99048
   1605877.26607  21172045.10707   1250685.80948  21172041.83848
 08 11  4  0 34 59.9980000  0  7  3  6 13 16 21 23 31
 -10384449.35907  20783714.41207  -8053791.22348  20783712.06148
  -8112306.89107  20335061.74807  -6302665.93849  20335059.35449
  -5597031.20706  22664326.60006  -4352792.24647  22664323.63147
  -1619371.64107  20013298.67807  -1257567.40249  20013294.38949
  -3542820.86306  23591103.22506  -2755075.52346  23591099.72146
  -6285488.96907  21122494.45907  -4880174.26648  21122489.73648
   1638839.59007  21178317.77907   1276370.72748  21178314.90048
 08 11  4  0 35 29.9980000  0  7  3  6 13 16 21 23 31
 -10494383.09407  20762795.17007  -8139453.87148  20762792.56448
  -8191237.18007  20320041.71707  -6364170.05949  20320039.76449
  -5695231.59406  22645639.98206  -4429312.01247  22645637.06447
  -1627229.49607  20011802.93607  -1263690.41849  20011799.03749
  -3603450.75405  23579566.17005  -2802319.57846  23579561.61946
  -6336377.55507  21112810.68607  -4919827.72348  21112805.55348
   1672102.93007  21184647.56807   1302290.19948  21184644.05748
 08 11  4  0 35 59.9980000  0  7  3  6 13 16 21 23 31
 -10603943.78507  20741946.31107  -8224825.82848  20741943.82648
  -8269724.78107  20305106.31807  -6425329.23049  20305103.84649
  -5792997.40606  22627035.69306  -4505493.17247  22627032.80347
  -1634862.35508  20010350.52908  -1269638.10249  20010346.67049
  -3663739.73005  23568093.07605  -2849297.95346  23568088.65046
  -6386677.18007  21103238.67807  -4959022.23448  21103234.02148
   1705671.31607  21191035.37307   1328447.35548  21191032.10448
 08 11  4  0 36 29.9980000  0  7  3  6 13 16 21 23 31
 -10713122.34007  20721170.81807  -8309900.03548  20721167.65448
  -8347761.53507  20290256.20907  -6486137.08648  20290254.16648
  -5890319.36306  22608516.12306  -4581328.42647  22608512.61947
  -1642264.00808  20008942.12308  -1275405.63349  20008938.28749
  -3723678.84005  23556686.44305  -2896003.74246  23556681.81146
  -6436379.98407  21093781.02107  -4997751.69148  21093775.55348
   1739551.90207  21197483.00607   1354847.78948  21197479.38148
 08 11  4  0 36 59.9980000  0  7  3  6 13 16 21 23 31
 -10821918.28907  20700467.28707  -8394676.09048  20700464.80748
  -8425347.89107  20275492.17807  -6546593.98848  20275489.65048
  -5987196.13306  22590080.35006  -4656816.82447  22590078.11147
  -1649436.80907  20007576.70907  -1280994.83249  20007573.34649
  -3783267.46106  23545347.28706  -2942436.43846  23545343.10446
  -6485486.62107  21084435.99807  -5036016.60948  21084431.37748
   1773743.11307  21203989.52107   1381490.25848  21203985.42848
 08 11  4  0 37 29.9980000  0  8  3  6 13 16 19 21 23 31
 -10930326.59407  20679837.88107  -8479150.08648  20679834.89648
  -8502479.80507  20260813.97507  -6606696.77048  20260811.73648
  -6083622.56606  22571731.13106  -4731954.30147  22571728.43947
  -1656379.00408  20006256.17008  -1286404.34849  20006251.92449
   -226372.28516  23449128.99806   -166449.41057  23449125.29947
  -3842500.80106  23534076.85706  -2988592.27346  23534072.56146
  -6533993.11307  21075205.45107  -5073813.88748  21075200.33048
   1808247.34007  21210554.89607   1408376.65648  21210551.25248
 08 11  4  0 37 59.9980000  0  8  3  6 13 16 19 21 23 31
 -11038346.80907  20659282.13907  -8563321.66848  20659279.72548
  -8579157.72707  20246223.18607  -6666445.80148  20246220.13148
  -6179597.91406  22553468.17006  -4806740.29347  22553464.85047
  -1663092.83607  20004978.93607  -1291635.90649  20004974.57649
   -362885.44506  23423151.50606   -272823.25447  23423147.96747
  -3901378.31606  23522871.99806  -3034470.86346  23522868.13146
  -6581900.39107  21066088.95907  -5111144.22348  21066084.38548
   1843062.96907  21217180.51407   1435505.68448  21217177.11948
 08 11  4  0 38 29.9980000  0  8  3  6 13 16 19 21 23 31
 -11145983.07007  20638799.72507  -8647194.08248  20638797.32648
  -8655386.37507  20231717.09207  -6725844.73848  20231714.66248
  -6275124.95706  22535289.70906  -4881176.93847  22535286.52147
  -1669584.94108  20003743.37308  -1296694.69149  20003739.15049
   -499290.05506  23397194.52106   -379112.51647  23397190.86947
  -3959903.99206  23511735.37306  -3080075.25046  23511731.51846
  -6629213.29707  21057086.30307  -5148011.43048  21057080.91248
   1878183.94507  21223863.60707   1462872.64848  21223860.18948
 08 11  4  0 38 59.9980000  0  8  3  6 13 16 19 21 23 31
 -11253227.02007  20618391.43607  -8730760.80548  20618389.18248
  -8731158.67207  20217298.06807  -6784888.08649  20217295.33049
  -6370195.31306  22517198.13906  -4955257.72347  22517194.93947
  -1675849.85207  20002551.01407  -1301576.43849  20002547.01849
   -635577.47306  23371259.62306   -485310.46547  23371256.46347
  -4018069.78506  23500666.34206  -3125399.26646  23500662.79546
  -6675924.92607  21048197.09207  -5184410.10248  21048191.99848
   1913616.26607  21230606.24807   1490482.23048  21230602.24848
 08 11  4  0 39 29.9980000  0  8  3  6 13 16 19 21 23 31
 -11360073.98807  20598059.57607  -8814018.18448  20598056.81848
  -8806470.60207  20202966.87307  -6843572.69948  20202964.17848
  -6464804.10506  22499194.24806  -5028978.86747  22499191.83847
  -1681886.05907  20001402.46707  -1306279.97349  20001398.42849
   -771742.66806  23345348.34206   -591413.19147  23345345.48247
  -4075871.10505  23489667.04505  -3170439.22746  23489663.72546
  -6722031.53107  21039422.99807  -5220337.33248  21039418.38148
   1949362.21507  21237408.37307   1518336.18448  21237404.55748
 08 11  4  0 39 59.9980000  0  8  3  6 13 16 19 21 23 31
 -11466524.39807  20577802.45907  -8896966.55148  20577800.21748
  -8881323.50407  20188722.56807  -6901899.63348  20188720.14348
  -6558950.38306  22481279.35706  -5102339.55947  22481276.01447
  -1687696.38707  20000296.52907  -1310807.50049  20000292.48249
   -907785.50805  23319459.62305   -697420.55947  23319456.71347
  -4133308.01205  23478735.56105  -3215195.25046  23478733.82646
  -6767534.77007  21030764.41207  -5255794.40648  21030759.51048
   1985419.45707  21244269.77907   1546432.68848  21244266.34648
 08 11  4  0 40 29.9980000  0  8  3  6 13 16 19 21 23 31
 -11572572.45307  20557622.02907  -8979601.39148  20557619.57648
  -8955712.43407  20174566.94307  -6959865.02748  20174564.60048
  -6652628.34006  22463452.92806  -5175335.37547  22463450.21347
  -1693277.85207  19999234.55307  -1315156.69549  19999230.53749
  -1043699.68005  23293596.58405   -803327.68847  23293593.01847
  -4190374.92605  23467876.27905  -3259663.01646  23467874.12746
  -6812429.93007  21022221.01407  -5290777.65248  21022215.60448
   2021791.58607  21251191.49007   1574774.58248  21251188.23248
 08 11  4  0 40 59.9980000  0  8  3  6 13 16 19 21 23 31
 -11678213.60907  20537519.42807  -9061919.16848  20537516.92848
  -9029634.05107  20160500.07607  -7017466.28148  20160497.16248
  -6745832.92606  22445716.85706  -5247962.31347  22445713.72547
  -1698628.94907  19998215.92007  -1319326.37949  19998211.93649
  -1179480.27705  23267757.46705   -909130.75447  23267754.68947
  -4247067.50806  23457088.74006  -3303839.03146  23457085.04946
  -6856714.02007  21013793.71707  -5325284.75048  21013788.59648
   2058480.82407  21258173.21707   1603363.57048  21258170.15448
 08 11  4  0 41 29.9980000  0  8  3  6 13 16 19 21 23 31
 -11783451.47307  20517493.46707  -9143922.68848  20517491.13148
  -9103092.55907  20146521.67007  -7074706.66848  20146518.99448
  -6838567.01606  22428069.34206  -5320222.62147  22428066.49847
  -1703755.57407  19997240.42007  -1323321.15649  19997236.67049
  -1315130.47704  23241944.42804  -1014832.19947  23241941.17847
  -4303389.02306  23446371.68606  -3347725.91446  23446366.21346
  -6900391.51207  21005482.07607  -5359319.16448  21005477.13148
   2095481.83607  21265214.46707   1632195.49648  21265210.78348
 08 11  4  0 41 59.9980000  0  8  3  6 13 16 19 21 23 31
 -11888285.09807  20497544.35707  -9225611.21148  20497541.68248
  -9176087.89107  20132630.63107  -7131586.14548  20132628.35048
  -6930829.51206  22410512.70906  -5392115.48447  22410509.67847
  -1708659.30107  19996307.45107  -1327142.25049  19996303.45949
  -1450648.48004  23216155.34204  -1120430.59047  23216153.10047
  -4359338.44105  23435724.46705  -3391322.85246  23435719.51846
  -6943462.42607  20997286.31807  -5392880.91848  20997281.48648
   2132793.04307  21272314.31807   1661269.13748  21272311.08048
 08 11  4  0 42 29.9980000  0  8  3  6 13 16 19 21 23 31
 -11992709.37907  20477673.17807  -9306980.76648  20477670.28748
  -9248615.97307  20118829.31107  -7188101.52048  20118826.43648
  -7022614.46506  22393046.52906  -5463636.21547  22393043.98247
  -1713338.31607  19995417.01407  -1330788.23449  19995413.17849
  -1586028.84005  23190394.33405  -1225921.75847  23190390.64347
  -4414911.16005  23425149.26405  -3434626.27746  23425145.02946
  -6985923.30507  20989206.42007  -5425967.32848  20989200.85748
   2170417.48407  21279473.63107   1690586.85548  21279471.10748
 08 11  4  0 42 59.9980000  0  8  3  6 13 16 19 21 23 31
 -12096717.89107  20457881.02107  -9388026.34848  20457878.11948
  -9320671.57407  20105117.66207  -7244248.74648  20105114.80348
  -7113915.85906  22375672.94306  -5534780.15647  22375669.59647
  -1717788.83607  19994570.48207  -1334256.17649  19994566.19349
  -1721264.98404  23164659.49804  -1331300.57847  23164655.83047
  -4470100.23006  23414648.38906  -3477630.75446  23414643.23246
  -7027769.18007  20981243.28707  -5458574.50448  20981238.24048
   2208359.03507  21286693.84207   1720151.67248  21286691.00648
 08 11  4  0 43 29.9980000  0  8  3  6 13 16 19 21 23 31
 -12200307.77307  20438168.61507  -9468745.72748  20438165.63948
  -9392252.25807  20091496.20907  -7300025.88748  20091493.45148
  -7204728.18806  22358391.92006  -5605543.02347  22358387.93247
  -1722010.02707  19993767.20907  -1337545.41049  19993763.11549
  -1856352.79705  23138953.64605  -1436563.79747  23138950.04147
  -4524902.69106  23404219.05306  -3520333.93046  23404214.44746
  -7068997.72307  20973397.81107  -5490700.65248  20973392.31848
   2246619.17607  21293974.88907   1749964.73448  21293971.55348
 08 11  4  0 43 59.9980000  0  8  3  6 13 16 19 21 23 31
 -12303471.48007  20418536.87307  -9549133.01248  20418534.50248
  -9463351.80907  20077966.82607  -7355428.12948  20077963.62348
  -7295044.92206  22341204.82606  -5675919.68847  22341201.31847
  -1725997.57007  19993008.17807  -1340652.59849  19993004.01049
  -1991284.64806  23113276.87306  -1541705.52047  23113272.70547
  -4579311.80905  23393865.24805  -3562730.65646  23393861.24046
  -7109603.25807  20965670.55307  -5522341.33648  20965666.06848
   2285202.71507  21301317.12307   1780029.81648  21301312.96748
 08 11  4  0 44 29.9980000  0  8  3  6 13 16 19 21 23 31
 -12406207.12907  20398987.07607  -9629186.76248  20398984.10048
  -9533969.58607  20064528.67007  -7410454.97348  20064525.60048
  -7384863.99206  22324112.80306  -5745908.58247  22324109.40847
  -1729752.55107  19992293.68607  -1343578.55949  19992289.49049
  -2126058.64506  23087629.64606  -1646724.23047  23087626.60747
  -4633325.93005  23383586.74805  -3604819.56346  23383582.69346
  -7149585.66007  20958062.52107  -5553496.46148  20958057.67848
   2324109.03507  21308720.49807   1810346.39848  21308717.12348
 08 11  4  0 44 59.9980000  0  8  3  6 13 16 19 21 23 31
 -12508515.43407  20379518.50607  -9708907.51648  20379516.12348
  -9604106.68807  20051181.74807  -7465107.24649  20051179.02549
  -7474185.00406  22307116.02106  -5815509.38347  22307111.98247
  -1733277.44108  19991623.02908  -1346325.23449  19991619.16249
  -2260674.23806  23062014.23206  -1751619.51647  23062010.83047
  -4686944.86305  23373383.14605  -3646600.55146  23373379.77546
  -7188945.93807  20950572.82607  -5584166.80948  20950567.12348
   2363335.95307  21316185.51407   1840912.78948  21316181.99848
 08 11  4  0 45 29.9980000  0  8  3  6 13 16 19 21 23 31
 -12610391.14807  20360131.95107  -9788291.18448  20360129.68648
  -9673759.13307  20037927.41207  -7519381.87549  20037924.60749
  -7563001.97706  22290214.77906  -5884717.39847  22290211.08447
  -1736570.26207  19990996.53707  -1348891.07049  19990992.61949
  -2395125.59406  23036428.43606  -1856386.78947  23036424.70547
  -4740163.76605  23363255.87305  -3688069.78146  23363252.18646
  -7227680.69107  20943201.33407  -5614349.73048  20943196.09648
   2402886.18407  21323711.74807   1871731.11348  21323708.68948
 08 11  4  0 45 59.9980000  0  8  3  6 13 16 19 21 23 31
 -12711838.45307  20340827.02107  -9867341.03548  20340824.66648
  -9742931.73407  20024764.50607  -7573282.60549  20024761.46749
  -7651319.32406  22273408.61506  -5953536.11747  22273404.99047
  -1739637.27707  19990412.85707  -1351280.96549  19990408.36549
  -2529416.72306  23010873.73206  -1961029.24647  23010870.02947
  -4792986.48005  23353203.86505  -3729230.34846  23353200.79546
  -7265795.05907  20935948.80307  -5644049.25848  20935943.62748
   2442753.69507  21331298.02907   1902796.69948  21331294.36548
 08 11  4  0 46 29.9980000  0  8  3  6 13 16 19 21 23 31
 -12812855.21907  20321604.11507  -9946055.38348  20321601.96348
  -9811623.44107  20011692.81107  -7626808.60549  20011690.40849
  -7739133.64806  22256697.90406  -6021962.84847  22256693.93647
  -1742479.10907  19989872.19307  -1353495.37949  19989868.22549
  -2663544.49206  22985350.17006  -2065544.38347  22985346.62347
  -4845411.25405  23343228.33405  -3770080.83246  23343224.22946
  -7303288.82007  20928813.96707  -5673265.16848  20928808.72148
   2482938.50407  21338944.63907   1934109.51648  21338941.70548
 08 11  4  0 46 59.9980000  0  9  3  6 13 16 19 21 23 25 31
 -12913441.20707  20302463.63107 -10024434.07849  20302460.92449
  -9879835.09007  19998712.31107  -7679960.53549  19998709.19349
  -7826444.23406  22240083.22506  -6089997.06347  22240079.58847
  -1745098.15607  19989373.31107  -1355536.20349  19989369.38949
  -2797508.26606  22959856.96706  -2169931.71947  22959854.00247
  -4897437.78905  23333328.21705  -3810620.98446  23333324.02546
  -7340163.18807  20921796.46707  -5701998.44548  20921792.12748
   -193427.47316  23770502.06106   -142228.51257  23770500.32247
   2523438.45307  21346651.92807   1965667.88748  21346648.60748
 08 11  4  0 47 29.9980000  0  9  3  6 13 16 19 21 23 25 31
 -13013600.77307  20283403.80307 -10102480.48848  20283401.29948
  -9947571.30507  19985822.42807  -7732742.00049  19985819.80349
  -7913254.64506  22223563.56106  -6157641.52347  22223559.83447
  -1747500.43407  19988916.39607  -1357408.12149  19988912.50249
  -2931311.14105  22934395.45905  -2274193.68047  22934392.05747
  -4949070.00806  23323502.68606  -3850853.90246  23323499.47546
  -7376422.62907  20914896.86507  -5730252.55948  20914891.65848
   -310287.63706  23748264.03706   -233288.35947  23748261.90847
   2564247.98807  21354417.67807   1997467.50448  21354414.06848
 08 11  4  0 47 59.9980000  0  9  3  6 13 16 19 21 23 25 31
 -13113330.79707  20264425.99807 -10180192.19948  20264423.00648
 -10014831.15607  19973023.64607  -7785152.26649  19973020.68649
  -7999562.25406  22207139.92806  -6224894.21547  22207136.22547
  -1749686.67207  19988500.35007  -1359111.68849  19988496.33049
  -3064950.48405  22908964.03705  -2378328.19547  22908961.07647
  -5000305.77705  23313752.63105  -3890777.84046  23313749.75246
  -7412066.53907  20908114.31107  -5758027.03148  20908109.28348
   -427133.44906  23726028.87306   -324337.02747  23726027.24447
   2605366.74207  21362242.27907   2029508.06648  21362238.92848
 08 11  4  0 48 29.9980000  0  9  3  6 13 16 19 21 23 25 31
 -13212630.37907  20245529.80307 -10257568.48048  20245527.11548
 -10081613.93807  19960315.17007  -7837190.78149  19960312.45949
  -8085365.16006  22190811.85706  -6291753.61347  22190809.22947
  -1751657.65207  19988125.29507  -1360647.52749  19988121.42849
  -3198424.16005  22883565.52105  -2482333.61347  22883562.18247
  -5051143.56605  23304078.43605  -3930391.69546  23304075.29146
  -7447095.04707  20901448.09207  -5785321.98848  20901442.64648
   -543963.53106  23703796.89606   -415373.43847  23703794.80747
   2646794.02707  21370125.55307   2061789.03548  21370122.24448
 08 11  4  0 48 59.9980000  0  9  3  6 13 16 19 21 23 25 31
 -13311494.48408  20226716.76408 -10334605.44948  20226713.97548
 -10147915.94907  19947698.35007  -7888854.68049  19947695.54149
  -8170658.18006  22174581.44306  -6358215.68047  22174578.33847
  -1753411.07807  19987791.60007  -1362013.83649  19987787.67849
  -3331726.59006  22858198.89606  -2586205.61347  22858195.65847
  -5101578.62905  23294480.32605  -3969691.75046  23294476.67846
  -7481504.77707  20894900.20907  -5812134.76248  20894895.63548
   -660773.23006  23681568.55306   -506393.96947  23681566.33847
   2688532.80507  21378068.36507   2094312.75048  21378065.07648
 08 11  4  0 49 29.9980000  0  9  3  6 13 16 19 21 23 25 31
 -13409921.69507  20207986.36507 -10411301.96948  20207983.44348
 -10213736.43407  19935173.31807  -7940143.35949  19935170.67449
  -8255438.92606  22158448.56106  -6424278.60247  22158444.70147
  -1754947.99207  19987499.47507  -1363211.42249  19987495.12349
  -3464855.48806  22832866.00606  -2689942.36347  22832861.64647
  -5151609.18805  23284959.60005  -4008676.57446  23284956.77946
  -7515295.62507  20888469.85007  -5838465.30148  20888464.73248
   -777560.81606  23659344.89606   -597397.25847  23659342.81147
   2730582.64507  21386069.80307   2127078.83648  21386066.57648
 08 11  4  0 49 59.9980000  0  9  3  6 13 16 19 21 23 25 31
 -13507909.05907  20189340.43607 -10487655.74648  20189336.86148
 -10279073.55107  19922739.63907  -7991055.39149  19922736.90449
  -8339703.73406  22142412.81106  -6489939.48447  22142409.45947
  -1756267.66007  19987248.00607  -1364239.74249  19987243.90449
  -3597807.43806  22807565.48206  -2793541.27347  22807561.81447
  -5201232.55105  23275516.66205  -4047344.11746  23275513.57246
  -7548466.00807  20882157.89607  -5864312.35248  20882153.27148
   -894323.66805  23637125.25605   -688381.27347  23637122.73247
   2772944.19107  21394131.31807   2160087.80148  21394128.18248
 08 11  4  0 50 29.9980000  0  9  3  6 13 16 19 21 23 25 31
 -13605456.46907  20170777.38907 -10563666.69948  20170774.30748
 -10343928.36307  19910398.24007  -8041591.60249  19910395.66249
  -8423452.61307  22126476.49007  -6555198.35247  22126472.62747
  -1757372.38707  19987037.66207  -1365100.56649  19987033.55749
  -3730581.74606  22782299.14606  -2897001.74647  22782295.36547
  -5250448.86305  23266151.38105  -4085694.47746  23266148.52546
  -7581017.58207  20875963.48207  -5889677.22748  20875958.67448
  -1011061.55505  23614911.14605   -779345.83646  23614908.91246
   2815615.30107  21402251.20907   2193337.98448  21402248.14348
 08 11  4  0 50 59.9980000  0  9  3  6 13 16 19 21 23 25 31
 -13702559.50407  20152299.06807 -10639331.38748  20152296.32648
 -10408297.15607  19898149.30307  -8091749.10249  19898146.49449
  -8506680.32006  22110638.99806  -6620051.10947  22110635.13947
  -1758260.32407  19986868.92807  -1365792.46549  19986864.81449
  -3863172.84006  22757068.55306  -3000319.45347  22757064.47947
  -5299253.28905  23256864.06105  -4123723.91446  23256861.05346
  -7612947.11707  20869887.54507  -5914557.38348  20869882.86148
  -1127770.13704  23592701.56104   -870287.53946  23592699.60446
   2858598.40607  21410430.73207   2226831.28948  21410427.42448
 08 11  4  0 51 29.9980000  0  9  3  6 13 16 19 21 23 25 31
 -13799215.91007  20133906.13907 -10714648.06348  20133903.54148
 -10472178.93007  19885993.06107  -8141527.09449  19885990.22949
  -8589384.08206  22094900.58406  -6684495.57847  22094897.43247
  -1758931.52307  19986741.31807  -1366315.48449  19986736.85749
  -3995578.05106  22731872.85006  -3103492.31347  22731868.54547
  -5347643.93005  23247656.00605  -4161430.87546  23247652.26046
  -7644253.80507  20863930.31107  -5938952.21948  20863925.38948
  -1244447.00805  23570498.74805   -961204.53946  23570496.10046
   2901893.46907  21418669.49007   2260567.66448  21418666.36148
 08 11  4  0 51 59.9980000  0  9  3  6 13 16 19 21 23 25 31
 -13895425.56307  20115598.17807 -10789616.61348  20115595.11948
 -10535574.44507  19873929.27107  -8190926.18449  19873926.28349
  -8671564.04306  22079261.98206  -6748531.90647  22079258.55747
  -1759388.28107  19986654.13107  -1366671.39849  19986649.87749
  -4127796.82407  22706712.80307  -3206519.93047  22706707.73647
  -5395620.57006  23238526.72506  -4198815.27046  23238523.36546
  -7674938.88707  20858091.08407  -5962862.67648  20858086.35448
  -1361092.14104  23548300.85704  -1052096.82846  23548299.51846
   2945498.65607  21426967.27107   2294545.70748  21426964.69348
 08 11  4  0 52 29.9980000  0  9  3  6 13 16 19 21 23 25 31
 -13991187.07007  20097375.10707 -10864235.97348  20097372.70948
 -10598483.31307  19861958.02907  -8239946.07849  19861954.83849
  -8753217.18406  22063723.79506  -6812157.72747  22063720.97947
  -1759631.40607  19986607.68607  -1366860.84849  19986603.52549
  -4259826.80906  22681587.90406  -3309400.39147  22681582.81147
  -5443182.03506  23229476.12306  -4235876.16446  23229473.02546
  -7705002.82407  20852370.05307  -5986289.13348  20852364.95148
  -1477703.88304  23526111.43604  -1142963.04346  23526108.90046
   2989413.34407  21435324.34207   2328764.91448  21435320.41648
 08 11  4  0 52 59.9980000  0  9  3  6 13 16 19 21 23 25 31
 -14086493.69107  20079238.06107 -10938500.87148  20079236.17048
 -10660899.93007  19850080.63107  -8288582.39549  19850077.77549
  -8834336.84006  22048287.23206  -6875367.81347  22048284.07647
  -1759656.80507  19986602.77907  -1366880.64549  19986598.97549
  -4391660.46106  22656500.73206  -3412127.91447  22656495.37347
  -5490321.95306  23220505.44306  -4272608.53546  23220502.17046
  -7734440.55507  20846768.02107  -6009227.60548  20846763.14348
  -1594275.80105  23503928.59205  -1233798.27747  23503926.28747
   3033641.96107  21443740.95107   2363228.75848  21443736.88948
 08 11  4  0 53 29.9980000  0  9  3  6 13 16 19 21 23 25 31
 -14181345.26207  20061189.17807 -11012411.18848  20061186.40048
 -10722825.16007  19838296.31807  -8336835.80949  19838293.61549
  -8914922.34406  22032952.46706  -6938161.71147  22032948.95547
  -1759466.28507  19986639.27907  -1366732.18849  19986635.39349
  -4523297.00406  22631451.24006  -3514701.81647  22631445.34247
  -5537039.50805  23211614.99005  -4309011.85246  23211612.13146
  -7763253.37107  20841285.35007  -6031679.16048  20841280.62748
  -1710807.13705  23481754.05305  -1324601.88746  23481750.98246
   3078182.87507  21452216.82607   2397935.93848  21452213.27948
 08 11  4  0 53 59.9980000  0  9  3  6 13 16 19 21 23 25 31
 -14275738.52307  20043226.58407 -11085964.37148  20043223.86948
 -10784256.58607  19826606.67007  -8384704.44549  19826603.95949
  -8994970.24606  22017719.88106  -7000536.69947  22017716.32647
  -1759059.02007  19986716.63907  -1366414.84449  19986712.85049
  -4654732.25806  22606439.24006  -3617118.88347  22606434.54547
  -5583331.72706  23202805.45106  -4345083.71946  23202802.52146
  -7791439.19107  20835921.75607  -6053642.14148  20835916.42848
  -1827294.77706  23459587.24006  -1415371.45346  23459583.81146
   3123037.10507  21460751.95107   2432887.27048  21460748.39648
 08 11  4  0 54 29.9980000  0  9  3  6 13 16 19 21 23 25 31
 -14369672.61707  20025351.92807 -11159159.76648  20025348.73248
 -10845194.85507  19815010.54507  -8432188.80949  19815007.80349
  -9074479.32006  22002590.00606  -7062491.82447  22002585.88147
  -1758436.57807  19986835.20107  -1365929.81649  19986831.17049
  -4785964.91406  22581467.01406  -3719378.06347  22581461.93647
  -5629197.96106  23194077.99006  -4380823.65246  23194074.29546
  -7818999.20307  20830677.87307  -6075117.48848  20830672.27148
  -1943737.81605  23437428.14605  -1506106.29346  23437424.84646
   3168203.12507  21469346.56107   2468081.54748  21469343.57248
 08 11  4  0 54 59.9980000  0  9  3  6 13 16 19 21 23 25 31
 -14463147.48807  20007564.13107 -11231997.31648  20007561.00648
 -10905640.50807  19803508.01407  -8479289.30949  19803505.15849
  -9153448.79706  21987561.85706  -7124026.46547  21987558.92047
  -1757600.81307  19986994.02907  -1365278.57449  19986990.35049
  -4916993.93806  22556532.56806  -3821478.57447  22556527.47147
  -5674638.07806  23185431.24806  -4416231.54746  23185426.72946
  -7845934.79707  20825551.44307  -6096106.26248  20825546.24048
  -2060135.78105  23415278.38905  -1596806.02046  23415275.28746
   3213679.43007  21478000.34207   2503517.60548  21477997.27948
 08 11  4  0 55 29.9980000  0  9  3  6 13 16 19 21 23 25 31
 -14556158.59007  19989864.77907 -11304473.49248  19989862.10748
 -10965589.69907  19792100.08407  -8526002.94949  19792097.26049
  -9231873.05506  21972638.52106  -7185136.25447  21972635.31847
  -1756549.28107  19987194.27107  -1364459.20349  19987190.56849
  -5047813.87906  22531638.75606  -3923416.16047  22531633.78347
  -5719647.60506  23176866.65406  -4451303.87546  23176862.58446
  -7872242.61307  20820545.67807  -6116605.86748  20820541.04548
  -2176483.70705  23393138.33405  -1687466.71546  23393135.52546
   3259468.72307  21486714.72507   2539197.53148  21486710.62748
 08 11  4  0 55 59.9980000  0  9  3  6 13 16 19 21 23 25 31
 -14648698.44507  19972254.99807 -11376582.45748  19972252.27548
 -11025036.47307  19780788.09207  -8572325.09449  19780784.77149
  -9309744.47706  21957820.18606  -7245815.28147  21957817.18247
  -1755276.90207  19987436.35707  -1363467.73849  19987433.01049
  -5178416.39106  22506786.00606  -4025184.33247  22506781.15047
  -5764218.87906  23168384.70106  -4486034.76646  23168380.16646
  -7897917.07807  20815660.10707  -6136611.93848  20815654.23248
  -2292774.07805  23371008.49005  -1778082.57446  23371005.91646
   3305575.81607  21495487.88907   2575125.13348  21495484.59248
 08 11  4  0 56 29.9980000  0  9  3  6 13 16 19 21 23 25 31
 -14740763.88707  19954735.52107 -11448321.75448  19954733.19348
 -11083978.24607  19769571.55307  -8618253.74649  19769568.83449
  -9387059.43806  21943107.74806  -7306060.71547  21943104.29147
  -1753782.44107  19987720.91207  -1362303.22349  19987716.85449
  -5308797.25806  22481974.77906  -4126779.76647  22481970.72947
  -5808348.76205  23159986.12305  -4520421.70346  23159983.47946
  -7922956.39107  20810895.06807  -6156123.10248  20810889.93248
  -2409003.15605  23348891.02905  -1868650.69947  23348888.50647
   3352002.24607  21504322.51407   2611301.52348  21504319.90048
 08 11  4  0 56 59.9980000  0  9  3  6 13 16 19 21 23 25 31
 -14832353.80107  19937306.30307 -11519690.50849  19937303.88949
 -11142415.54707  19758451.31807  -8663789.28949  19758448.37349
  -9463817.10206  21928500.77106  -7365871.86747  21928497.34647
  -1752067.44107  19988046.95107  -1360966.86349  19988043.37749
  -5438955.18006  22457207.52906  -4228201.48047  22457202.02147
  -5852036.70705  23151672.75605  -4554464.25846  23151669.85746
  -7947361.60507  20806251.14607  -6175140.16848  20806245.29148
  -2525169.98805  23326784.74805  -1959170.27047  23326782.63147
   3398746.73407  21513217.63107   2647725.77048  21513214.94748
 08 11  4  0 57 29.9980000  0  9  3  6 13 16 19 21 23 25 31
 -14923463.91407  19919968.99007 -11590685.37949  19919965.99449
 -11200344.87107  19747427.75607  -8708929.01249  19747425.33049
  -9540012.24606  21914001.38906  -7425244.71947  21913998.23647
  -1750129.79307  19988416.11507  -1359457.01649  19988411.97549
  -5568884.98806  22432482.69306  -4329445.47748  22432477.65048
  -5895277.95306  23143444.83406  -4588158.74647  23143441.54947
  -7971129.79707  20801728.02907  -6193660.82448  20801723.10748
  -2641269.92205  23304692.22505  -2049637.73047  23304689.45147
   3445811.61307  21522174.04507   2684399.66048  21522170.58448
 08 11  4  0 57 59.9980000  0  9  3  6 13 16 19 21 23 25 31
 -15014093.54307  19902722.49007 -11661305.85548  19902719.29948
 -11257766.82007  19736500.44307  -8753673.37549  19736498.11949
  -9615644.11306  21899609.53706  -7484178.66447  21899605.92847
  -1747970.59007  19988826.93607  -1357774.52349  19988823.56449
  -5698585.13706  22407801.55306  -4430510.50047  22407796.18247
  -5938072.21506  23135301.93606  -4621504.90246  23135297.35746
  -7994262.12907  20797326.00607  -6211686.03148  20797320.86148
  -2757301.99205  23282612.38105  -2140052.30547  23282609.65447
   3493195.47307  21531190.76407   2721322.11348  21531187.73648
 08 11  4  0 58 29.9980000  0  9  3  6 13 16 19 21 23 25 31
 -15104237.94107  19885568.31807 -11731548.23848  19885565.49448
 -11314677.19907  19725670.74007  -8798019.11749  19725668.01449
  -9690706.97306  21885325.65406  -7542669.19147  21885322.36947
  -1745587.11307  19989280.28707  -1355917.27749  19989276.57649
  -5828049.71906  22383164.46706  -4531391.97348  22383160.16248
  -5980414.59406  23127243.49006  -4654498.94946  23127239.85046
  -8016755.16407  20793045.42807  -6229213.07048  20793040.73648
  -2873260.86705  23260546.87305  -2230409.82847  23260543.18247
   3540901.33607  21540269.01407   2758495.48048  21540265.85748
 08 11  4  0 58 59.9980000  0  9  3  6 13 16 19 21 23 25 31
 -15193894.99207  19868507.31807 -11801410.86348  19868504.65848
 -11371075.28907  19714938.79507  -8841965.67649  19714936.18649
  -9765198.23406  21871150.27906  -7600714.34047  21871146.58847
  -1742979.51207  19989776.57607  -1353885.38348  19989772.45948
  -5957275.63706  22358573.99806  -4632087.47747  22358568.24847
  -6022303.00405  23119272.79505  -4687139.26247  23119268.72547
  -8038608.63307  20788887.19307  -6246241.77048  20788881.61948
  -2989144.07805  23238494.28705  -2320708.38347  23238491.68947
   3588929.35907  21549408.31107   2795919.87548  21549405.13948
 08 11  4  0 59 29.9980000  0  9  3  6 13 16 19 21 23 25 31
 -15283060.91007  19851539.58407 -11870890.78948  19851537.15848
 -11426958.01207  19704304.64607  -8885510.64549  19704302.14349
  -9839113.96506  21857084.77906  -7658311.00847  21857080.70947
  -1740146.00407  19990315.52907  -1351677.46949  19990311.89349
  -6086258.32806  22334029.29506  -4732593.44547  22334024.06147
  -6063733.79706  23111388.85006  -4719423.00847  23111385.06447
  -8059820.56307  20784850.59207  -6262770.54748  20784845.20948
  -3104947.35905  23216457.88905  -2410944.68047  23216455.08847
   3637280.85207  21558609.51407   2833596.32048  21558606.63148
 08 11  4  0 59 59.9980000  0  9  3  6 13 16 19 21 23 25 31
 -15371739.94907  19834664.54507 -11939991.33648  19834661.81848
 -11482331.06607  19693767.16207  -8928658.46549  19693764.93949
  -9912457.91006  21843127.81106  -7715462.13747  21843124.19347
  -1737092.77707  19990896.68607  -1349298.34048  19990893.14348
  -6215001.35906  22309530.18606  -4832912.65247  22309524.78747
  -6104711.31306  23103591.20106  -4751353.53947  23103587.85747
  -8080396.73807  20780935.16207  -6278803.94548  20780929.75648
  -3220674.66405  23194435.40405  -2501121.76247  23194433.27947
   3685949.72707  21567871.31807   2871520.08248  21567868.18648
 08 11  4  1  0 29.9970000  0  9  3  6 13 16 19 21 23 25 31
 -15459928.27007  19817883.06307 -12008709.49249  19817880.45849
 -11537192.80507  19683327.43107  -8971407.86349  19683324.64249
  -9985226.41006  21829280.49306  -7772164.85547  21829277.07147
  -1733821.03907  19991519.41507  -1346748.94949  19991515.29849
  -6343498.22706  22285077.97806  -4933040.06647  22285072.71647
  -6145233.13306  23095879.70406  -4782928.97747  23095876.25547
  -8100337.60907  20777140.68107  -6294342.28548  20777135.38848
  -3336320.69905  23172428.18105  -2591235.52347  23172426.32947
   3734933.38307  21577192.62607   2909689.10948  21577189.38848
 08 11  4  1  0 59.9970000  0  9  3  6 13 16 19 21 23 25 31
 -15547628.50407  19801194.11807 -12077047.33649  19801191.72449
 -11591544.39107  19672984.97007  -9013759.74649  19672982.10649
 -10057420.63306  21815542.23506  -7828420.09847  21815539.50547
  -1730329.57807  19992183.75907  -1344028.33248  19992179.89948
  -6471753.85206  22260671.63406  -5032979.49247  22260666.28247
  -6185298.98406  23088255.64906  -4814149.10547  23088251.81347
  -8119642.89507  20773466.25107  -6309385.37548  20773461.59148
  -3451889.57805  23150436.47005  -2681289.13347  23150434.10647
   3784236.12107  21586574.19607   2948106.79748  21586570.98548
 08 11  4  1  1 29.9970000  0  9  3  6 13 16 19 21 23 25 31
 -15634837.26207  19784598.83707 -12145002.20749  19784596.76749
 -11645384.86307  19662739.10307  -9055713.35549  19662736.36049
 -10129037.35906  21801913.53206  -7884225.32847  21801910.51347
  -1726620.06607  19992889.68807  -1341137.80149  19992885.84549
  -6599762.39806  22236312.27406  -5132726.39547  22236307.21647
  -6224907.25006  23080718.79806  -4845012.67647  23080715.29447
  -8138313.09007  20769913.73507  -6323933.58248  20769908.22448
  -3567376.40206  23128459.75106  -2771278.85247  23128457.78647
   3833854.82807  21596016.20407   2986770.69148  21596013.09948
 08 11  4  1  1 59.9970000  0  9  3  6 13 16 19 21 23 25 31
 -15721549.39507  19768098.11007 -12212570.09849  19768095.81349
 -11698709.81307  19652591.65707  -9097265.25449  19652588.85349
 -10200070.67606  21788396.61006  -7939575.95347  21788393.05247
  -1722688.73807  19993637.58707  -1338074.42249  19993634.20049
  -6727517.75406  22212001.18106  -5232275.98847  22211996.26747
  -6264052.34806  23073268.76706  -4875515.34447  23073265.90747
  -8156344.52707  20766482.87607  -6337984.05948  20766477.96248
  -3682775.23806  23106500.37606  -2861199.98847  23106497.81347
   3883793.04307  21605519.26707   3025683.55148  21605516.03648
 08 11  4  1  2 29.9970000  0  9  3  6 13 16 19 21 23 25 31
 -15807766.79708  19751691.73508 -12279752.47349  19751689.10349
 -11751522.30107  19642541.68807  -9138417.82849  19642538.92749
 -10270522.69506  21774990.22806  -7994473.63747  21774987.07547
  -1718539.94107  19994427.40707  -1334841.60548  19994423.89948
  -6855020.93406  22187738.09506  -5331629.09047  22187732.69647
  -6302736.81306  23065908.01706  -4905659.05947  23065904.93847
  -8173741.39807  20763172.11007  -6351540.05948  20763167.04848
  -3798087.75406  23084557.28206  -2951053.85947  23084554.46247
   3934046.55106  21615082.30606   3064842.08648  21615079.78648
 08 11  4  1  2 59.9970000  0  9  3  6 13 16 19 21 23 25 31
 -15893485.34007  19735379.52407 -12346546.13749  19735376.82949
 -11803819.36307  19632590.07107  -9179168.78149  19632587.18849
 -10340388.61706  21761695.41506  -8048914.60947  21761691.59547
  -1714171.19507  19995259.03207  -1331437.39548  19995254.98548
  -6982266.61706  22163524.48506  -5430781.53947  22163518.95047
  -6340956.52306  23058635.89206  -4935440.62947  23058631.68147
  -8190501.03507  20759983.14907  -6364599.52748  20759977.70048
  -3913309.17606  23062631.40706  -3040836.76647  23062628.43547
   3984617.63706  21624705.32106   3104248.10248  21624701.94248
 08 11  4  1  3 29.9970000  0  9  3  6 13 16 19 21 23 25 31
 -15978707.69908  19719162.47008 -12412953.17649  19719159.96249
 -11855604.79307  19622735.63407  -9219521.05149  19622732.98149
 -10409670.59406  21748511.19606  -8102900.57847  21748507.63047
  -1709587.23807  19996130.76707  -1327865.48449  19996127.28649
  -7109256.67206  22139358.64906  -5529734.80547  22139353.97047
  -6378713.89506  23051449.95406  -4964861.94147  23051446.29447
  -8206628.09807  20756914.21207  -6377166.07048  20756908.98548
  -4028441.61706  23040723.14906  -3130550.34047  23040719.27147
   4035501.48806  21634388.29006   3143897.82448  21634385.23148
 08 11  4  1  3 59.9970000  0  9  3  6 13 16 19 21 23 25 31
 -16063429.82807  19703040.29007 -12478970.41049  19703037.95449
 -11906875.53907  19612979.11807  -9259472.27049  19612976.36449
 -10478364.69906  21735439.22006  -8156428.45347  21735436.33747
  -1704785.94907  19997044.74307  -1324124.23049  19997040.83749
  -7235986.03906  22115242.72806  -5628484.94547  22115237.82547
  -6416004.80906  23044353.54006  -4993919.78547  23044350.18847
  -8222120.09807  20753966.13407  -6389237.77048  20753960.75948
  -4143480.32406  23018831.04806  -3220190.87147  23018827.67347
   4086700.09806  21644130.94606   3183792.82448  21644128.37248
 08 11  4  1  4 29.9970000  0  9  3  6 13 16 19 21 23 25 31
 -16147654.21508  19687012.97808 -12544599.80149  19687010.42349
 -11957635.03107  19603319.97807  -9299025.11749  19603317.33749
 -10546472.30107  21722478.80607  -8209499.30547  21722475.72447
  -1699771.39507  19997999.27407  -1320216.78549  19997995.13049
  -7362456.18806  22091176.91506  -5727033.08248  22091171.71248
  -6452832.15606  23037345.32106  -5022616.41847  23037342.71647
  -8236981.67207  20751137.56307  -6400818.21548  20751132.63048
  -4258427.02706  22996956.81306  -3309759.73047  22996953.63447
   4138209.31606  21653933.29006   3223929.84448  21653930.11848
 08 11  4  1  4 59.9970000  0  9  3  6 13 16 19 21 23 25 31
 -16231379.42207  19671080.42307 -12609840.21549  19671077.84549
 -12007883.62507  19593757.99307  -9338179.84849  19593755.52149
 -10613992.28506  21709630.16506  -8262112.26647  21709627.32947
  -1694544.24607  19998993.71207  -1316143.68449  19998989.58749
  -7488665.01206  22067159.18806  -5825377.59847  22067154.45447
  -6489194.71106  23030426.72806  -5050950.85947  23030423.11447
  -8251213.26607  20748430.11007  -6411907.77348  20748424.46248
  -4373280.00005  22975101.43805  -3399255.53146  22975098.60346
   4190027.98407  21663794.29807   3264307.99248  21663790.82948
 08 11  4  1  5 29.9970000  0  9  3  6 13 16 19 21 23 25 31
 -16314601.92607  19655243.84507 -12674688.91049  19655241.36849
 -12057617.78107  19584293.72007  -9376933.73449  19584291.20849
 -10680920.02006  21696894.10306  -8314263.73847  21696891.39647
  -1689102.46907  20000029.15707  -1311903.34048  20000025.00548
  -7614607.24206  22043193.25906  -5923514.36348  22043189.46648
  -6525088.51606  23023595.38406  -5078920.04747  23023592.52447
  -8264812.72307  20745841.61007  -6422504.76248  20745836.13048
  -4488034.35505  22953263.50905  -3488674.48447  22953262.00147
   4242158.53507  21673715.09507   3304929.17248  21673711.53248
 08 11  4  1  5 59.9970000  0  9  3  6 13 16 19 21 23 25 31
 -16397321.46907  19639502.95407 -12739145.68849  19639500.17349
 -12106838.53508  19574927.52408  -9415287.56349  19574924.62249
 -10747254.96506  21684270.79006  -8365953.30947  21684267.68847
  -1683447.35507  20001105.11007  -1307496.76649  20001101.56349
  -7740281.96106  22019278.54806  -6021442.66448  22019274.06048
  -6560513.34806  23016854.51706  -5106523.80147  23016851.20847
  -8277782.00807  20743373.69607  -6432610.70348  20743368.50148
  -4602689.28105  22931446.51705  -3578015.93847  22931443.60647
   4294599.53906  21683693.14906   3345792.27048  21683690.77148
 08 11  4  1  6 29.9970000  0  9  3  6 13 16 19 21 23 25 31
 -16479535.57807  19623858.35307 -12803208.62549  19623855.16949
 -12155545.13708  19565659.04008  -9453240.75049  19565656.30249
 -10812994.86306  21671761.14906  -8417179.20747  21671758.23547
  -1677578.80107  20002222.09507  -1302923.87149  20002218.11049
  -7865685.85906  21995414.75906  -6119159.95748  21995410.97848
  -6595467.22306  23010202.75906  -5133760.57047  23010199.22447
  -8290120.09807  20741025.87607  -6442224.81348  20741020.48948
  -4717241.93805  22909647.34505  -3667277.73447  22909644.82147
   4347350.75006  21693731.57906   3386897.07848  21693728.74748
 08 11  4  1  6 59.9970000  0  9  3  6 13 16 19 21 23 25 31
 -16561245.97707  19608309.00107 -12866879.05149  19608306.09949
 -12203740.10907  19556487.65707  -9490795.26649  19556484.81749
 -10878140.96906  21659364.35306  -8467942.41447  21659361.26747
  -1671500.04307  20003378.72807  -1298187.16849  20003375.02149
  -7990819.82806  21971602.24306  -6216666.92648  21971598.17348
  -6629952.14806  23003640.85306  -5160631.91047  23003636.84947
  -8301830.99607  20738797.57907  -6451350.19948  20738792.29448
  -4831693.24605  22887867.35305  -3756460.53547  22887865.47047
   4400408.80507  21703828.68807   3428240.98448  21703825.89248
 08 11  4  1  7 29.9970000  0  9  3  6 13 16 19 21 23 25 31
 -16642453.83207  19592855.98507 -12930157.89149  19592853.15349
 -12251425.25808  19547413.54808  -9527952.52349  19547410.73949
 -10942693.85906  21647080.16506  -8518243.35247  21647077.56347
  -1665213.51207  20004575.21207  -1293288.57049  20004571.68549
  -8115683.09006  21947841.28206  -6313962.94147  21947837.55247
  -6663968.59006  22997167.48506  -5187138.19547  22997164.03647
  -8312917.37107  20736688.01707  -6459988.94548  20736682.45848
  -4946042.91406  22866108.05606  -3845564.13747  22866105.22847
   4453770.77306  21713982.74306   3469821.71148  21713980.50148
 08 11  4  1  7 59.9970000  0  9  3  6 13 16 19 21 23 25 31
 -16723151.15607  19577499.28207 -12993038.90249  19577497.20849
 -12298594.16408  19538437.69608  -9564707.50049  19538434.64949
 -11006645.26206  21634910.65706  -8568075.59447  21634907.56347
  -1658713.46907  20005812.18107  -1288223.60549  20005808.09549
  -8240267.18406  21924134.09506  -6411041.43448  21924130.08348
  -6697509.30506  22990784.86006  -5213273.79347  22990781.59147
  -8323373.49207  20734698.43107  -6468136.58248  20734692.64948
  -5060282.71105  22844368.39205  -3934582.10947  22844366.12247
   4507442.44106  21724195.93106   3511643.75448  21724193.75148
 08 11  4  1  8 29.9970000  0  9  3  6 13 16 19 21 23 25 31
 -16803335.95707  19562240.72007 -13055520.55949  19562238.29049
 -12345246.12508  19529559.89908  -9601059.66849  19529557.09949
 -11069993.47706  21622855.58706  -8617437.85247  21622853.04447
  -1651999.89807  20007089.74307  -1282992.25849  20007085.37649
  -8364569.26206  21900479.86006  -6507900.17248  21900476.02148
  -6730572.69106  22984493.41506  -5239037.46547  22984489.63047
  -8333199.59407  20732828.75907  -6475793.30548  20732822.90748
  -5174410.01605  22822650.44605  -4023512.44147  22822648.68547
   4561423.82007  21734468.82907   3553707.13348  21734465.84948
 08 11  4  1  8 59.9970000  0  9  3  6 13 16 19 21 23 25 31
 -16883008.98007  19547079.34507 -13117603.41849  19547076.97049
 -12391382.32807  19520780.66507  -9637009.94549  19520777.56349
 -11132737.92206  21610915.78206  -8666329.60547  21610913.05247
  -1645074.34407  20008407.18807  -1277595.71549  20008403.31749
  -8488588.71506  21876880.31306  -6604538.67248  21876875.45848
  -6763158.32006  22978292.52406  -5264428.83247  22978288.70847
  -8342397.41807  20731077.72007  -6482960.43448  20731073.01748
  -5288424.06606  22800954.40706  -4112354.53547  22800952.38847
   4615712.61707  21744799.67307   3596010.07848  21744796.16548
 08 11  4  1  9 29.9970000  0  9  3  6 13 16 19 21 23 25 31
 -16962166.33607  19532016.36807 -13179284.47349  19532013.92749
 -12436999.93808  19512099.90708  -9672556.14149  19512096.76749
 -11194874.71906  21599091.09506  -8714747.88347  21599088.91947
  -1637934.39807  20009766.08707  -1272032.13349  20009762.46249
  -8612319.85906  21853335.16506  -6700952.52748  21853330.37648
  -6795262.50806  22972183.07106  -5289445.06647  22972179.35347
  -8350965.02707  20729447.86807  -6489636.49648  20729442.66948
  -5402319.91406  22779281.31306  -4201104.52047  22779278.64947
   4670311.06606  21755189.02406   3638554.27748  21755186.70048
 08 11  4  1  9 59.9970000  0  9  3  6 13 16 19 21 23 25 31
 -17040808.19108  19517051.52408 -13240563.83249  19517048.89249
 -12482100.74607  19503517.43107  -9707699.62149  19503514.62649
 -11256404.30106  21587383.03206  -8762693.01247  21587379.76747
  -1630582.68807  20011165.07907  -1266303.52749  20011161.00149
  -8735762.51606  21829844.79806  -6797141.58648  21829839.90748
  -6826886.37906  22966165.52406  -5314087.02347  22966162.25547
  -8358905.20307  20727936.82107  -6495823.65248  20727931.54048
  -5516097.42206  22757630.16506  -4289762.29347  22757627.85347
   4725216.59407  21765637.49307   3681337.75048  21765634.48148
 08 11  4  1 10 29.9970000  0  9  3  6 13 16 19 21 23 25 31
 -17118928.52707  19502185.60307 -13301436.79749  19502183.12649
 -12526679.43407  19495034.30607  -9742436.25049  19495031.61049
 -11317319.32806  21575791.52406  -8810159.27047  21575788.45047
  -1623014.13307  20012605.57907  -1260405.94949  20012601.42749
  -8858909.29706  21806410.86806  -6893100.10247  21806405.37647
  -6858023.44506  22960239.94606  -5338349.67647  22960236.76747
  -8366213.52707  20726546.11807  -6501518.46548  20726540.58348
  -5629749.38706  22736003.27406  -4378322.24247  22736000.53647
   4780433.43407  21776145.11807   3724363.80548  21776141.50148
 08 11  4  1 10 59.9970000  0  9  3  6 13 16 19 21 23 25 31
 -17196532.00808  19487418.32908 -13361907.03149  19487415.16949
 -12570741.80108  19486649.43108  -9776770.55549  19486646.45449
 -11377624.51606  21564315.97806  -8857150.32047  21564312.43547
  -1615234.98807  20014085.89207  -1254344.28149  20014081.91549
  -8981763.75006  21783031.88406  -6988830.81647  21783026.85347
  -6888678.69506  22954406.72806  -5362236.86347  22954403.18147
  -8372896.56607  20725274.46207  -6506726.03148  20725268.68848
  -5743279.17606  22714398.47006  -4466786.98847  22714396.25147
   4835955.73007  21786710.69607   3767627.87948  21786707.17348
 08 11  4  1 11 29.9970000  0  9  3  6 13 16 19 21 23 25 31
 -17273613.51608  19472749.84508 -13421970.53549  19472747.70049
 -12614284.14807  19478363.98507  -9810699.64849  19478360.87649
 -11437315.00406  21552956.46206  -8903662.38347  21552953.86447
  -1607241.93007  20015606.97007  -1248115.93849  20015602.82949
  -9104319.80906  21759710.82906  -7084329.02048  21759705.58748
  -6918847.07006  22948665.74306  -5385744.68047  22948661.66147
  -8378951.51207  20724122.36007  -6511444.18048  20724116.57948
  -5856681.10206  22692818.82906  -4555152.08247  22692816.93847
   4891786.13307  21797334.44607   3811132.06348  21797330.94648
 08 11  4  1 11 59.9970000  0  9  3  6 13 16 19 21 23 25 31
 -17350177.85508  19458179.92308 -13481631.04349  19458177.45049
 -12657312.21107  19470176.00907  -9844228.00049  19470173.06749
 -11496394.81606  21541714.52406  -8949698.59047  21541711.50947
  -1599041.35907  20017167.43807  -1241725.88349  20017163.61049
  -9226581.16806  21736445.40706  -7179597.57848  21736440.39648
  -6948533.35206  22943016.69606  -5408876.82847  22943013.27147
  -8384385.06307  20723088.82107  -6515678.13348  20723082.85348
  -5969958.89106  22671263.52406  -4643420.45747  22671260.66147
   4947918.00007  21808016.37607   3854871.11748  21808013.00548
 08 11  4  1 12 29.9970000  0  9  3  6 13 16 19 21 23 25 31
 -17426222.94908  19443709.14908 -13540886.95749  19443706.98149
 -12699824.69907  19462085.90707  -9877354.60949  19462083.27849
 -11554861.81306  21530588.61806  -8995257.27747  21530584.99347
  -1590632.31307  20018767.42307  -1235173.39149  20018763.64649
  -9348544.52706  21713236.04006  -7274633.96548  21713230.92348
  -6977735.47706  22937460.39206  -5431631.71947  22937456.47847
  -8389196.71107  20722172.29807  -6519427.48048  20722167.54448
  -6083109.25406  22649731.42306  -4731589.53547  22649728.94247
   5004351.60907  21818755.58707   3898845.31348  21818751.33348
 08 11  4  1 12 59.9970000  0  9  3  6 13 16 19 21 23 25 31
 -17501748.72708  19429337.15708 -13599738.21549  19429334.67349
 -12741822.69507  19454094.07907  -9910080.31649  19454091.33749
 -11612715.27306  21519579.38406  -9040337.89147  21519576.29447
  -1582016.08207  20020406.79807  -1228459.43848  20020403.39948
  -9470208.05906  21690084.31306  -7369436.70348  21690079.08748
  -7006453.97706  22931994.64206  -5454009.75847  22931990.98947
  -8393388.41407  20721374.79007  -6522693.74248  20721369.26748
  -6196130.85906  22628224.38406  -4819658.29747  22628221.14247
   5061085.67607  21829551.88407   3943053.65248  21829548.04848
 08 11  4  1 13 29.9970000  0  9  3  6 13 16 19 21 23 25 31
 -17576753.17608  19415064.51708 -13658183.22749  19415061.77149
 -12783305.28107  19446200.09507  -9942404.40649  19446197.02849
 -11669953.27706  21508687.19606  -9084938.91047  21508684.32547
  -1573192.23007  20022086.19607  -1221583.71948  20022082.71248
  -9591569.08606  21666990.20406  -7464003.71548  21666985.38048
  -7034686.13706  22926622.97006  -5476008.82847  22926619.01347
  -8396960.38707  20720695.10307  -6525477.10248  20720689.79048
  -6309020.80106  22606741.75906  -4907624.44947  22606739.27147
   5118120.04307  21840404.68807   3987495.98448  21840401.75148
 08 11  4  1 13 59.9970000  0  9  3  6 13 16 19 21 23 25 31
 -17651241.34808  19400889.81308 -13716225.94549  19400887.10649
 -12824278.84007  19438403.33707  -9974331.83649  19438400.47849
 -11726580.51606  21497911.79806  -9129064.03147  21497908.34547
  -1564167.58207  20023803.55607  -1214551.53949  20023799.82549
  -9712631.35206  21643953.00106  -7558337.94548  21643947.51348
  -7062437.31306  22921341.57906  -5497633.09047  22921337.66947
  -8399919.55507  20720132.03207  -6527782.94948  20720127.06048
  -6421783.06606  22585284.07106  -4995491.13347  22585281.05247
   5175447.82007  21851313.93107   4032166.91848  21851311.43148
 08 11  4  1 14 29.9970000  0  9  3  6 13 16 19 21 23 25 31
 -17725213.00007  19386813.42307 -13773866.18849  19386810.57949
 -12864744.21907  19430702.93807 -10005863.29349  19430699.97049
 -11782596.68806  21487252.18806  -9172712.98047  21487248.52447
  -1554943.11307  20025559.07907  -1207363.64148  20025554.89648
  -9833393.63706  21620972.77406  -7652438.40648  21620967.74348
  -7089707.46906  22916152.36006  -5518882.55147  22916148.30647
  -8402268.11707  20719684.37607  -6529613.00448  20719680.12648
  -6534416.38305  22563850.13405  -5083257.33647  22563847.55647
   5233067.10907  21862278.45407   4077065.03948  21862275.27448
 08 11  4  1 14 59.9970000  0  9  3  6 13 16 19 21 23 25 31
 -17798668.51207  19372835.22007 -13831104.25049  19372832.50149
 -12904702.54307  19423098.63407 -10036999.64849  19423096.06749
 -11838001.82806  21476708.54006  -9215885.80947  21476705.36447
  -1545520.24207  20027352.05607  -1200021.14848  20027347.94248
  -9953854.85206  21598049.43806  -7746304.27348  21598044.88848
  -7116497.47306  22911053.95406  -5539757.85947  22911050.73147
  -8404007.98007  20719353.98507  -6530968.75848  20719349.09148
  -6646919.53505  22542441.68805  -5170922.10947  22542439.27147
   5290976.20707  21873297.46207   4122188.97348  21873295.28648
 08 11  4  1 15 29.9970000  0  9  3  6 13 16 19 21 23 25 31
 -17871602.95307  19358956.40707 -13887936.27049  19358953.27149
 -12944150.35507  19415592.22007 -10067738.19549  19415589.26749
 -11892790.68806  21466282.89206  -9258578.41047  21466279.77447
  -1535895.66407  20029183.67307  -1192521.48048  20029179.68848
 -10074008.95306  21575184.93806  -7839930.81648  21575180.45848
  -7142801.88306  22906048.74306  -5560254.80147  22906044.96647
  -8405136.48007  20719139.23507  -6531848.11748  20719134.22448
  -6759286.72706  22521058.86806  -5258480.92247  22521056.56347
   5349178.32806  21884373.73506   4167541.21148  21884371.11448
 08 11  4  1 15 59.9970000  0  9  3  6 13 16 19 21 23 25 31
 -17944014.42207  19345176.63407 -13944360.78549  19345174.18849
 -12983086.39107  19408183.14207 -10098077.96549  19408180.04449
 -11946961.25006  21455974.82106  -9300789.25047  21455971.03647
  -1526068.56607  20031053.61007  -1184864.00848  20031049.91548
 -10193852.67206  21552378.94606  -7933315.53948  21552374.98548
  -7168618.94106  22901134.77406  -5580371.97747  22901131.82947
  -8405653.37907  20719041.07107  -6532250.91448  20719035.82148
  -6871514.44506  22499702.36806  -5345931.07047  22499700.11847
   5407673.64106  21895504.97006   4213121.92648  21895502.39948
 08 11  4  1 16 29.9970000  0  9  3  6 13 16 19 21 23 25 31
 -18015897.09808  19331498.18808 -14000373.25449  19331495.26349
 -13021505.89807  19400871.57107 -10128015.23049  19400869.05649
 -12000506.65606  21445785.77406  -9342512.93847  21445781.98147
  -1516034.39107  20032962.86007  -1177045.17248  20032959.11048
 -10313378.51606  21529634.13406  -8026452.53148  21529629.64648
  -7193943.00805  22896316.15705  -5600104.97347  22896313.04047
  -8405555.09807  20719059.33707  -6532174.34448  20719054.55648
  -6983595.64806  22478373.93806  -5433267.04347  22478371.76747
   5466466.09406  21906692.81306   4258934.17648  21906690.54448
 08 11  4  1 16 59.9970000  0  9  3  6 13 16 19 21 23 25 31
 -18087247.18008  19317920.26708 -14055970.69949  19317917.90349
 -13059406.67607  19393659.70407 -10157548.29349  19393656.33349
 -12053424.09806  21435715.15706  -9383747.28947  21435712.22847
  -1505790.83207  20034912.36007  -1169063.19148  20034908.48548
 -10432582.20706  21506949.43806  -8119338.52348  21506946.11848
  -7218770.82405  22891592.04005  -5619451.30547  22891588.51747
  -8404840.10207  20719195.90707  -6531617.21148  20719190.67348
  -7095525.61706  22457074.54806  -5520485.18847  22457072.13847
   5525557.49606  21917937.73506   4304979.37948  21917934.49348
 08 11  4  1 17 29.9970000  0  9  3  6 13 16 19 21 23 25 31
 -18158066.28508  19304444.33708 -14111154.41049  19304441.08349
 -13096791.57407  19386545.42307 -10186679.37549  19386542.80649
 -12105715.17606  21425765.03206  -9424493.58247  21425761.40347
  -1495341.02707  20036901.22007  -1160920.48448  20036896.98148
 -10551464.14806  21484327.28206  -8211973.76648  21484324.02848
  -7243103.85506  22886960.86006  -5638412.09447  22886957.97447
  -8403512.45707  20719448.28207  -6530582.68848  20719443.41948
  -7207304.98406  22435804.27406  -5607585.96947  22435801.48147
   5584944.21906  21929238.29806   4351254.73048  21929235.70448
 08 11  4  1 17 59.9970000  0  9  3  6 13 16 19 21 23 25 31
 -18228354.17208  19291068.79008 -14165924.18849  19291066.17349
 -13133660.58207  19379529.55607 -10215408.46949  19379526.96249
 -12157378.11706  21415933.57906  -9464750.42647  21415929.63447
  -1484685.30507  20038928.58707  -1152617.32448  20038924.63048
 -10670021.94106  21461766.65706  -8304356.44148  21461763.09948
  -7266941.21105  22882425.57905  -5656986.62947  22882422.10347
  -8401572.91807  20719817.37607  -6529071.36348  20719812.63848
  -7318931.18806  22414562.16506  -5694567.42647  22414559.83347
   5644625.68406  21940595.83706   4397759.71148  21940593.02848
 08 11  4  1 18 29.9970000  0  9  3  6 13 16 19 21 23 25 31
 -18298109.10508  19277794.81308 -14220278.66849  19277791.82949
 -13170013.25407  19372611.84507 -10243735.21549  19372609.20849
 -12208411.29706  21406222.30606  -9504516.52747  21406219.05247
  -1473823.05107  20040995.79007  -1144153.23048  20040992.00948
 -10788252.94106  21439268.66506  -8396484.47748  21439263.68848
  -7290281.55505  22877984.39205  -5675173.89147  22877980.50947
  -8399022.47307  20720302.70407  -6527084.00848  20720297.83748
  -7430401.37106  22393349.61806  -5781427.28947  22393347.32947
   5704601.65606  21952008.89206   4444494.20348  21952005.48948
 08 11  4  1 18 59.9970000  0  9  3  6 13 16 19 21 23 25 31
 -18367329.74208  19264622.61808 -14274216.81649  19264620.06749
 -13205849.61307  19365792.54007 -10271659.64549  19365790.02849
 -12258814.10506  21396630.83706  -9543791.43447  21396627.23147
  -1462754.84807  20043101.89907  -1135528.65248  20043098.05648
 -10906154.78506  21416832.07106  -8488356.02748  21416828.06348
  -7313124.07405  22873637.77405  -5692973.23447  22873633.84947
  -8395861.89507  20720903.72807  -6524621.23848  20720898.82948
  -7541713.22706  22372168.23506  -5868163.76647  22372165.45047
   5764871.44106  21963477.78206   4491457.64148  21963474.86848
 08 11  4  1 19 29.9970000  0  9  3  6 13 16 19 21 23 25 31
 -18436016.91008  19251552.07908 -14327739.27349  19251549.22849
 -13241171.51207  19359070.80607 -10299183.18849  19359068.36449
 -12308586.62906  21387159.37606  -9582575.22347  21387156.70447
  -1451482.12107  20045247.01707  -1126744.70748  20045243.16548
 -11023726.64806  21394459.19606  -8579970.45748  21394454.31048
  -7335469.64805  22869385.59505  -5710385.31647  22869381.02147
  -8392093.69507  20721621.38407  -6521684.98448  20721616.62248
  -7652865.87106  22351016.20406  -5954776.20347  22351013.58347
   5825432.66806  21975001.97006   4538648.16848  21974999.32548
 08 11  4  1 19 59.9970000  0  9  3  6 13 16 19 21 23 25 31
 -18504173.80908  19238582.32108 -14380848.53949  19238579.25549
 -13275983.06607  19352446.39907 -10326309.06349  19352443.58749
 -12357731.36706  21377807.79806  -9620869.82447  21377804.26747
  -1440009.09007  20047430.17307  -1117804.69148  20047426.60348
 -11140970.55906  21372148.31306  -8671329.32048  21372143.72848
  -7357321.39805  22865226.30605  -5727412.64546  22865223.37646
  -8387723.29307  20722453.07907  -6518279.49248  20722448.16948
  -7763861.10206  22329894.40706  -6041265.95747  22329892.02447
   5886280.57406  21986581.04806   4586062.06648  21986578.41148
 08 11  4  1 20 29.9970000  0  9  3  6 13 16 19 21 23 25 31
 -18571797.68408  19225713.88408 -14433542.46149  19225710.90749
 -13310283.00807  19345919.56307 -10353036.28149  19345916.36849
 -12406246.23006  21368575.41506  -9658673.60247  21368571.98147
  -1428334.68807  20049651.93807  -1108707.76248  20049647.97448
 -11257882.71106  21349900.55606  -8762429.67648  21349896.23948
  -7378676.84405  22861162.36005  -5744053.21946  22861159.40346
  -8382750.55107  20723399.21207  -6514404.62548  20723394.23148
  -7874695.00806  22308803.73506  -6127630.00847  22308800.79847
   5947415.73406  21998215.18106   4633699.82448  21998211.87648
 08 11  4  1 20 59.9970000  0  9  3  6 13 16 19 21 23 25 31
 -18638888.69908  19212946.79008 -14485821.16049  19212943.90749
 -13344072.05107  19339489.57907 -10379365.39849  19339486.72449
 -12454130.81307  21359464.03207  -9695986.27047  21359460.10347
  -1416459.59408  20051911.39908  -1099454.44148  20051907.59948
 -11374461.45706  21327716.46206  -8853270.22748  21327712.15748
  -7399536.14505  22857193.78205  -5760307.18046  22857189.84546
  -8377177.27307  20724459.67307  -6510061.83648  20724455.51348
  -7985365.84406  22287744.04806  -6213867.01647  22287740.62647
   6008836.96906  22009903.19606   4681560.46948  22009900.29848
 08 11  4  1 21 29.9970000  0  9  3  6 13 16 19 21 23 25 31
 -18705450.01608  19200280.57108 -14537687.10949  19200277.53249
 -13377354.41007  19333156.04007 -10405299.70349  19333153.36849
 -12501388.25007  21350471.07907  -9732810.25447  21350467.03247
  -1404387.85507  20054208.70407  -1090047.90248  20054204.99348
 -11490708.60206  21305595.40706  -8943852.40648  21305590.89648
  -7419902.13305  22853318.25905  -5776176.76246  22853313.81346
  -8371008.66407  20725633.51707  -6505255.12948  20725628.63048
  -8095875.27006  22266714.68106  -6299978.21547  22266711.18847
   6070539.16406  22021644.23506   4729640.06648  22021641.18148
 08 11  4  1 21 59.9970000  0  9  3  6 13 16 19 21 23 25 31
 -18771480.20708  19187715.48508 -14589139.20349  19187712.61449
 -13410130.22307  19326918.91507 -10430839.28949  19326916.10349
 -12548017.23007  21341597.82907  -9769144.51647  21341594.07547
  -1392119.69507  20056543.35307  -1080488.29748  20056539.37248
 -11606621.91806  21283537.38406  -9034174.45348  21283533.24348
  -7439774.12904  22849535.58704  -5791661.43846  22849532.67746
  -8364245.79307  20726920.34507  -6499985.35948  20726915.84148
  -8206220.74606  22245716.57106  -6385961.66447  22245713.53247
   6132521.77707  22033439.44607   4777938.16448  22033436.01748
 08 11  4  1 22 29.9970000  0  9  3  6 13 16 19 21 23 25 31
 -18836980.84408  19175250.95408 -14640178.64849  19175248.50549
 -13442401.95707  19320777.98507 -10455986.09049  19320774.93549
 -12594018.81306  21332844.18106  -9804989.90247  21332840.19247
  -1379657.54707  20058914.63407  -1070777.53548  20058911.06348
 -11722201.33206  21261543.33706  -9124236.31348  21261539.11848
  -7459153.76605  22845848.50105  -5806762.46546  22845844.95046
  -8356892.15207  20728320.07107  -6494255.26248  20728315.24748
  -8316402.12506  22224749.97006  -6471817.25047  22224746.37647
   6194781.82007  22045287.36007   4826452.42648  22045284.23148
 08 11  4  1 22 59.9970000  0  9  3  6 13 16 19 21 23 25 31
 -18901956.53908  19162886.52408 -14690809.04749  19162884.32149
 -13474174.77707  19314731.73507 -10480744.12549  19314728.79849
 -12639397.30506  21324208.72806  -9840349.77747  21324204.82947
  -1367006.53507  20061322.00907  -1060919.60948  20061318.28248
 -11837449.69506  21239612.55606  -9214040.21548  21239608.24348
  -7478044.93805  22842253.73505  -5821482.84846  22842250.57146
  -8348954.34407  20729830.27407  -6488069.95748  20729826.07148
  -8426421.99606  22203813.39206  -6557546.99647  22203809.98147
   6257313.55106  22057186.51706   4875178.40248  22057184.27448
 08 11  4  1 23 29.9970000  0  9  3  6 13 16 19 21 23 25 31
 -18966405.89108  19150622.11008 -14741029.32049  19150619.55649
 -13505448.53107  19308780.52407 -10505113.28549  19308777.68849
 -12684151.26207  21315692.31307  -9875222.98847  21315688.41147
  -1354166.40607  20063765.56307  -1050914.32048  20063761.92348
 -11952364.32406  21217744.97806  -9303584.04748  21217740.40348
  -7496446.48805  22838751.57105  -5835821.72746  22838748.12246
  -8340433.25407  20731452.27407  -6481430.16448  20731447.62248
  -8536277.43406  22182908.78206  -6643148.59847  22182905.40347
   6320116.27007  22069137.88407   4924115.55148  22069135.10348
 08 11  4  1 23 59.9970000  0  9  3  6 13 16 19 21 23 25 31
 -19030325.72708  19138458.71208 -14790836.96949  19138455.92749
 -13536221.40207  19302924.95407 -10529092.12949  19302922.00149
 -12728277.56307  21307295.62607  -9909607.12947  21307291.29847
  -1341134.94507  20066245.23507  -1040759.94549  20066241.47449
 -12066940.75807  21195942.84507  -9392864.35248  21195937.17348
  -7514355.66805  22835344.12605  -5849776.93046  22835340.53246
  -8331327.77007  20733185.03207  -6474334.98848  20733180.19248
  -8645963.91806  22162036.66506  -6728618.56347  22162032.80247
   6383191.54706  22081140.56306   4973265.04348  22081138.62648
 08 11  4  1 24 29.9970000  0  9  3  6 13 16 19 21 23 25 31
 -19093713.59408  19126396.27408 -14840230.10549  19126393.70849
 -13566491.84007  19297164.45407 -10552679.48449  19297161.46649
 -12771774.16806  21299018.10306  -9943500.57047  21299013.74747
  -1327910.78107  20068761.67307  -1030455.39848  20068758.06048
 -12181175.30507  21174204.07907  -9481878.27348  21174199.52148
  -7531770.35205  22832029.61005  -5863346.80546  22832026.82146
  -8321637.80907  20735028.68807  -6466784.38748  20735024.14648
  -8755477.38306  22141197.14206  -6813953.69947  22141192.94647
   6446540.17206  22093195.30606   5022627.59448  22093192.41148
 08 11  4  1 24 59.9970000  0  9  3  6 13 16 19 21 23 25 31
 -19156573.77707  19114434.36007 -14889212.06349  19114431.80249
 -13596265.31307  19291499.03207 -10575879.58249  19291495.97849
 -12814644.75807  21290859.89207  -9976906.23447  21290856.27847
  -1314498.96507  20071314.12607  -1020004.64148  20071310.17748
 -12295070.87107  21152530.27407  -9570628.03948  21152525.53648
  -7548694.89106  22828809.98506  -5876534.74646  22828806.01346
  -8311369.71907  20736982.22807  -6458783.28548  20736977.90748
  -8864820.38706  22120389.24306  -6899156.02347  22120386.10347
   6510156.39506  22105300.83706   5072198.61348  22105298.64648
 08 11  4  1 25 29.9970000  0  9  3  6 13 16 19 21 23 25 31
 -19218899.37508  19102574.16508 -14937777.45749  19102571.50549
 -13625535.60507  19285928.75907 -10598687.59849  19285925.81349
 -12856882.07007  21282822.39907 -10009818.43047  21282818.90747
  -1300893.20707  20073902.98507  -1009402.75848  20073899.14648
 -12408618.65207  21130922.89207  -9659106.79348  21130918.36048
  -7565122.23005  22825683.02405  -5889335.28546  22825680.18546
  -8300518.39807  20739047.19607  -6450327.71548  20739042.60348
  -8973983.96906  22099616.08706  -6984218.53947  22099613.07547
   6574045.74206  22117459.05606   5121982.47748  22117456.32948
 08 11  4  1 25 59.9970000  0  9  3  6 13 16 19 21 23 25 31
 -19280693.25807  19090815.35307 -14985928.52349  19090812.50949
 -13654306.85907  19280453.75907 -10621106.75849  19280450.53249
 -12898489.37107  21274904.79807 -10042239.70347  21274901.14647
  -1287097.42607  20076528.72007   -998652.80549  20076524.66149
 -12521820.57007  21109381.43807  -9747316.04748  21109376.77448
  -7581055.50005  22822650.92305  -5901750.84446  22822648.11446
  -8289089.17607  20741222.47007  -6441421.83648  20741217.58348
  -9082969.60206  22078876.90706  -7069142.38747  22078873.33747
   6638203.57406  22129667.68106   5171975.54748  22129664.62248
 08 11  4  1 26 29.9970000  0  9  3  6 13 16 19 21 23 25 31
 -19341954.09807  19079157.54807 -15033664.23449  19079154.98149
 -13682579.05507  19275073.60307 -10643137.03149  19275071.13849
 -12939465.14507  21267106.77407 -10074168.88347  21267103.79047
  -1273111.19107  20079189.96207   -987754.44948  20079185.98148
 -12634673.68407  21087906.68807  -9835253.51648  21087901.31748
  -7596493.54306  22819713.18106  -5913780.52046  22819710.69246
  -8277082.92207  20743507.18807  -6432066.33248  20743502.55648
  -9191774.20306  22058172.25906  -7153925.17247  22058168.37247
   6702629.45706  22141927.84506   5222177.50448  22141924.88448
 08 11  4  1 26 59.9970000  0  9  3  6 13 16 19 21 23 25 31
 -19402683.67207  19067601.15707 -15080985.96949  19067598.31349
 -13710354.60507  19269788.25907 -10664780.30549  19269785.36049
 -12979811.06607  21259430.00107 -10105607.27047  21259426.33747
  -1258936.91407  20081887.44607   -976709.57448  20081883.54848
 -12747178.28507  21066497.14907  -9922919.43848  21066492.46648
  -7611438.10906  22816869.45406  -5925425.64146  22816865.94646
  -8264503.83607  20745900.84507  -6422264.44948  20745896.26748
  -9300397.72706  22037501.50906  -7238566.87947  22037498.12247
   6767320.03906  22154238.05606   5272585.70748  22154235.57548
 08 11  4  1 27 29.9970000  0  9  3  6 13 16 19 21 23 25 31
 -19462881.03508  19056145.93108 -15127892.99249  19056143.47849
 -13737633.72307  19264597.25107 -10686036.75049  19264594.51749
 -13019525.98407  21251872.32107 -10136553.96547  21251868.65347
  -1244574.34007  20084620.38407   -965517.96548  20084616.66148
 -12859331.85207  21045154.70407 -10010311.79348  21045150.25948
  -7625888.39806  22814120.36006  -5936685.58646  22814115.67346
  -8251352.78107  20748403.75907  -6412016.89548  20748398.49348
  -9408837.21906  22016866.39906  -7323065.16447  22016863.09147
   6832275.09006  22166598.45406   5323199.96548  22166596.32548
 08 11  4  1 27 59.9970000  0  9  3  6 13 16 19 21 23 25 31
 -19522543.27008  19044792.48508 -15174383.03149  19044789.98949
 -13764414.57807  19259500.82107 -10706904.94949  19259498.06349
 -13058607.32007  21244435.18107 -10167006.96547  21244431.58747
  -1230021.64507  20087389.48507   -954178.21548  20087385.31748
 -12971130.16806  21023880.23506 -10097427.35248  21023875.21248
  -7639841.32406  22811464.68806  -5947557.96546  22811461.09546
  -8237629.15607  20751015.07907  -6401323.17248  20751010.43548
  -9517088.11706  21996266.81306  -7407416.49647  21996263.85647
   6897495.85206  22179009.83706   5374021.28948  22179006.95048
 08 11  4  1 28 29.9970000  0  9  3  6 13 16 19 21 23 25 31
 -19581674.58608  19033540.20408 -15220459.37149  19033537.42349
 -13790702.13707  19254498.58707 -10727388.74649  19254495.61049
 -13097058.82407  21237118.08707 -10196969.16047  21237114.73547
  -1215283.16007  20090194.24307   -942693.69548  20090189.79048
 -13082575.59406  21002672.86806 -10184267.92648  21002668.56748
  -7653301.15206  22808903.85306  -5958046.15246  22808900.18146
  -8223338.98407  20753734.74307  -6390187.99648  20753729.16948
  -9625152.46506  21975702.52406  -7491622.46547  21975699.78247
   6962976.81306  22191470.52406   5425045.37548  22191468.13048
 08 11  4  1 28 59.9970000  0  9  3  6 13 16 19 21 23 25 31
 -19640271.55907  19022389.67307 -15266119.34049  19022386.66949
 -13816494.59407  19249590.27407 -10747486.75449  19249587.63849
 -13134877.64807  21229921.21207 -10226438.37547  21229918.23147
  -1200356.79307  20093034.70407   -931062.76248  20093030.11048
 -13193664.23807  20981533.45407 -10270830.48848  20981528.99348
  -7666265.55506  22806436.32906  -5968148.28947  22806432.82147
  -8208481.65207  20756561.56307  -6378610.85548  20756557.14648
  -9733025.62506  21955174.82906  -7575679.45747  21955172.02447
   7028719.26206  22203980.32906   5476273.23048  22203978.22848
 08 11  4  1 29 29.9970000  0  9  3  6 13 16 19 21 23 25 31
 -19698333.66407  19011340.72007 -15311362.52349  19011338.31349
 -13841791.95307  19244776.25107 -10767198.98049  19244774.16549
 -13172062.77707  21222845.43807 -10255413.80547  21222841.96647
  -1185242.25407  20095910.93807   -919285.21548  20095906.78648
 -13304393.00407  20960462.51707 -10357112.62948  20960458.06748
  -7678733.14806  22804064.86006  -5977863.28946  22804059.12646
  -8193058.54307  20759496.44607  -6366592.86748  20759491.63448
  -9840704.63706  21934684.70406  -7659585.16847  21934681.56347
   7094722.69506  22216540.79006   5527704.40248  22216539.02848
 08 11  4  1 29 59.9970000  0  9  3  6 13 16 19 21 23 25 31
 -19755860.17607  19000394.01707 -15356188.35949  19000390.88049
 -13866594.41807  19240056.56307 -10786525.55949  19240053.98149
 -13208613.51607  21215890.03207 -10283894.89147  21215886.55647
  -1169939.44907  20098823.06307   -907360.95348  20098819.34148
 -13414760.05507  20939460.03207 -10443112.91448  20939456.10348
  -7690703.57806  22801786.50106  -5987190.87147  22801782.04847
  -8177071.03107  20762538.98507  -6354135.06648  20762534.10648
  -9948186.77006  21914231.28206  -7743337.44947  21914228.21247
   7160986.22306  22229150.54006   5579338.28548  22229147.33348
 08 11  4  1 30 29.9970000  0  9  3  6 13 16 19 21 23 25 31
 -19812853.02007  18989548.13407 -15400598.35949  18989545.72049
 -13890905.42607  19235430.45407 -10805469.19549  19235427.86049
 -13244531.84407  21209055.08707 -10311883.21547  21209051.62647
  -1154450.78107  20101770.27407   -895291.87548  20101766.59548
 -13524765.58607  20918526.97007 -10528831.48448  20918522.75948
  -7702178.80106  22799602.84506  -5996132.62147  22799599.04447
  -8160523.22307  20765688.26707  -6341240.69148  20765683.17748
 -10055472.15206  21893814.93806  -7826936.42247  21893812.21247
   7227506.66406  22241808.61006   5631172.38748  22241806.09548
 08 11  4  1 30 59.9970000  0  9  3  6 13 16 19 21 23 25 31
 -19869310.85208  18978804.74308 -15444591.45349  18978801.96249
 -13914723.88307  19230897.93807 -10824029.02349  19230895.13049
 -13279816.31607  21202340.33707 -10339377.60547  21202336.94647
  -1138775.80907  20104753.17307   -883077.62148  20104749.60648
 -13634406.98407  20897662.88407 -10614266.31648  20897658.56348
  -7713157.55106  22797513.50906  -6004687.47347  22797509.47447
  -8143416.22707  20768943.16507  -6327910.57048  20768937.84948
 -10162557.42206  21873437.75906  -7910379.47347  21873434.80247
   7294283.70706  22254515.54006   5683206.39547  22254514.52847
 08 11  4  1 31 29.9970000  0  9  3  6 13 16 19 21 23 25 31
 -19925231.40607  18968163.68107 -15488165.89849  18968161.02849
 -13938049.53507  19226459.25907 -10842204.84849  19226456.31349
 -13314465.12907  21195747.00907 -10366376.69547  21195743.52447
  -1122913.02007  20107771.98507   -870717.02348  20107768.02448
 -13743680.51607  20876868.68807 -10699414.52048  20876864.32548
  -7723637.72306  22795519.13406  -6012853.83647  22795515.18147
  -8125750.09807  20772305.50107  -6314144.77748  20772299.91548
 -10269438.72706  21853098.62606  -7993663.58647  21853096.05247
   7361318.10506  22267272.07106   5735440.91448  22267270.47048
 08 11  4  1 31 59.9970000  0  9  3  6 13 16 19 21 23 25 31
 -19980614.81607  18957624.53207 -15531321.78149  18957621.57549
 -13960883.00807  19222114.22007 -10859997.14549  19222111.49749
 -13348478.00007  21189274.67307 -10392880.24647  21189271.63447
  -1106862.56607  20110825.72807   -858210.18848  20110822.59948
 -13852584.41806  20856145.28206 -10784274.68048  20856140.48148
  -7733619.58206  22793619.30606  -6020631.90247  22793615.33747
  -8107526.72707  20775773.14207  -6299944.77048  20775767.56748
 -10376113.60906  21832799.32906  -8076786.84847  21832796.62647
   7428608.07806  22280076.04806   5787874.60247  22280074.23147
 08 11  4  1 32 29.9970000  0  9  3  6 13 16 19 21 23 25 31
 -20035459.24207  18947187.63407 -15574057.69149  18947185.13049
 -13983222.98007  19217863.02407 -10877404.91449  19217860.31049
 -13381853.10907  21182923.37607 -10418886.80547  21182920.63047
  -1090623.18007  20113916.21207   -845556.12948  20113912.48948
 -13961115.68407  20835492.38407 -10868844.46548  20835487.36048
  -7743101.37906  22791815.19606  -6028020.30947  22791811.52147
  -8088746.69907  20779347.32107  -6285311.00048  20779341.95448
 -10482578.34406  21812540.14206  -8159746.36747  21812536.72047
   7496154.47706  22292930.54006   5840508.11747  22292928.12247
 08 11  4  1 32 59.9970000  0  9  3  6 13 16 19 21 23 25 31
 -20089765.47707  18936853.90707 -15616374.23049  18936850.97049
 -14005071.91807  19213705.29007 -10894430.05949  19213702.47049
 -13414591.78506  21176693.68106 -10444397.46147  21176690.72847
  -1074196.40607  20117042.35307   -832756.05948  20117038.47848
 -14069273.43007  20814910.57907 -10953123.20348  20814905.99748
  -7752084.11706  22790105.97006  -6035019.83247  22790101.41947
  -8069413.00407  20783026.13407  -6270245.79748  20783020.72048
 -10588831.77706  21792320.01706  -8242541.22747  21792317.31347
   7563954.83206  22305833.19606   5893339.52047  22305830.59547
 08 11  4  1 33 29.9960000  0  9  3  6 13 16 19 21 23 25 31
 -20143530.78907  18926622.29307 -15658269.25849  18926619.61349
 -14026429.21107  19209641.27007 -10911072.08649  19209638.30949
 -13446692.09807  21170585.59807 -10469410.70347  21170581.91847
  -1057582.62507  20120203.65207   -819810.25448  20120199.52748
 -14177051.82006  20794400.98806 -11037106.34048  20794396.22748
  -7760566.98406  22788491.36306  -6041629.86347  22788487.32847
  -8049528.26607  20786809.85607  -6254751.21148  20786804.35648
 -10694867.68806  21772142.30906  -8325166.60947  21772139.15647
   7632005.94106  22318782.53506   5946366.32847  22318780.05147
 08 11  4  1 33 59.9960000  0  9  3  6 13 16 19 21 23 25 31
 -20196760.77308  18916493.23808 -15699747.15649  18916490.39849
 -14047298.62507  19205669.92607 -10927333.96549  19205666.64549
 -13478157.21107  21164598.17607 -10493928.98047  21164594.25847
  -1040781.97707  20123400.62107   -806718.85248  20123396.69148
 -14284457.62107  20773961.93407 -11120799.16048  20773957.55548
  -7768551.89106  22786972.46506  -6047851.87547  22786968.20347
  -8029094.01207  20790698.10607  -6238828.42648  20790692.69548
 -10800691.93006  21752004.69906  -8407627.03947  21752001.79747
   7700310.13306  22331780.55106   5999590.27747  22331778.64847
 08 11  4  1 34 29.9960000  0  9  3  6 13 16 19 21 23 25 31
 -20249452.27708  18906466.40208 -15740805.46149  18906463.49649
 -14067679.44907  19201791.39507 -10943215.12149  19201788.88349
 -13508985.33207  21158731.52707 -10517950.89847  21158727.77047
  -1023794.69107  20126633.08207   -793482.00448  20126628.99248
 -14391485.05107  20753595.90207 -11204197.14148  20753590.93848
  -7776037.69506  22785547.28506  -6053684.97347  22785543.30547
  -8008112.27307  20794691.21507  -6222479.04348  20794685.61748
 -10906298.19906  21731908.43406  -8489917.60947  21731905.72347
   7768864.46106  22344826.34006   6053009.19147  22344822.49647
 08 11  4  1 34 59.9960000  0  9  3  6 13 16 19 21 23 25 31
 -20301605.37508  18896542.10608 -15781444.22349  18896539.34849
 -14087573.05507  19198005.81607 -10958716.62149  19198003.23849
 -13539177.37907  21152986.05907 -10541477.16047  21152982.42647
  -1006621.84007  20129901.10607   -780100.56348  20129897.45348
 -14498132.96106  20733300.69906 -11287299.38748  20733296.97748
  -7783024.94106  22784217.16806  -6059129.55547  22784213.13747
  -7986586.30907  20798787.01207  -6205705.56348  20798782.19948
 -11011684.69506  21711854.18406  -8572036.94547  21711851.15647
   7837667.06306  22357918.86306   6106621.59847  22357915.85247
 08 11  4  1 35 29.9960000  0  9  3  6 13 16 19 21 23 25 31
 -20353219.69108  18886720.30908 -15821663.16049  18886717.57849
 -14106979.37907  19194313.06607 -10973838.42649  19194310.48849
 -13568732.10907  21147362.05107 -10564506.83247  21147358.26247
   -989262.91807  20133204.58207   -766574.13348  20133200.73848
 -14604398.26207  20713079.28507 -11370103.48048  20713074.98848
  -7789512.70306  22782983.57406  -6064184.96147  22782979.17647
  -7964516.81607  20802986.97307  -6188508.58248  20802981.84848
 -11116848.09806  21691842.38706  -8653982.44147  21691838.96947
   7906717.61706  22371058.68406   6160427.13747  22371056.98447
 08 11  4  1 35 59.9960000  0  9  3  6 13 16 19 21 23 25 31
 -20404295.72707  18877000.60607 -15861462.65649  18876997.75049
 -14125900.54707  19190712.32407 -10988582.17649  19190709.62149
 -13597650.92607  21141859.35607 -10587040.98048  21141856.17648
   -971719.20707  20136542.88707   -752903.71548  20136539.01248
 -14710280.85507  20692931.18407 -11452609.37548  20692926.19548
  -7795502.28906  22781843.05106  -6068852.16047  22781839.10647
  -7941907.00007  20807289.89507  -6170890.55948  20807284.16048
 -11221787.52306  21671872.59006  -8735753.39847  21671869.89547
   7976013.66006  22384246.11306   6214423.97747  22384243.98847
 08 11  4  1 36 29.9960000  0  9  3  6 13 16 19 21 23 25 31
 -20454833.18407  18867383.70707 -15900842.48849  18867380.85649
 -14144337.24207  19187203.81607 -11002948.42649  19187201.19549
 -13625933.55507  21136476.80107 -10609079.40647  21136473.24647
   -953990.42207  20139916.66007   -739089.09448  20139912.99248
 -14815778.80507  20672855.49607 -11534815.54348  20672850.48848
  -7800993.39806  22780798.34006  -6073130.96547  22780794.80947
  -7918758.97707  20811694.50407  -6152853.14548  20811688.67648
 -11326500.32406  21651946.71506  -8817347.77347  21651943.34047
   8045554.16005  22397477.61305   6268611.36347  22397475.48847
 08 11  4  1 36 59.9960000  0  9  3  6 13 16 19 21 23 25 31
 -20504831.83208  18857869.33208 -15939802.46949  18857866.16849
 -14162289.75807  19183787.76207 -11016937.39149  19183784.85949
 -13653579.15607  21131216.12107 -10630621.44147  21131212.78147
   -936076.27707  20143325.44107   -725130.02748  20143321.99248
 -14920889.66407  20652853.79307 -11616720.08248  20652849.10648
  -7805985.55506  22779848.48806  -6077020.94147  22779845.03947
  -7895074.10207  20816201.98807  -6134397.43448  20816196.09848
 -11430983.45706  21632064.51206  -8898763.19947  21632060.95347
   8115338.39106  22410758.18406   6322988.60947  22410756.14847
 08 11  4  1 37 29.9960000  0  9  3  6 13 16 19 21 23 25 31
 -20554292.08608  18848457.16008 -15978342.91449  18848454.36749
 -14179759.09007  19180463.63707 -11030549.85249  19180461.00049
 -13680588.50007  21126076.44907 -10651667.68847  21126073.06647
   -917977.43007  20146769.73807   -711027.03548  20146765.64148
 -15025611.67607  20632925.33207 -11698321.62148  20632920.89548
  -7810478.75006  22778993.51206  -6080522.14547  22778989.99247
  -7870855.44107  20820810.17607  -6115525.75848  20820805.17248
 -11535235.06606  21612225.96506  -8979998.20747  21612222.50447
   8185364.81606  22424084.29306   6377554.62947  22424081.91447
 08 11  4  1 37 59.9960000  0 10  3  6  7 13 16 19 21 23 25 31
 -20603214.23007  18839147.77007 -16016464.05549  18839144.94549
 -14196746.93407  19177230.66007 -11043787.12949  19177227.89849
   -209096.67616  23057244.74606   -153770.46557  23057241.84447
 -13706962.04307  21121057.72307 -10672218.50047  21121054.48447
   -899694.52307  20150248.73107   -696780.60948  20150244.90248
 -15129944.34407  20613071.55907 -11779619.77348  20613067.28948
  -7814473.92606  22778233.75406  -6083635.25847  22778229.72747
  -7846105.56307  20825519.58207  -6096240.15248  20825514.37548
 -11639253.18006  21592430.98806  -9061051.27047  21592428.77347
   8255631.76205  22437453.99605   6432308.03147  22437452.31347
 08 11  4  1 38 29.9960000  0 10  3  6  7 13 16 19 21 23 25 31
 -20651600.12907  18829939.94907 -16054167.34449  18829937.21149
 -14213256.41407  19174089.00407 -11056651.65249  19174086.41049
   -334946.71506  23033296.69106   -251835.35547  23033293.18447
 -13732702.31307  21116159.33207 -10692275.85547  21116156.03147
   -881230.06307  20153763.03507   -682392.71548  20153758.74648
 -15233887.96507  20593291.09007 -11860614.78548  20593286.89548
  -7817973.41006  22777567.33206  -6086362.14547  22777564.62947
  -7820828.59807  20830329.69107  -6076543.83248  20830324.32848
 -11743037.84006  21572682.48806  -9141922.41847  21572678.96947
   8326135.65606  22450871.14506   6487246.05947  22450869.66847
 08 11  4  1 38 59.9960000  0 10  3  6  7 13 16 19 21 23 25 31
 -20699452.34007  18820834.02007 -16091454.77349  18820830.85649
 -14229290.90607  19171037.67607 -11069146.05549  19171035.16049
   -460714.00806  23009362.62906   -349835.81347  23009360.64147
 -13757811.63707  21111381.02007 -10711841.57047  21111377.88347
   -862586.69107  20157310.08207   -667865.41848  20157306.09848
 -15337443.75007  20573585.95707 -11941307.57448  20573581.20748
  -7820979.79305  22776995.54305  -6088704.81647  22776992.76247
  -7795029.52707  20835238.64507  -6056440.65648  20835233.89848
 -11846589.05906  21552976.55106  -9222611.66447  21552973.93047
   8396872.46506  22464332.99606   6542365.58247  22464330.03947
 08 11  4  1 39 29.9960000  0 10  3  6  7 13 16 19 21 23 25 31
 -20746771.28107  18811829.70707 -16128326.66849  18811826.68449
 -14244851.49607  19168076.64507 -11081271.18449  19168074.00849
   -586396.20306  22985446.91006   -447769.91047  22985443.88747
 -13782290.74607  21106723.38707 -10730916.19947  21106720.02347
   -843764.84407  20160892.01207   -653199.05948  20160888.02048
 -15440610.03107  20553954.02007 -12021696.87148  20553949.39848
  -7823493.73006  22776517.14506  -6090663.72747  22776513.71147
  -7768710.74207  20840247.41007  -6035932.54748  20840242.59848
 -11949904.78506  21533316.68406  -9303117.41047  21533313.86747
   8467840.83606  22477837.04306   6597665.62147  22477833.73447
 08 11  4  1 39 59.9960000  0 10  3  6  7 13 16 19 21 23 25 31
 -20793556.07407  18802926.69107 -16164782.34849  18802923.91849
 -14259938.60207  19165205.62907 -11093027.35249  19165203.10249
   -711990.34406  22961547.15206   -545635.45347  22961544.50047
 -13806138.96907  21102185.05907 -10749499.24647  21102182.19547
   -824763.96107  20164507.64507   -638393.19548  20164503.54748
 -15543384.42207  20534396.44107 -12101780.78548  20534391.69148
  -7825514.50806  22776132.53506  -6092238.35547  22776129.53947
  -7741873.60207  20845354.82407  -6015020.50448  20845349.35248
 -12052981.82406  21513701.27706  -9383437.17647  21513698.66047
   8539040.21906  22491385.64506   6653145.58247  22491383.68847
 08 11  4  1 40 29.9960000  0 10  3  6  7 13 16 19 21 23 25 31
 -20839809.63307  18794125.05907 -16200824.08249  18794122.17249
 -14274555.39507  19162424.13707 -11104417.05549  19162421.64149
   -837496.75406  22937663.26206   -643432.59047  22937660.49247
 -13829359.04707  21097766.47307 -10767592.82047  21097763.27047
   -805586.77007  20168156.47307   -623449.93448  20168153.20348
 -15645767.89507  20514913.59807 -12181560.10948  20514908.94548
  -7827044.75806  22775841.50406  -6093430.76647  22775838.01247
  -7714522.80107  20850558.98107  -5993708.21948  20850553.85948
 -12155820.37906  21494131.83206  -9463571.08647  21494128.83247
   8610466.76606  22504979.15206   6708802.55548  22504976.08248
 08 11  4  1 40 59.9960000  0 10  3  6  7 13 16 19 21 23 25 31
 -20885529.37507  18785424.91007 -16236449.85249  18785422.03549
 -14288700.70307  19159732.34007 -11115439.36349  19159730.07049
   -962910.53106  22913798.55106   -741157.59447  22913795.07047
 -13851948.63307  21093467.79307 -10785195.09447  21093464.66847
   -786230.87107  20171840.19907   -608367.42648  20171836.66448
 -15747756.19907  20495505.50407 -12261031.47748  20495501.14148
  -7828081.94106  22775643.98106  -6094238.96947  22775641.26647
  -7686658.53507  20855861.37907  -5971995.82048  20855856.23448
 -12258415.52706  21474609.45706  -9543515.33647  21474606.28547
   8682121.97306  22518613.53506   6764637.73047  22518611.98447
 08 11  4  1 41 29.9960000  0 10  3  6  7 13 16 19 21 23 25 31
 -20930717.68808  18776825.62908 -16271661.50849  18776822.96549
 -14302378.03107  19157129.91807 -11126097.02049  19157126.72749
  -1088232.53505  22889949.96505   -838811.04346  22889946.52746
 -13873910.94107  21089287.98107 -10802308.57847  21089285.15647
   -766699.17207  20175556.94907   -593147.93048  20175553.45748
 -15849350.33607  20476173.36307 -12340195.71948  20476168.32848
  -7828628.73006  22775540.35606  -6094665.02747  22775537.30547
  -7658285.50807  20861260.60607  -5949886.98848  20861256.02348
 -12360767.69506  21455131.78506  -9623270.25848  21455129.27348
   8754001.46506  22532292.14506   6820647.59447  22532290.22347
 08 11  4  1 41 59.9960000  0 10  3  6  7 13 16 19 21 23 25 31
 -20975374.41407  18768327.97307 -16306458.94949  18768325.12549
 -14315587.95307  19154615.73807 -11136390.45349  19154613.03949
  -1213459.53905  22866120.09805   -936390.48847  22866116.97347
 -13895245.71507  21085228.64507 -10818933.09847  21085225.48147
   -746991.15607  20179307.25407   -577791.04748  20179304.14848
 -15950548.57407  20456915.24607 -12419051.48448  20456910.74248
  -7828685.65206  22775529.16006  -6094709.39547  22775526.04347
  -7629405.83207  20866756.44107  -5927383.33248  20866751.57048
 -12462874.08207  21435702.05107  -9702833.66048  21435698.94948
   8826104.34806  22546012.72306   6876831.66047  22546008.68447
 08 11  4  1 42 29.9960000  0 10  3  6  7 13 16 19 21 23 25 31
 -21019497.17207  18759931.75407 -16340840.30949  18759928.63349
 -14328328.74207  19152191.20707 -11146318.33249  19152188.34449
  -1338586.67605  22842309.27005  -1033892.12546  22842305.92246
 -13915950.67206  21081288.18406 -10835066.83247  21081285.49247
   -727104.36707  20183091.68407   -562294.86348  20183087.96548
 -16051346.53507  20437733.89507 -12497595.32848  20437730.12948
  -7828249.40606  22775611.48806  -6094369.47747  22775608.39147
  -7600019.03907  20872348.14507  -5904484.55948  20872343.98848
 -12564729.46906  21416319.52706  -9782201.48048  21416316.11748
   8898432.15206  22559776.84806   6933190.96547  22559774.54747
 08 11  4  1 42 59.9960000  0 10  3  6  7 13 16 19 21 23 25 31
 -21063090.88707  18751636.12107 -16374809.43049  18751633.32049
 -14340606.25007  19149854.74607 -11155885.21149  19149852.63749
  -1463616.19506  22818517.88706  -1131317.68047  22818513.21547
 -13936030.88707  21077467.12907 -10850713.77047  21077464.23447
   -707043.77707  20186909.20707   -546663.24648  20186905.50048
 -16151747.77007  20418628.62907 -12575830.05148  20418624.11348
  -7827325.53106  22775787.41806  -6093649.58647  22775784.94547
  -7570132.27707  20878035.19907  -5881196.18848  20878030.69548
 -12666336.20706  21396984.34006  -9861375.55548  21396980.55148
   8970978.73406  22573581.89506   6989720.66847  22573580.08647
 08 11  4  1 43 29.9960000  0 10  3  6  7 13 16 19 21 23 25 31
 -21106154.34407  18743441.41007 -16408365.35949  18743438.33649
 -14352420.47707  19147606.77007 -11165091.10549  19147604.35949
  -1588545.16806  22794744.14506  -1228664.84846  22794740.10646
 -13955485.89806  21073765.02706 -10865873.52047  21073762.10947
   -686808.62507  20190760.01207   -530895.61348  20190756.42648
 -16251749.10507  20399598.17607 -12653753.16448  20399594.30148
  -7825913.32006  22776056.61306  -6092549.15647  22776052.94547
  -7539747.17207  20883817.45707  -5857519.49248  20883812.37948
 -12767691.07006  21377697.20706  -9940353.37148  21377693.33648
   9043743.83205  22587427.40205   7046420.64147  22587426.12947
 08 11  4  1 43 59.9960000  0 10  3  6  7 13 16 19 21 23 25 31
 -21148685.02707  18735347.82407 -16441506.13349  18735344.91049
 -14363769.81607  19145447.04307 -11173934.74649  19145444.69549
  -1713368.63306  22770990.93406  -1325929.87547  22770986.57447
 -13974313.11307  21070182.34007 -10880544.08647  21070179.51247
   -666396.43407  20194643.42607   -514990.02748  20194640.10648
 -16351346.53907  20380645.27007 -12731361.54348  20380641.60248
  -7824010.27706  22776418.65206  -6091066.24246  22776414.85946
  -7508862.93407  20889694.84007  -5833453.86348  20889690.43448
 -12868788.87506  21358458.54306 -10019130.86748  21358455.14548
   9116728.87506  22601316.62106   7103292.06647  22601313.62547
 08 11  4  1 44 29.9960000  0 10  3  6  7 13 16 19 21 23 25 31
 -21190687.76607  18727355.08207 -16474235.53149  18727351.98849
 -14374659.45307  19143375.20707 -11182420.16049  19143372.34449
  -1838087.97306  22747257.25406  -1423113.77047  22747253.98447
 -13992517.55907  21066718.27007 -10894729.36747  21066714.78547
   -645811.20307  20198561.11307   -498949.60248  20198557.58648
 -16450542.86707  20361769.93407 -12808657.35248  20361765.14148
  -7821620.24206  22776872.33206  -6089203.89546  22776869.14846
  -7477486.39507  20895665.07407  -5809004.59448  20895660.50448
 -12969631.30906  21339269.15206 -10097709.38347  21339265.13747
   9189927.90206  22615246.67606   7160330.23047  22615244.61347
 08 11  4  1 44 59.9960000  0 10  3  6  7 13 16 19 21 23 25 31
 -21232160.06607  18719463.41007 -16506551.59849  18719460.37949
 -14385088.06607  19141390.36307 -11190546.34049  19141387.15249
  -1962698.93006  22723544.76206  -1520213.16847  22723541.27347
 -14010096.96907  21063373.07407 -10908427.61347  21063369.66047
   -625050.50407  20202511.64507   -482772.44148  20202508.34848
 -16549333.97707  20342970.26207 -12885637.41448  20342966.18048
  -7818741.98006  22777420.60606  -6086961.07046  22777416.91446
  -7445617.48007  20901730.16007  -5784171.71548  20901725.51648
 -13070213.46106  21320128.62106 -10176085.08247  21320125.62547
   9263342.49606  22629216.79306   7217536.34047  22629215.17647
 08 11  4  1 45 29.9960000  0 10  3  6  7 13 16 19 21 23 25 31
 -21273100.98407  18711672.60607 -16538453.59449  18711669.67649
 -14395055.69507  19139493.48107 -11198313.31649  19139490.75849
  -2087197.81306  22699853.33206  -1617225.27047  22699849.43447
 -14027050.92207  21060146.87907 -10921638.49647  21060143.42647
   -604113.71507  20206495.92607   -466458.06648  20206492.80548
 -16647717.57807  20324248.66807 -12962299.94948  20324243.93448
  -7815374.69506  22778062.62906  -6084337.19547  22778057.53547
  -7413257.76207  20907887.92607  -5758956.36748  20907883.63748
 -13170532.25406  21301038.44906 -10254255.55947  21301035.35247
   9336971.98806  22643227.16806   7274909.87147  22643225.83247
 08 11  4  1 45 59.9960000  0 10  3  6  7 13 16 19 21 23 25 31
 -21313510.58207  18703982.69907 -16569941.57849  18703979.75449
 -14404563.25407  19137684.59807 -11205721.80549  19137681.94549
  -2211582.06606  22676184.69906  -1714148.06347  22676180.53547
 -14043379.78107  21057039.54307 -10934362.30147  21057036.40247
   -583000.72307  20210513.84007   -450006.39848  20210510.18848
 -16745691.85907  20305604.68407 -13038643.51248  20305599.93048
  -7811518.53106  22778796.77706  -6081332.39847  22778790.98147
  -7380409.52307  20914138.62907  -5733360.34848  20914134.61348
 -13270584.87506  21281999.04306 -10332218.62547  21281996.30147
   9410815.41406  22657279.90206   7332450.10247  22657278.20347
 08 11  4  1 46 29.9960000  0 10  3  6  7 13 16 19 21 23 25 31
 -21353389.84407  18696393.78507 -16601016.32049  18696391.07049
 -14413612.54307  19135962.36307 -11212773.18449  19135959.55549
  -2335849.98006  22652537.33206  -1810980.19947  22652533.28147
 -14059084.85207  21054051.09007 -10946600.01647  21054047.97347
   -561712.36707  20214565.05107   -433418.07848  20214561.21548
 -16843256.16007  20287038.78507 -13114667.62948  20287033.85948
  -7807173.36306  22779622.67606  -6077946.53547  22779618.27747
  -7347075.89807  20920482.33207  -5707386.10948  20920477.27048
 -13370369.62107  21263010.80907 -10409972.96948  21263007.69548
   9484870.48006  22671373.09006   7390155.37147  22671369.08247
 08 11  4  1 46 59.9960000  0 10  3  6  7 13 16 19 21 23 25 31
 -21392740.82807  18688905.61307 -16631679.41849  18688902.69949
 -14422206.40607  19134327.30107 -11219469.69149  19134324.21549
  -2460000.90206  22628911.16806  -1907721.11747  22628907.91447
 -14074168.32807  21051180.81607 -10958353.38347  21051177.68047
   -540250.37507  20218648.67607   -416694.45748  20218645.00448
 -16940410.43007  20268551.32407 -13190372.22348  20268546.37148
  -7802343.10206  22780542.09806  -6074182.69147  22780538.75847
  -7313261.03107  20926916.70707  -5681036.87148  20926912.16848
 -13469885.84407  21244073.64507 -10487518.06648  21244070.45348
   9559134.20306  22685504.05906   7448023.17647  22685501.87547
 08 11  4  1 47 29.9960000  0 10  3  6  7 13 16 19 21 23 25 31
 -21431559.17208  18681518.87908 -16661927.46549  18681515.95349
 -14430341.67207  19132778.84007 -11225808.85549  19132776.09049
  -2584028.12506  22605309.43406  -2004365.70347  22605306.28947
 -14088626.66007  21048429.04307 -10969619.60947  21048426.43047
   -518610.46907  20222767.35607   -399832.21148  20222763.61348
 -17037149.08607  20250142.09807 -13265752.96948  20250137.11748
  -7797023.22306  22781554.20706  -6070037.36347  22781550.67247
  -7278963.07007  20933442.95707  -5654311.18848  20933438.81648
 -13569126.76206  21225188.16006 -10564848.65248  21225185.62148
   9633609.92206  22699675.91806   7506056.07847  22699675.02047
 08 11  4  1 47 59.9960000  0 10  3  6  7 13 16 19 21 23 25 31
 -21469849.14507  18674232.28507 -16691763.79749  18674229.24249
 -14438023.00007  19131317.18407 -11231794.29349  19131314.30549
  -2707933.32005  22581731.05905  -2100915.18047  22581727.99647
 -14102463.96906  21045796.23106 -10980401.93847  21045792.38747
   -496796.34007  20226918.01207   -382834.19948  20226914.37148
 -17133474.31307  20231812.30907 -13340811.56348  20231807.24248
  -7791217.80506  22782658.98806  -6065513.68447  22782655.94947
  -7244188.29707  20940061.07407  -5627213.97348  20940056.24248
 -13668093.57406  21206355.95706 -10641965.63747  21206352.71547
   9708291.94506  22713887.97306   7564249.78947  22713886.18447
 08 11  4  1 48 29.9960000  0 10  3  6  7 13 16 19 21 23 25 31
 -21507609.68807  18667046.79307 -16721187.60249  18667043.95749
 -14445250.39807  19129941.73107 -11237426.03149  19129939.23849
  -2831712.36306  22558177.07406  -2197366.33647  22558173.57047
 -14115679.66407  21043281.11307 -10990699.89547  21043277.71547
   -474807.02307  20231102.21507   -365699.67648  20231098.62948
 -17229383.39107  20213561.07407 -13415545.89848  20213556.03548
  -7784925.91406  22783856.22306  -6060610.93047  22783853.36747
  -7208937.91407  20946768.69907  -5599746.16448  20946764.25448
 -13766782.67606  21187575.73106 -10718866.22748  21187572.76648
   9783180.35906  22728139.07406   7622604.34047  22728136.16447
 08 11  4  1 48 59.9960000  0 10  3  6  7 13 16 19 21 23 25 31
 -21544843.05507  18659961.61307 -16750200.60949  18659958.97349
 -14452026.80507  19128652.24607 -11242706.34048  19128649.86748
  -2955364.41806  22534646.92606  -2293718.55547  22534643.34447
 -14128276.31607  21040884.35607 -11000515.48447  21040881.32447
   -452644.24607  20235319.74607   -348429.98848  20235316.47748
 -17324876.82807  20195389.30907 -13489956.34848  20195384.31348
  -7778149.77706  22785145.34006  -6055330.86747  22785143.78147
  -7173216.43407  20953566.81607  -5571911.27348  20953561.66448
 -13865193.39806  21168849.12106 -10795549.90648  21168845.58648
   9858271.94106  22742428.18406   7681117.22747  22742426.09847
 08 11  4  1 49 29.9960000  0 10  3  6  7 13 16 19 21 23 25 31
 -21581549.63307  18652976.40207 -16778803.14149  18652973.41049
 -14458353.39807  19127448.47307 -11247636.15249  19127445.80949
  -3078887.60205  22511141.17605  -2389970.35547  22511137.99247
 -14140254.73806  21038604.84006 -11009849.31647  21038602.03547
   -430308.18007  20239569.97307   -331025.27748  20239566.50848
 -17419953.43807  20177296.97307 -13564041.99648  20177291.69948
  -7770889.80106  22786526.76206  -6049673.77047  22786524.57447
  -7137026.35907  20960453.45707  -5543711.21148  20960448.89848
 -13963323.45706  21150175.02006 -10872014.87948  21150172.51648
   9933565.33206  22756756.05106   7739787.32847  22756754.13747
 08 11  4  1 49 59.9960000  0 10  3  6  7 13 16 19 21 23 25 31
 -21617728.94908  18646091.80108 -16806994.80549  18646088.78549
 -14464230.82807  19126330.19107 -11252215.96549  19126327.14549
  -3202278.59005  22487659.92605  -2486119.13347  22487657.05547
 -14151614.77306  21036442.80106 -11018701.30547  21036439.56347
   -407798.14507  20243853.67607   -313484.99648  20243850.06648
 -17514610.91807  20159284.12107 -13637801.04748  20159279.21948
  -7763145.89806  22788001.05106  -6043639.56347  22787997.48447
  -7100369.46507  20967428.76207  -5515147.41448  20967424.11348
 -14061169.66406  21131556.02706 -10948258.65648  21131553.29348
  10009059.45306  22771122.31606   7798613.86747  22771120.59847
 08 11  4  1 50 29.9960000  0 10  3  6  7 13 16 19 21 23 25 31
 -21653379.62507  18639307.70707 -16834774.53949  18639304.67649
 -14469658.39807  19125297.48807 -11256445.23049  19125294.80949
  -3325533.30506  22464205.70706  -2582161.72347  22464202.70747
 -14162355.82006  21034398.84006 -11027070.96547  21034396.04747
   -385112.39507  20248170.70707   -295807.80148  20248167.02048
 -17608846.12507  20141351.38707 -13711231.07448  20141347.08648
  -7754917.13306  22789567.15206  -6037227.54747  22789563.92647
  -7063246.82807  20974493.47307  -5486220.69948  20974488.03148
 -14158727.85206  21112991.32406 -11024278.03548  21112988.45348
  10084755.11306  22785526.48806   7857597.36747  22785525.25047
 08 11  4  1 50 59.9960000  0 10  3  6  7 13 16 19 21 23 25 31
 -21688504.22307  18632623.45707 -16862144.35549  18632621.34049
 -14474639.07807  19124349.56607 -11260326.27749  19124346.47349
  -3448651.16406  22440776.92606  -2678097.67647  22440773.75847
 -14172480.35206  21032472.66806 -11034960.22347  21032468.98447
   -362252.79307  20252520.77707   -277995.10948  20252516.69548
 -17702659.57007  20123499.27707 -13784332.43848  20123494.63348
  -7746205.89106  22791224.84806  -6030439.57847  22791221.44147
  -7025662.93007  20981645.83207  -5456934.55548  20981640.42248
 -14255997.40606  21094481.42606 -11100072.46148  21094478.75848
  10160648.93806  22799968.76206   7916735.32047  22799967.02047
 08 11  4  1 51 29.9960000  0 10  3  6  7 13 16 19 21 23 25 31
 -21723102.71107  18626039.58207 -16889104.21549  18626036.77349
 -14479173.98407  19123486.66007 -11263859.96949  19123483.93449
  -3571629.21106  22417375.29306  -2773924.69947  22417372.10247
 -14181989.00006  21030663.23806 -11042369.56347  21030660.13347
   -339219.26607  20256903.75407   -260046.90648  20256899.60948
 -17796049.96907  20105727.55107 -13857104.16848  20105723.30948
  -7737012.24206  22792974.06606  -6023275.72747  22792970.87547
  -6987619.94907  20988885.18407  -5427290.69548  20988879.31648
 -14352975.72706  21076027.35606 -11175639.99248  21076024.34048
  10236739.46106  22814448.44906   7976026.60246  22814445.92246
 08 11  4  1 51 59.9960000  0 10  3  6  7 13 16 19 21 23 25 31
 -21757177.34007  18619555.20707 -16915655.85949  18619552.48449
 -14483266.25807  19122707.84807 -11267048.75049  19122705.17249
  -3694467.14106  22393999.59806  -2869642.53147  22393996.73447
 -14190884.41806  21028969.88706 -11049301.06347  21028967.14147
   -316013.94907  20261319.95707   -241964.85948  20261315.93048
 -17889017.67607  20088036.52007 -13929546.52048  20088032.36748
  -7727338.69506  22794815.09006  -6015737.91446  22794811.26246
  -6949122.44107  20996210.75407  -5397292.65248  20996205.04748
 -14449662.35906  21057627.69106 -11250980.19948  21057625.11748
  10313023.65206  22828965.47306   8035468.75447  22828962.37147
 08 11  4  1 52 29.9960000  0 10  3  6  7 13 16 19 21 23 25 31
 -21790729.12507  18613170.65207 -16941800.10949  18613167.95349
 -14486917.71907  19122012.94107 -11269894.03149  19122010.26249
  -3817162.95306  22370651.07406  -2965249.64147  22370647.99647
 -14199168.31606  21027393.86306 -11055756.05947  21027390.63747
   -292637.28507  20265768.19107   -223749.27748  20265764.96148
 -17981562.01207  20070426.52707 -14001658.98848  20070420.57848
  -7717186.43806  22796747.00406  -6007827.07846  22796743.55146
  -6910173.85207  21003622.20707  -5366943.12548  21003617.41048
 -14546055.46106  21039285.37106 -11326091.69148  21039282.09848
  10389498.95706  22843518.70706   8095059.81347  22843516.48147
 08 11  4  1 52 59.9960000  0 10  3  6  7 13 16 19 21 23 25 31
 -21823761.63307  18606884.91007 -16967539.71949  18606882.32849
 -14490132.41407  19121401.34007 -11272398.98449  19121398.52349
  -3939717.00406  22347330.38706  -3060746.26247  22347326.59047
 -14206844.26606  21025933.42606 -11061737.33247  21025930.32847
   -269092.41407  20270248.66807   -205402.63748  20270245.00848
 -18073684.49207  20052895.37907 -14073442.72748  20052891.12148
  -7706559.12906  22798769.43406  -5999546.05947  22798765.01247
  -6870779.77707  21011118.66007  -5336246.45348  21011113.62548
 -14642155.42606  21020997.84806 -11400974.76248  21020995.23448
  10466161.56306  22858106.12906   8154796.80547  22858104.62547
 08 11  4  1 53 29.9960000  0 10  3  6  7 13 16 19 21 23 25 31
 -21856277.43807  18600697.41807 -16992876.71149  18600694.73449
 -14492913.86307  19120871.67607 -11274566.35249  19120869.51249
  -4062128.81606  22324036.26206  -3156132.06647  22324032.24247
 -14213915.48807  21024587.63707 -11067247.39147  21024584.82847
   -245381.24207  20274760.90207   -186926.40248  20274757.27348
 -18165386.03507  20035445.50407 -14144898.46148  20035440.80148
  -7695459.44506  22800881.19106  -5990896.91046  22800877.70746
  -6830944.87107  21018699.18407  -5305206.29748  21018694.59048
 -14737961.97706  21002766.71506 -11475629.19948  21002763.84448
  10543007.67206  22872729.30906   8214676.77746  22872727.52746
 08 11  4  1 53 59.9960000  0 10  3  6  7 13 16 19 21 23 25 31
 -21888277.13307  18594608.19907 -17017811.53149  18594605.27749
 -14495263.35207  19120424.46507 -11276397.12549  19120421.78549
  -4184396.25006  22300769.77706  -3251405.36347  22300765.89847
 -14220382.69107  21023357.37107 -11072286.78547  21023353.85647
   -221503.68407  20279304.66807   -168320.52048  20279301.12948
 -18256665.39807  20018075.80107 -14216025.22748  20018070.66848
  -7683888.11706  22803083.20706  -5981880.32446  22803079.58246
  -6790671.87507  21026362.69107  -5273824.77048  21026358.22748
 -14833472.60906  20984591.87106 -11550053.06648  20984588.47348
  10620035.76606  22887387.90206   8274698.64546  22887384.41846
 08 11  4  1 54 29.9960000  0 10  3  6  7 13 16 19 21 23 25 31
 -21919762.42607  18588616.80907 -17042345.51649  18588613.76249
 -14497183.49207  19120059.46507 -11277893.32849  19120056.18449
  -4306518.05506  22277530.77706  -3346565.20347  22277526.55147
 -14226248.75006  21022241.01206 -11076857.75847  21022237.07447
   -197461.50807  20283879.59807   -149586.37148  20283875.87948
 -18347522.73407  20000786.24607 -14286823.12948  20000781.52348
  -7671846.90206  22805374.51206  -5972497.57046  22805371.19546
  -6749964.87507  21034108.81607  -5242105.05548  21034104.52748
 -14928686.43007  20966472.93407 -11624245.64548  20966469.90648
  10697243.01206  22902080.05906   8334860.05947  22902077.93447
 08 11  4  1 54 59.9960000  0 10  3  6  7 13 16 19 21 23 25 31
 -21950736.13307  18582722.48807 -17066480.86349  18582719.51649
 -14498677.89807  19119774.80107 -11279057.78948  19119772.10248
  -4428494.52006  22254318.85606  -3441611.77747  22254314.78547
 -14231516.87507  21021238.56607 -11080962.80147  21021235.68847
   -173257.03907  20288485.11307   -130725.75448  20288481.62948
 -18437959.22707  19983576.35607 -14357293.11348  19983571.87548
  -7659339.12106  22807755.05906  -5962751.25446  22807751.41046
  -6708828.93407  21041936.55907  -5210051.10248  21041931.41448
 -15023603.36706  20948410.55106 -11698206.89548  20948407.77048
  10774625.55506  22916805.19906   8395158.02347  22916804.11347
 08 11  4  1 55 29.9960000  0 10  3  6  7 13 16 19 21 23 25 31
 -21981198.22707  18576925.54307 -17090217.54749  18576922.94549
 -14499747.10907  19119571.39507 -11279890.94549  19119568.62149
  -4550321.53105  22231135.62905  -3536541.91447  22231131.89847
 -14236187.12507  21020350.30107 -11084601.96947  21020346.31647
   -148889.50807  20293122.35607   -111738.06348  20293118.75848
 -18527972.82007  19966447.52007 -14427433.55548  19966442.47748
  -7646364.80506  22810223.33206  -5952641.39147  22810220.02347
  -6667265.99207  21049845.99607  -5177664.42247  21049840.97347
 -15118220.25407  20930405.76207 -11771934.33248  20930402.98148
  10852182.56606  22931564.03506   8455591.92247  22931562.52047
 08 11  4  1 55 59.9960000  0 10  3  6  7 13 16 19 21 23 25 31
 -22011150.37507  18571225.70707 -17113556.87949  18571223.81649
 -14500393.14507  19119448.91007 -11280394.35249  19119445.44549
  -4671997.98805  22207981.35605  -3631354.70347  22207977.90647
 -14240261.54306  21019574.55106 -11087776.85947  21019571.04347
   -124359.47707  20297790.43407    -92623.76248  20297786.82448
 -18617563.01607  19949399.18407 -14497244.09048  19949393.85248
  -7632925.45306  22812781.30106  -5942169.16846  22812777.28946
  -6625280.12907  21057835.73107  -5144948.18847  21057830.12547
 -15212535.37107  20912458.35607 -11845426.62948  20912455.00448
  10929911.99606  22946355.26206   8516160.22747  22946354.37947
 08 11  4  1 56 29.9960000  0  9  3  6  7 13 16 19 21 23 25
 -22040599.73808  18565621.95708 -17136504.43049  18565619.47349
 -14500624.79307  19119404.96507 -11280574.85249  19119401.75049
  -4793528.35905  22184855.35605  -3726053.68047  22184851.37147
 -14243748.47306  21018911.17606 -11090493.96547  21018907.72347
    -99674.55107  20302487.44107    -73388.75048  20302484.17648
 -18706736.21907  19932429.66807 -14566729.69548  19932425.17248
  -7619029.01206  22815425.78506  -5931340.77347  22815422.54347
  -6582881.05107  21065904.21507  -5111909.97348  21065899.09848
 -15306553.72306  20894567.52006 -11918687.67248  20894563.86348
 08 11  4  1 56 59.9960000  0  9  3  6  7 13 16 19 21 23 25
 -22069546.26607  18560113.48107 -17159060.16449  18560111.00049
 -14500442.00007  19119439.07407 -11280432.43049  19119436.68449
  -4914908.76605  22161756.85605  -3820635.78947  22161753.80147
 -14246647.55106  21018359.07406 -11092752.98847  21018356.22747
    -74833.30107  20307214.72307    -54031.93048  20307210.92648
 -18795489.71907  19915540.75407 -14635888.25848  19915535.62948
  -7604674.77306  22818157.47306  -5920155.66847  22818153.66047
  -6540069.99207  21074050.57407  -5078550.72348  21074045.59848
 -15400271.42206  20876733.43406 -11991714.44148  20876730.37548
 08 11  4  1 57 29.9960000  0  9  3  6  7 13 16 19 21 23 25
 -22097989.12507  18554701.25407 -17181223.43449  18554698.46949
 -14499844.80507  19119552.71507 -11279967.07449  19119550.30149
  -5036135.61305  22138688.13705  -3915098.21547  22138685.34847
 -14248959.16006  21017919.77706 -11094554.25447  21017916.07047
    -49834.54707  20311971.73107    -34552.37548  20311968.10948
 -18883821.07407  19898731.80107 -14704717.88348  19898726.73448
  -7589862.44506  22820975.82406  -5908613.58247  22820972.03947
  -6496848.59807  21082275.41807  -5044871.75848  21082270.82048
 -15493684.89807  20858957.51207 -12064504.17248  20858954.11748
 08 11  4  1 57 59.9960000  0  9  3  6  7 13 16 19 21 23 25
 -22125925.40607  18549385.11307 -17202991.96149  18549382.53949
 -14498831.22707  19119745.78507 -11279177.27749  19119742.88349
  -5157203.07005  22115650.04305  -4009436.45347  22115647.00047
 -14250680.87906  21017592.11306 -11095895.87547  21017588.35247
    -24675.22707  20316759.84007    -14947.71148  20316755.83648
 -18971725.93007  19882003.62107 -14773215.15248  19881999.04348
  -7574589.56606  22823881.41806  -5896712.64847  22823878.34447
  -6453216.55907  21090577.88707  -5010872.79348  21090573.77748
 -15586788.43807  20841240.10607 -12137052.37948  20841237.29348
 08 11  4  1 58 29.9960000  0  9  3  6  7 13 16 19 21 23 25
 -22153359.17608  18544164.55908 -17224368.91849  18544161.92249
 -14497405.68407  19120017.20707 -11278066.45749  19120014.27049
  -5278111.42605  22092641.76205  -4103650.69947  22092639.32847
 -14251816.99606  21017375.75406 -11096781.16447  21017372.18847
       642.08207  20321577.42607      4780.05548  20321573.66448
 -19059206.03107  19865356.81607 -14841381.45348  19865352.74648
  -7558859.86706  22826875.05906  -5884455.75447  22826872.00047
  -6409179.54307  21098958.19107  -4976558.25848  21098953.76648
 -15679582.60506  20823582.14506 -12209359.52748  20823578.99648
 08 11  4  1 58 59.9960000  0  9  3  6  7 13 16 19 21 23 25
 -22180293.17607  18539039.23807 -17245356.44949  18539036.20349
 -14495571.66407  19120365.98107 -11276637.36349  19120363.34849
  -5398860.09806  22069664.42606  -4197740.55547  22069661.55147
 -14252370.82806  21017270.42606 -11097212.74247  21017266.62547
     26115.23807  20326424.61307     24629.26248  20326421.31348
 -19146262.70307  19848790.49607 -14909217.80548  19848786.14548
  -7542676.11305  22829954.64505  -5871845.06347  22829951.89847
  -6364742.50007  21107415.21507  -4941932.00848  21107410.07848
 -15772066.96507  20805982.65207 -12281425.25848  20805979.86348
 08 11  4  1 59 29.9960000  0  9  3  6  7 13 16 19 21 23 25
 -22206730.88307  18534008.43407 -17265957.25049  18534005.52749
 -14493333.63707  19120792.06607 -11274893.44549  19120788.89849
  -5519449.77006  22046716.70706  -4291706.50847  22046713.93047
 -14252346.66806  21017274.87906 -11097193.92247  21017271.06647
     51741.18007  20331301.11307     44597.51248  20331297.94548
 -19232897.48007  19832304.62907 -14976725.41848  19832299.78148
  -7526042.66006  22833120.76206  -5858883.95747  22833116.99647
  -6319911.46107  21115944.93407  -4906998.75048  21115940.67648
 -15864242.46507  20788442.59807 -12353250.31348  20788439.66848
 08 11  4  1 59 59.9960000  0  9  3  6  7 13 16 19 21 23 25
 -22232671.84807  18529071.73807 -17286170.98849  18529069.18049
 -14490691.81607  19121294.55907 -11272834.88349  19121291.87949
  -5639876.81606  22023800.16806  -4385545.73047  22023797.48847
 -14251744.56306  21017389.55106 -11096724.75447  21017385.95347
     77520.87107  20336207.10607     64685.57048  20336203.54748
 -19319108.43007  19815899.34007 -15043902.76648  19815894.62948
  -7508958.92606  22836371.00406  -5845571.96147  22836367.68847
  -6274687.93407  21124551.15207  -4871759.65248  21124546.45748
 -15956105.34406  20770961.35606 -12424831.77048  20770958.31648
 08 11  4  2  0 29.9960000  0  9  3  6  7 13 16 19 21 23 25
 -22258121.52007  18524228.99607 -17306001.90649  18524225.93849
 -14487651.91407  19121873.19107 -11270466.12949  19121870.44949
  -5760143.05906  22000914.30106  -4479259.68447  22000911.61747
 -14250570.58206  21017613.36306 -11095809.97347  21017609.03547
    103449.84807  20341141.30907     84889.96148  20341137.66048
 -19404899.07807  19799574.09807 -15110752.60548  19799569.37548
  -7491430.40606  22839707.30106  -5831913.39547  22839703.75447
  -6229079.45307  21133229.87107  -4836220.59047  21133225.00847
 -16047657.71507  20753539.72307 -12496171.27748  20753536.59048
 08 11  4  2  0 59.9960000  0 10  3  6  7 13 16 19 21 23 25 27
 -22283081.80907  18519479.12107 -17325451.47749  18519476.29749
 -14484216.72707  19122527.01207 -11267789.35949  19122523.88349
  -5880247.24206  21978059.59006  -4572847.32847  21978056.21547
 -14248827.27306  21017944.60606 -11094451.57447  21017941.43847
    129526.66807  20346103.31607    105209.55548  20346099.50048
 -19490269.58207  19783328.67607 -15177275.06649  19783323.84449
  -7473459.27306  22843126.60606  -5817909.95347  22843123.25447
  -6183090.10907  21141981.41007  -4800384.77047  21141976.57447
 -16138898.56307  20736177.31607 -12567268.03948  20736174.79748
   -195232.88715  23383806.48805   -127619.20756  23383804.41846
 08 11  4  2  1 29.9960000  0 10  3  6  7 13 16 19 21 23 25 27
 -22307554.69907  18514822.23107 -17344521.26649  18514819.53149
 -14480389.44507  19123255.11307 -11264807.07449  19123252.25449
  -6000188.39506  21955235.68406  -4666307.94947  21955232.23847
 -14246517.66006  21018384.45706 -11092651.88347  21018380.51247
    155749.83607  20351093.91807    125643.18048  20351089.77048
 -19575220.37107  19767163.37907 -15243470.47349  19767158.34049
  -7455047.94106  22846629.60606  -5803563.43447  22846627.23447
  -6136724.71507  21150804.30107  -4764255.91847  21150799.82847
 -16229827.05507  20718874.55107 -12638121.40248  20718871.16048
   -313097.27705  23361377.68405   -219461.57047  23361375.41447
 08 11  4  2  1 59.9960000  0 10  3  6  7 13 16 19 21 23 25 27
 -22331545.75807  18510256.70707 -17363215.59049  18510253.95749
 -14476175.50407  19124057.12907 -11261523.48049  19124054.28949
  -6119967.91806  21932442.23106  -4759642.63747  21932438.25447
 -14243647.10206  21018930.60606 -11090415.09847  21018927.27747
    182115.84806  20356110.62906    146188.12148  20356106.92248
 -19659754.41407  19751076.88707 -15309341.14149  19751071.99249
  -7436201.47706  22850215.54306  -5788877.92646  22850213.07046
  -6089989.68407  21159698.36307  -4727839.02747  21159693.23147
 -16320444.87507  20701630.16007 -12708732.68848  20701627.15248
   -430917.88705  23338956.61305   -311269.81647  23338954.55947
 08 11  4  2  2 29.9960000  0 10  3  6  7 13 16 19 21 23 25 27
 -22355060.87507  18505782.07407 -17381539.05149  18505779.03149
 -14471581.76207  19124931.17607 -11257943.94149  19124928.60949
  -6239588.85206  21909678.79306  -4852853.74647  21909675.77347
 -14240222.74606  21019582.32406 -11087746.76647  21019578.56347
    208618.46507  20361153.78507    166839.51248  20361150.69148
 -19743876.60207  19735069.02007 -15374890.89149  19735064.15249
  -7416926.71106  22853885.32406  -5773858.66047  22853880.55147
  -6042893.93807  21168660.09807  -4691141.06647  21168655.61347
 -16410755.25407  20684444.69907 -12779104.39848  20684441.94948
   -548698.35205  23316543.73105   -403046.76646  23316542.12946
 08 11  4  2  2 59.9960000  0 10  3  6  7 13 16 19 21 23 25 27
 -22378101.34807  18501397.44107 -17399492.66049  18501394.88349
 -14466610.19907  19125877.44907 -11254069.99248  19125874.25048
  -6359049.01606  21886946.51206  -4945939.58247  21886942.69947
 -14236246.48006  21020338.75406 -11084648.39847  21020335.37547
    235257.41806  20366223.42606    187597.11748  20366219.57848
 -19827586.26207  19719139.70707 -15440119.18849  19719134.33249
  -7397224.56306  22857634.16006  -5758506.37547  22857630.65247
  -5995440.57007  21177690.80907  -4654164.45347  21177686.00047
 -16500756.19907  20667318.03507 -12849235.00448  20667315.44148
   -666436.83605  23294138.76205   -494791.02347  23294136.78547
 08 11  4  2  3 29.9960000  0 10  3  6  7 13 16 19 21 23 25 27
 -22400670.60907  18497102.59807 -17417079.09849  18497100.10249
 -14461264.87107  19126894.51207 -11249904.80949  19126891.73149
  -6478348.29306  21864244.63706  -5038900.03947  21864241.30147
 -14231722.30106  21021199.29306 -11081123.07047  21021196.27047
    262030.19506  20371317.98106    208459.00048  20371314.13748
 -19910884.99607  19703287.88707 -15505027.27749  19703283.39549
  -7377099.05906  22861463.75406  -5742824.17247  22861459.74247
  -5947635.42207  21186787.05107  -4616913.70347  21186782.99647
 -16590447.92607  20650250.33207 -12919124.64848  20650247.51648
   -784133.93405  23271742.31605   -586503.03147  23271739.80947
 08 11  4  2  3 59.9960000  0 10  3  6  7 13 16 19 21 23 25 27
 -22422768.65607  18492897.70707 -17434298.35549  18492894.68049
 -14455546.19107  19127982.59007 -11245448.69549  19127979.71549
  -6597483.26606  21841573.61306  -5131732.44547  21841570.50847
 -14226650.52706  21022164.66006 -11077171.05147  21022161.91447
    288937.85907  20376438.39507    229426.00448  20376435.00448
 -19993770.88307  19687515.59007 -15569613.67249  19687510.97349
  -7356549.82406  22865373.69906  -5726811.78947  22865370.80947
  -5899480.10507  21195950.94907  -4579390.10947  21195946.38747
 -16679827.05507  20633241.87907 -12988770.71948  20633238.95348
   -901786.58605  23249353.36305   -678180.41047  23249351.17247
 08 11  4  2  4 29.9960000  0 10  3  6  7 13 16 19 21 23 25 27
 -22444400.57807  18488780.95707 -17451154.39549  18488778.04349
 -14449460.18007  19129140.71507 -11240706.34449  19129138.32849
  -6716455.74606  21818934.05106  -5224438.27347  21818930.93047
 -14221037.31306  21023232.25406 -11072797.14147  21023229.43847
    315975.83207  20381583.18407    250494.52348  20381579.90648
 -20076247.75407  19671820.77707 -15633881.34849  19671816.41849
  -7335582.68406  22869364.60606  -5710473.77747  22869360.78547
  -5850982.24207  21205179.85607  -4541599.59447  21205175.00047
 -16768895.59807  20616292.77007 -13058174.77048  20616289.78548
  -1019396.96104  23226971.89504   -769824.80146  23226971.31646
 08 11  4  2  4 59.9960000  0 10  3  6  7 13 16 19 21 23 25 27
 -22465567.28507  18484753.17607 -17467647.92249  18484750.77049
 -14443007.83607  19130368.66807 -11235678.55549  19130365.81649
  -6835262.89806  21796325.81606  -5317015.25047  21796322.88347
 -14214883.93806  21024403.84806 -11068002.29747  21024401.12947
    343144.74207  20386753.74607    271665.09048  20386750.05548
 -20158314.12107  19656203.63707 -15697829.15249  19656199.44949
  -7314198.16006  22873432.80106  -5693810.55146  22873429.07446
  -5802144.57406  21214473.33206  -4503544.26247  21214468.97747
 -16857651.01607  20599403.50407 -13127334.82848  20599400.23448
  -1136962.78305  23204600.37105   -861434.49246  23204598.90246
 08 11  4  2  5 29.9960000  0 10  3  6  7 13 16 19 21 23 25 27
 -22486265.41407  18480814.63707 -17483776.34049  18480811.68449
 -14436186.76607  19131666.83207 -11230363.43449  19131664.00849
  -6953897.81606  21773750.42606  -5409458.02747  21773747.07047
 -14208188.12506  21025677.41806 -11062784.80947  21025674.90647
    370448.41407  20391949.37107    292940.65248  20391945.99248
 -20239964.89507  19640665.91007 -15761453.12949  19640661.31649
  -7292393.36706  22877582.34806  -5676819.81646  22877578.78146
  -5752965.98407  21223832.09007  -4465223.34047  21223827.18847
 -16946086.93007  20582574.36307 -13196245.92648  20582571.31648
  -1254477.69105  23182238.04305   -953004.52046  23182236.14546
 08 11  4  2  5 59.9960000  0 10  3  6  7 13 16 19 21 23 25 27
 -22506501.02307  18476963.62907 -17499544.34449  18476960.78549
 -14429003.78107  19133033.72307 -11224766.30948  19133030.75048
  -7072363.41006  21751206.69906  -5501768.85947  21751204.29347
 -14200956.80506  21027053.76206 -11057150.00447  21027051.18447
    397881.56607  20397169.48107    314317.11348  20397166.16848
 -20321204.64807  19625207.17607 -15824756.81648  19625201.96948
  -7270174.66405  22881810.87905  -5659506.53946  22881806.25046
  -5703454.71107  21233253.57407  -4426643.13747  21233248.48447
 -17034206.32007  20565805.68407 -13264910.37148  20565803.35948
  -1371945.21505  23159884.81605  -1044537.59046  23159883.30946
 08 11  4  2  6 29.9960000  0 10  3  6  7 13 16 19 21 23 25 27
 -22526273.61307  18473201.47307 -17514951.55949  18473198.82049
 -14421458.73007  19134469.25407 -11218887.05149  19134466.27349
  -7190655.53106  21728696.56606  -5593944.52747  21728693.51647
 -14193189.93006  21028531.68406 -11051097.92247  21028529.81647
    425445.72707  20402415.43407    335795.64848  20402411.74248
 -20402031.22707  19609825.61307 -15887738.55948  19609821.02048
  -7247541.77305  22886116.95705  -5641870.54346  22886114.04346
  -5653612.37507  21242738.77707  -4387805.00847  21242733.41847
 -17122005.22307  20549098.36307 -13333325.09448  20549095.21548
  -1489361.62105  23137541.55105  -1136030.84046  23137539.30946
 08 11  4  2  6 59.9960000  0 10  3  6  7 13 16 19 21 23 25 27
 -22545589.60507  18469525.44907 -17530002.97749  18469522.84449
 -14413558.28107  19135972.40207 -11212730.86348  19135969.68448
  -7308776.21506  21706218.75406  -5685986.60947  21706215.50047
 -14184894.10206  21030110.45706 -11044633.63747  21030107.60647
    453136.17207  20407684.35607    357372.59848  20407680.93848
 -20482448.71107  19594522.78507 -15950401.53148  19594517.57448
  -7224500.45706  22890502.68406  -5623916.28946  22890498.70346
  -5603446.79707  21252283.74607  -4348714.97347  21252279.48147
 -17209486.37507  20532450.95707 -13401492.22748  20532448.06348
  -1606729.67205  23115207.66805  -1227486.43446  23115205.25446
 08 11  4  2  7 29.9960000  0 10  3  6  7 13 16 19 21 23 25 27
 -22564450.32407  18465936.27007 -17544699.64549  18465933.90249
 -14405304.41007  19137543.02707 -11206299.28948  19137540.41048
  -7426723.57806  21683773.99606  -5777893.63347  21683771.71147
 -14176071.65206  21031789.30906 -11037759.01647  21031786.89147
    480952.22307  20412977.63707    379047.43448  20412974.00848
 -20562456.82807  19579298.39507 -16012745.50449  19579293.23149
  -7201052.89505  22894963.98805  -5605645.52346  22894961.24646
  -5552961.69906  21261891.15206  -4309375.95747  21261886.75047
 -17296647.91407  20515865.14507 -13469410.30148  20515862.15648
  -1724047.98005  23092882.02005  -1318903.27346  23092880.03546
 08 11  4  2  7 59.9950000  0 10  3  6  7 13 16 19 21 23 25 27
 -22582859.30907  18462433.16307 -17559044.31649  18462430.56549
 -14396702.96507  19139179.97607 -11199596.85948  19139177.79248
  -7544495.12906  21661363.12406  -5869663.65247  21661359.85847
 -14166728.35206  21033567.62406 -11030478.54347  21033564.52347
    508888.86707  20418293.43707    400816.22348  20418290.16348
 -20642055.76607  19564150.81207 -16074770.63749  19564145.74549
  -7177204.89805  22899501.53805  -5587062.69946  22899499.48346
  -5502165.64106  21271556.92106  -4269794.63747  21271553.24147
 -17383488.59407  20499339.62407 -13537078.36348  20499336.55848
  -1841314.09806  23070567.22606  -1410279.47346  23070563.82346
 08 11  4  2  8 29.9950000  0 10  3  6  7 13 16 19 21 23 25 27
 -22600819.52707  18459015.44407 -17573039.29349  18459012.75349
 -14387754.68407  19140882.82707 -11192624.18049  19140880.02649
  -7662095.98806  21638984.14806  -5961300.66447  21638981.37047
 -14156865.50406  21035444.48306 -11022793.21947  21035441.54247
    536948.30907  20423633.21807    422680.71148  20423629.21448
 -20721250.13707  19549080.61607 -16136480.53149  19549076.46449
  -7152955.78505  22904115.79605  -5568167.32446  22904112.72646
  -5451058.05907  21281283.44407  -4229970.56347  21281278.53847
 -17470011.80907  20482874.75707 -13604499.04748  20482871.27648
  -1958533.80106  23048260.59306  -1501619.48046  23048258.01946
 08 11  4  2  8 59.9950000  0 10  3  6  7 13 16 19 21 23 25 27
 -22618332.65607  18455683.01507 -17586685.89149  18455679.84749
 -14378462.97707  19142650.99907 -11185383.88348  19142648.43748
  -7779521.07006  21616638.65506  -6052800.73447  21616635.94047
 -14146486.62506  21037418.72606 -11014705.81647  21037416.75747
    565128.03507  20428996.03807    444638.92648  20428992.04648
 -20800038.21907  19534087.71807 -16197873.82849  19534083.25349
  -7128308.63305  22908806.85805  -5548961.82046  22908803.96446
  -5399645.60207  21291066.31907  -4189908.94947  21291062.40147
 -17556213.87107  20466471.18707 -13671669.48848  20466468.03848
  -2075702.59806  23025964.67106  -1592919.84846  23025961.48346
 08 11  4  2  9 29.9950000  0 10  3  6  7 13 16 19 21 23 25 27
 -22635406.24607  18452433.93707 -17599990.00049  18452430.97249
 -14368836.01207  19144483.06207 -11177882.35948  19144480.70248
  -7896774.18006  21594326.46006  -6144166.78147  21594323.55447
 -14135600.04706  21039490.53806 -11006222.77747  21039488.02647
    593421.52307  20434379.52307    466685.78148  20434376.11648
 -20878425.68407  19519171.02307 -16258954.96549  19519166.06549
  -7103271.90205  22913570.82705  -5529452.68846  22913566.82346
  -5347937.71507  21300906.08507  -4149617.10547  21300901.10547
 -17642099.05907  20450127.56207 -13738593.00848  20450124.41348
  -2192824.80905  23003676.91305  -1684183.90246  23003674.07346
 08 11  4  2  9 59.9950000  0 10  3  6  7 13 16 19 21 23 25 27
 -22652030.91407  18449270.36607 -17612944.29749  18449267.56249
 -14358865.45307  19146380.62407 -11170113.10248  19146377.41748
  -8013842.80106  21572048.47606  -6235389.06647  21572045.69447
 -14124197.71906  21041660.36606 -10997337.87147  21041658.55047
    621838.69507  20439787.54607    488829.01648  20439783.94048
 -20956401.92607  19504332.81207 -16319715.66049  19504327.62449
  -7077837.05906  22918411.27306  -5509633.36746  22918407.43346
  -5295927.53907  21310803.31907  -4109089.70747  21310798.43347
 -17727655.11307  20433846.90507 -13805260.05548  20433843.82748
  -2309888.37505  22981400.32705  -1775402.26247  22981398.26547
 08 11  4  2 10 29.9950000  0 10  3  6  7 13 16 19 21 23 25 27
 -22668212.50407  18446191.06207 -17625553.33249  18446188.68349
 -14348556.98407  19148342.06207 -11162080.53548  19148338.98748
  -8130728.66406  21549806.42906  -6326468.94147  21549803.08147
 -14112285.80906  21043927.02306 -10988055.86747  21043924.56247
    650375.33207  20445217.69407    511065.35548  20445214.37048
 -21033970.48407  19489571.55407 -16380158.68849  19489567.03449
  -7052009.15606  22923326.35806  -5489507.76646  22923323.16746
  -5243622.48007  21320756.57707  -4068332.53547  21320752.39847
 -17812883.87107  20417628.94407 -13871672.08648  20417625.27348
  -2426895.39805  22959134.78005  -1866576.53946  22959131.61646
 08 11  4  2 10 59.9950000  0 10  3  6  7 13 16 19 21 23 25 27
 -22683950.53107  18443196.14007 -17637816.73049  18443193.44449
 -14337910.78507  19150367.93707 -11153784.79748  19150365.28848
  -8247427.51206  21527599.92906  -6417403.09447  21527595.87047
 -14099864.43406  21046290.41306 -10978376.90247  21046287.88247
    679033.07807  20450671.56207    533396.04348  20450667.89048
 -21111129.25807  19474888.57707 -16440282.39549  19474883.56949
  -7025787.66005  22928315.52305  -5469075.47346  22928312.67546
  -5191024.26607  21330765.38207  -4027346.97347  21330760.90147
 -17897781.71107  20401473.02307 -13937826.24248  20401469.88248
  -2543842.01606  22936879.97606  -1957703.78947  22936877.67947
 08 11  4  2 11 29.9950000  0 10  3  6  7 13 16 19 21 23 25 27
 -22699247.11707  18440285.42107 -17649736.14849  18440282.87049
 -14326929.39507  19152457.72607 -11145227.87948  19152454.61248
  -8363937.46506  21505428.21006  -6508190.04347  21505424.70247
 -14086936.84006  21048751.64806 -10968303.48447  21048748.12047
    707811.02307  20456147.82707    555820.40648  20456143.89848
 -21187878.56607  19460283.97607 -16500087.03549  19460279.03849
  -6999175.10905  22933380.74105  -5448338.49646  22933377.71446
  -5138136.65607  21340829.58507  -3986135.87547  21340825.27347
 -17982347.40607  20385380.58507 -14003721.58248  20385377.52648
  -2660727.18005  22914637.31205  -2048783.11346  22914635.86246
 08 11  4  2 11 59.9950000  0 10  3  6  7 13 16 19 21 23 25 27
 -22714105.81307  18437458.01507 -17661314.35549  18437455.36249
 -14315616.99207  19154610.60807 -11136413.02748  19154607.72248
  -8480258.65206  21483293.21006  -6598829.91847  21483289.62047
 -14073507.28906  21051306.67106 -10957838.89847  21051304.23047
    736706.58607  20461646.41307    578336.39848  20461642.55048
 -21264220.23007  19445756.51507 -16559574.03949  19445751.53049
  -6972175.50406  22938518.44406  -5427299.87946  22938515.15546
  -5084965.37507  21350948.52307  -3944703.76247  21350942.41347
 -18066580.99607  20369351.53007 -14069358.14848  20369348.38248
  -2777551.09006  22892407.33506  -2139814.71947  22892405.20647
 08 11  4  2 12 29.9950000  0 10  3  6  7 13 16 19 21 23 25 27
 -22728530.68407  18434713.14007 -17672554.51249  18434710.32349
 -14303978.25407  19156825.16307 -11127343.89149  19156822.51549
  -8596391.50806  21461193.68706  -6689323.01647  21461190.08147
 -14059580.60206  21053957.10106 -10946986.96147  21053954.55847
    765716.43007  20467166.65507    600941.44948  20467163.05048
 -21340156.55507  19431306.52307 -16618745.19549  19431302.02649
  -6944793.24606  22943729.49106  -5405963.13746  22943726.39046
  -5031517.02707  21361119.06207  -3903055.68847  21361113.56547
 -18150483.48807  20353385.31207 -14134736.71148  20353382.30848
  -2894314.93805  22870186.94405  -2230799.49647  22870185.17947
 08 11  4  2 12 59.9950000  0 10  3  6  7 13 16 19 21 23 25 27
 -22742523.39107  18432050.40507 -17683457.92649  18432047.72249
 -14292015.32807  19159101.88207 -11118022.14849  19159099.20649
  -8712333.93806  21439130.52306  -6779667.75047  21439126.89447
 -14045159.66806  21056701.21806 -10935749.88347  21056698.41347
    794840.39107  20472708.81907    623635.42248  20472705.23748
 -21415687.50807  19416933.10107 -16677600.47749  19416928.75349
  -6917029.95306  22949012.97606  -5384329.42246  22949008.44046
  -4977794.95707  21371342.76507  -3861194.37947  21371336.94047
 -18234053.15607  20337482.63207 -14199855.93848  20337478.97648
  -3011017.15605  22847979.70205  -2321736.25847  22847977.40147
 08 11  4  2 13 29.9950000  0 10  3  6  7 13 16 19 21 23 25 27
 -22756088.71507  18429468.99907 -17694028.30549  18429466.01149
 -14279733.49207  19161438.70207 -11108451.89848  19161436.02648
  -8828086.77706  21417103.67906  -6869864.74247  21417100.37047
 -14030249.98006  21059538.77306 -10924131.95747  21059535.73747
    824074.79707  20478272.21007    646415.46148  20478268.52348
 -21490816.23007  19402636.42107 -16736142.34049  19402632.12049
  -6888890.72306  22954367.23306  -5362402.80946  22954364.36646
  -4923805.98006  21381615.74106  -3819125.05947  21381610.66747
 -18317291.28507  20321642.95207 -14264716.82048  20321639.79648
  -3127658.97705  22825783.32705  -2412625.94547  22825781.10847
 08 11  4  2 13 59.9950000  0 10  3  6  7 13 16 19 21 23 25 27
 -22769227.99207  18426968.59307 -17704266.71149  18426965.91349
 -14267134.48807  19163836.49907 -11098634.49648  19163833.47248
  -8943647.76206  21395113.03006  -6959912.24647  21395109.64847
 -14014853.63306  21062468.35806 -10912134.83647  21062464.96047
    853419.51607  20483856.27307    669281.46548  20483852.48348
 -21565542.22707  19388416.88207 -16794370.37949  19388411.83549
  -6860377.39806  22959793.07706  -5340184.62546  22959788.28846
  -4869553.24606  21391939.37406  -3776850.24247  21391934.74947
 -18400195.90607  20305866.71807 -14329317.82048  20305863.91748
  -3244238.56605  22803598.96005  -2503467.13746  22803597.03446
 08 11  4  2 14 29.9950000  0 10  3  6  7 13 16 19 21 23 25 27
 -22781944.58607  18424548.77307 -17714175.75049  18424545.78049
 -14254221.97707  19166293.50707 -11088572.80148  19166290.31548
  -9059016.09006  21373159.54606  -7049809.62147  21373155.42947
 -13998974.61306  21065490.67106 -10899761.58247  21065487.23747
    882872.50807  20489460.47607    692231.82848  20489457.05048
 -21639867.08207  19374273.46807 -16852285.85249  19374268.44449
  -6831492.90605  22965288.50705  -5317677.28746  22965285.74146
  -4815042.19906  21402312.67906  -3734374.14147  21402308.11647
 -18482766.80107  20290153.97607 -14393658.77348  20290150.68748
  -3360755.39505  22781427.16305  -2594259.43847  22781424.64447
 08 11  4  2 14 59.9950000  0 10  3  6  7 13 16 19 21 23 25 27
 -22794238.25807  18422209.21007 -17723755.23449  18422206.41349
 -14240996.15207  19168810.25707 -11078266.97349  19168807.63249
  -9174187.84806  21351243.08506  -7139553.85948  21351238.83548
 -13982613.93006  21068603.05406 -10887013.02747  21068600.58947
    912435.25807  20495086.10107    715267.71948  20495082.62048
 -21713789.11307  19360206.38207 -16909887.42249  19360201.51949
  -6802237.66806  22970856.23306  -5294881.03146  22970852.96846
  -4760274.40607  21412734.87407  -3691697.98447  21412729.91347
 -18565000.38307  20274505.13207 -14457736.88748  20274501.96848
  -3477206.25805  22759266.42905  -2685000.32047  22759264.72647
 08 11  4  2 15 29.9950000  0 10  3  6  7 13 16 19 21 23 25 27
 -22806107.44907  18419950.80407 -17733003.96149  18419948.05449
 -14227455.97707  19171387.04607 -11067716.19549  19171384.38649
  -9289157.29306  21329365.28806  -7229140.41848  21329361.71448
 -13965770.73006  21071808.46806 -10873888.47747  21071805.48747
    942110.49607  20500732.89807    738391.26648  20500730.02648
 -21787304.58207  19346217.23307 -16967172.19949  19346212.25349
  -6772610.00806  22976494.20206  -5271794.59846  22976492.12046
  -4705250.52706  21423205.31206  -3648822.27347  21423200.80047
 -18646891.68007  20258921.83507 -14521548.28548  20258918.80448
  -3593586.03905  22737120.31205  -2775685.83247  22737118.88647
 08 11  4  2 15 59.9950000  0 10  3  6  7 13 16 19 21 23 25 27
 -22817549.99607  18417773.41307 -17741920.23049  18417770.85149
 -14213599.95307  19174023.52307 -11056919.31349  19174020.88649
  -9403918.68806  21307526.89006  -7318564.86348  21307522.65548
 -13948443.89506  21075105.42106 -10860387.07047  21075103.34747
    971901.50007  20506402.40507    761605.00448  20506398.25348
 -21860409.70307  19332305.79607 -17024137.21949  19332300.67949
  -6742608.12905  22982203.83505  -5248416.58646  22982201.33146
  -4649970.33606  21433724.84306  -3605746.83647  21433720.23747
 -18728435.14107  20243404.64807 -14585088.64148  20243401.79648
  -3709889.10506  22714988.56906  -2866311.56647  22714986.49947
 08 11  4  2 16 29.9950000  0 10  3  6  7 13 16 19 21 23 25 27
 -22828561.47707  18415677.60107 -17750500.60949  18415674.96049
 -14199423.73407  19176721.02307 -11045872.91048  19176718.05848
  -9518463.60906  21285729.98306  -7407820.63747  21285725.93347
 -13930629.66806  21078495.80406 -10846505.88347  21078492.58947
   1001814.13307  20512094.77307    784913.53548  20512090.94848
 -21933098.46907  19318473.72607 -17080777.80549  19318468.34749
  -6712227.54305  22987985.50705  -5224743.45346  22987981.73346
  -4594431.24606  21444294.16306  -3562469.68047  21444288.98347
 -18809622.74607  20227955.08507 -14648351.70748  20227951.95648
  -3826107.65205  22692872.99105  -2956871.46947  22692870.60847
 08 11  4  2 16 59.9950000  0 10  3  6  7 13 16 19 21 23 25 27
 -22839143.53107  18413663.99907 -17758746.36749  18413660.96849
 -14184929.18407  19179479.68707 -11034578.46548  19179476.82748
  -9632789.69906  21263973.80406  -7496905.89848  21263970.67548
 -13912330.53106  21081978.06206 -10832246.83247  21081975.13247
   1031848.31607  20517810.23307    808316.77748  20517806.19848
 -22005370.45707  19304720.68707 -17137093.62549  19304715.44049
  -6681470.02705  22993838.53805  -5200776.59846  22993835.23046
  -4538636.66007  21454911.67107  -3518993.41847  21454906.37847
 -18890452.60907  20212573.82707 -14711336.01648  20212570.79248
  -3942239.60505  22670773.69405  -3047363.88747  22670771.33947
 08 11  4  2 17 29.9950000  0 10  3  6  7 13 16 19 21 23 25 27
 -22849293.96107  18411732.65507 -17766655.79349  18411729.73349
 -14170115.18807  19182298.37407 -11023035.10248  19182295.67948
  -9746891.25006  21242260.52306  -7585816.18848  21242257.76548
 -13893545.84806  21085552.72606 -10817609.43847  21085549.94047
   1062006.87107  20523549.11607    831816.93048  20523545.08948
 -22077222.29307  19291047.38207 -17193082.06349  19291042.67949
  -6650334.91006  22999762.60806  -5176515.53146  22999759.49546
  -4482586.98407  21465577.66307  -3475318.38747  21465572.06247
 -18970919.65207  20197261.04607 -14774037.60548  20197258.08948
  -4058279.91405  22648692.47605  -3137784.89547  22648689.58547
 08 11  4  2 17 59.9950000  0  9  3  6  7 13 16 19 23 25 27
 -22859020.37507  18409881.76507 -17774234.82449  18409878.81949
 -14154989.26607  19185176.96807 -11011248.67648  19185174.04248
  -9860771.70706  21220590.35806  -7674554.19148  21220587.17548
 -13874283.40606  21089218.53006 -10802599.73847  21089214.71847
   1092284.03107  20529310.16307    855409.48448  20529306.75348
 -22148659.49207  19277453.35807 -17248747.41049  19277448.42949
  -4426291.14506  21476290.17906  -3431451.54347  21476285.11647
 -19051027.59007  20182017.48307 -14836459.38348  20182014.09348
  -4174232.19905  22626627.06205  -3228137.33247  22626624.17947
 08 11  4  2 18 29.9950000  0  9  3  6  7 13 16 19 23 25 27
 -22868324.80907  18408111.14007 -17781485.04349  18408108.17949
 -14139554.02707  19188113.89007 -10999221.22748  19188111.17148
  -9974429.00406  21198962.06906  -7763118.31348  21198958.66748
 -13854546.45706  21092974.14006 -10787220.33247  21092971.23747
   1122678.68007  20535093.89807    879093.60548  20535090.85848
 -22219682.91807  19263938.29607 -17304090.33249  19263933.03449
  -4369753.21506  21487049.61606  -3387396.03947  21487044.74947
 -19130775.19107  20166842.15507 -14898600.37148  20166838.84748
  -4290095.25006  22604578.86606  -3318420.22347  22604577.00747
 08 11  4  2 18 59.9950000  0  9  3  6  7 13 16 19 23 25 27
 -22877205.63707  18406421.08507 -17788405.16849  18406418.48349
 -14123808.27707  19191110.15507 -10986951.82048  19191107.58148
 -10087857.69106  21177377.53806  -7851504.28548  21177374.51148
 -13834334.35506  21096820.71006 -10771470.66447  21096816.80047
   1153193.88707  20540900.74907    902871.67648  20540897.40548
 -22290288.99607  19250502.24907 -17359108.05149  19250497.76149
  -4312973.68807  21497854.19407  -3343152.28947  21497849.66747
 -19210157.37507  20151736.10107 -14960456.61348  20151732.97648
  -4405863.70706  22582549.32706  -3408629.39547  22582546.67147
 08 11  4  2 19 29.9950000  0  9  3  6  7 13 16 19 23 25 27
 -22885660.07407  18404812.35807 -17794993.04749  18404809.60849
 -14107749.16807  19194166.12407 -10974438.23448  19194163.28848
 -10201050.49206  21155837.35106  -7939706.45748  21155834.33148
 -13813645.07006  21100757.24906 -10755349.14547  21100754.64447
   1183834.30507  20546731.73307    926747.29348  20546728.51148
 -22360472.81607  19237146.91307 -17413796.73049  19237142.01949
  -4255951.37106  21508705.15506  -3298719.34047  21508700.35547
 -19289167.58207  20136700.96007 -15022023.01248  20136697.85548
  -4521530.99205  22560538.17105  -3498759.73047  22560536.05847
 08 11  4  2 19 59.9950000  0  9  3  6  7 13 16 19 23 25 27
 -22893697.40607  18403283.06207 -17801255.91049  18403279.81949
 -14091387.02707  19197279.93707 -10961688.51248  19197277.70248
 -10314013.33206  21134340.75706  -8027729.43448  21134337.75348
 -13792489.33606  21104783.30406 -10738864.17647  21104780.26947
   1214591.29707  20552584.78807    950713.76248  20552581.28048
 -22430242.46907  19223869.60107 -17468162.69549  19223865.52649
  -4198697.75006  21519599.86606  -3254106.16847  21519594.67147
 -19367812.09807  20121735.57707 -15083304.45348  20121731.93748
  -4637103.58605  22538545.18705  -3588816.26247  22538543.33547
 08 11  4  2 20 29.9950000  0  9  3  6  7 13 16 19 23 25 27
 -22901321.87507  18401831.78007 -17807197.05549  18401829.22649
 -14074726.02307  19200450.45207 -10948705.91848  19200447.89448
 -10426746.30106  21112888.81206  -8115573.30548  21112885.63248
 -13770872.14807  21108897.00707 -10722019.61747  21108893.60147
   1245462.32807  20558458.95207    974769.09048  20558455.78048
 -22499600.44907  19210671.44407 -17522207.88349  19210666.88249
  -4141218.96506  21530537.79606  -3209317.55947  21530533.23347
 -19446091.55107  20106839.46807 -15144301.43448  20106835.72248
  -4752581.74605  22516570.45205  -3678799.21546  22516568.10146
 08 11  4  2 20 59.9950000  0  9  3  6  7 13 16 19 23 25 27
 -22908533.36307  18400459.56207 -17812816.40649  18400456.66349
 -14057766.64107  19203677.70207 -10935490.82448  19203674.57748
 -10539245.38306  21091480.77306  -8203234.91448  21091477.62448
 -13748794.24606  21113097.96006 -10704816.07047  21113094.49147
   1276448.85507  20564356.16307    998914.41048  20564352.61248
 -22568545.04707  19197551.79607 -17575930.94149  19197546.76949
  -4083516.70306  21541518.00706  -3164354.78547  21541513.64047
 -19524002.42207  20092013.47607 -15205011.21548  20092010.15548
  -4867961.77706  22494614.92106  -3768705.72747  22494612.58947
 08 11  4  2 21 29.9950000  0  9  3  6  7 13 16 19 23 25 27
 -22915335.33607  18399165.47607 -17818116.65249  18399162.69849
 -14040512.58207  19206960.49107 -10922046.10948  19206957.97648
 -10651509.79706  21070117.46006  -8290713.67248  21070114.52348
 -13726260.26607  21117386.48307 -10687257.14847  21117382.72647
   1307548.74207  20570274.33507   1023148.07048  20570270.68348
 -22637077.68807  19184510.28807 -17629332.99249  19184505.30049
  -4025596.26206  21552539.76506  -3119222.02047  21552535.54247
 -19601544.64807  20077257.71807 -15265433.73048  20077254.14848
  -4983243.57805  22472677.21805  -3858535.66047  22472675.02647
 08 11  4  2 21 59.9950000  0  9  3  6  7 13 16 19 23 25 27
 -22921735.90207  18397947.16307 -17823104.10549  18397944.10149
 -14022972.33207  19210298.71007 -10908378.38748  19210296.11648
 -10763543.73806  21048798.17906  -8378012.83648  21048794.84748
 -13703279.19506  21121759.56206 -10669349.83247  21121755.83547
   1338755.30507  20576212.81207   1047464.84048  20576208.98348
 -22705205.10507  19171546.05407 -17682419.28949  19171541.48749
  -3967467.74606  21563602.06206  -3073927.11347  21563597.15947
 -19678722.93407  20062571.07707 -15325572.64148  20062568.12448
  -5098431.69506  22450757.71006  -3948292.64847  22450755.22647
 08 11  4  2 22 29.9950000  0  9  3  6  7 13 16 19 23 25 27
 -22927736.83608  18396805.32708 -17827780.16849  18396802.67949
 -14005148.02707  19213690.45207 -10894489.32048  19213687.45248
 -10875344.90606  21027523.15506  -8465130.61748  21027519.85848
 -13679853.86306  21126217.03806 -10651096.32447  21126213.94847
   1370068.23407  20582171.07707   1071864.50448  20582167.68748
 -22772927.53507  19158658.89807 -17735190.01649  19158654.42949
  -3909134.76206  21574701.32706  -3028472.88347  21574697.44447
 -19755535.65207  20047954.11607 -15385426.70348  20047950.55848
  -5213524.33605  22428856.74105  -4037975.19147  22428854.17947
 08 11  4  2 22 59.9950000  0  9  3  6  7 13 16 19 23 25 27
 -22933339.20707  18395739.53807 -17832145.65649  18395736.56549
 -13987041.00807  19217136.07707 -10880379.96148  19217133.42948
 -10986910.15206  21006292.89806  -8552064.56348  21006289.65948
 -13655986.15606  21130758.47606 -10632498.13747  21130756.15547
   1401488.07407  20588150.24107   1096347.46948  20588146.49548
 -22840244.07407  19145848.67107 -17787644.46149  19145844.53449
  -3850600.38306  21585840.42906  -2982861.71947  21585836.61647
 -19831980.16007  20033407.12407 -15444993.85248  20033403.49548
  -5328518.68406  22406973.21006  -4127581.14547  22406971.35847
 08 11  4  2 23 29.9950000  0  9  3  6  7 13 16 19 23 25 27
 -22938545.33207  18394748.67907 -17836202.38349  18394745.91349
 -13968654.28107  19220635.15507 -10866052.65248  19220632.48348
 -11098238.37506  20985107.53806  -8638813.80148  20985104.67548
 -13631679.98006  21135384.67906 -10613558.25447  21135381.28447
   1433013.32007  20594149.35807   1120912.57848  20594145.87048
 -22907155.99607  19133115.96807 -17839783.62549  19133111.37849
  -3791868.93006  21597016.75706  -2937097.00847  21597012.71847
 -19908055.93407  20018930.23307 -15504273.67648  20018926.84748
  -5443413.84406  22385109.99106  -4217109.82847  22385107.93747
 08 11  4  2 23 59.9950000  0  9  3  6  7 13 16 19 23 25 27
 -22943356.22307  18393833.17907 -17839951.12949  18393830.12449
 -13949988.73407  19224187.30407 -10851508.08648  19224184.29248
 -11209325.59406  20963968.78006  -8725375.25848  20963964.74948
 -13606936.92206  21140092.35806 -10594277.98447  21140089.71047
   1464644.91407  20600168.56207   1145560.56348  20600164.96048
 -22973662.00807  19120460.62407 -17891606.47749  19120455.59349
  -3732942.75806  21608230.10806  -2891180.55947  21608226.38647
 -19983759.84407  20004524.17907 -15563263.73448  20004521.03848
  -5558206.78506  22363264.89006  -4306558.84847  22363263.32747
 08 11  4  2 24 29.9950000  0  9  3  6  7 13 16 19 23 25 27
 -22947776.95307  18392991.87407 -17843395.86349  18392988.88249
 -13931049.80907  19227790.93707 -10836750.48048  19227788.30448
 -11320172.91806  20942875.11606  -8811749.77748  20942871.50748
 -13581763.46506  21144882.92906 -10574662.28547  21144880.06547
   1496379.44107  20606207.41307   1170288.75847  20606203.40547
 -23039765.85207  19107881.23307 -17943115.96949  19107876.30449
  -3673829.02006  21619479.81906  -2845117.93447  21619474.84347
 -20059093.75007  19990188.74107 -15621965.46948  19990185.16348
  -5672898.92606  22341439.38206  -4395929.34047  22341437.80447
 08 11  4  2 24 59.9950000  0  9  3  6  7 13 16 19 23 25 27
 -22951803.05108  18392225.91308 -17846533.09049  18392223.32749
 -13911833.09407  19231447.96007 -10821776.42648  19231445.06948
 -11430772.12107  20921829.31907  -8897930.95748  20921825.23748
 -13556155.80506  21149755.04606 -10554708.28947  21149752.71447
   1528222.39807  20612266.96807   1195101.43048  20612263.08548
 -23105461.18807  19095379.92107 -17994307.13749  19095375.36649
  -3614525.05506  21630764.81906  -2798907.09447  21630759.84347
 -20134049.64507  19975924.87407 -15680372.66048  19975922.09748
  -5787481.84006  22319635.65506  -4485214.70347  22319633.77347
 08 11  4  2 25 29.9950000  0  9  3  6  7 13 16 19 23 25 27
 -22955433.43807  18391534.91307 -17849361.97349  18391532.12049
 -13892338.51207  19235157.57707 -10806585.85548  19235154.79248
 -11541118.26607  20900830.85107  -8983914.95747  20900826.80047
 -13530114.42206  21154711.41306 -10534416.32047  21154708.97247
   1560176.15607  20618347.10107   1220000.44148  20618344.23348
 -23170745.94507  19082956.91307 -18045178.36349  19082952.01149
  -3555031.94906  21642085.77306  -2752548.85547  21642081.44847
 -20208623.38307  19961733.63207 -15738482.06648  19961730.87848
  -5901951.61306  22297852.51506  -4574411.90647  22297850.61647
 08 11  4  2 25 59.9950000  0  9  3  6  7 13 16 19 23 25 27
 -22958669.00007  18390919.17107 -17851883.19149  18390916.58149
 -13872566.93007  19238919.63207 -10791179.43448  19238917.15548
 -11651207.77007  20879881.19407  -9069698.96148  20879877.64048
 -13503640.99606  21159749.28806 -10513787.69547  21159745.80047
   1592241.48407  20624449.11607   1244986.38347  20624446.14847
 -23235619.17207  19070611.88207 -18095728.92649  19070606.51549
  -3495352.22706  21653442.81206  -2706045.24247  21653438.10847
 -20282812.23807  19947616.32707 -15796291.57048  19947613.23048
  -6016304.87506  22276091.86606  -4663518.34047  22276090.22647
 08 11  4  2 26 29.9950000  0  9  3  6  7 13 16 19 23 25 27
 -22961507.07007  18390379.33507 -17854094.67649  18390376.24549
 -13852515.96107  19242735.55407 -10775555.31648  19242732.85548
 -11761033.72706  20858981.82706  -9155277.61348  20858978.63248
 -13476733.71906  21164868.97606 -10492821.01247  21164866.78047
   1624422.63307  20630573.58507   1270062.58247  20630570.06547
 -23300076.48807  19058346.05407 -18145955.40249  19058341.18349
  -3435485.01606  21664834.92906  -2659395.52347  21664829.63647
 -20356609.93007  19933573.20207 -15853796.26648  19933569.93748
  -6130535.25806  22254354.57706  -4752529.02047  22254352.56547
 08 11  4  2 26 59.9950000  0  9  3  6  7 13 16 19 23 25 27
 -22963950.79707  18389914.33507 -17855998.88349  18389911.08549
 -13832188.53107  19246603.59307 -10759715.77748  19246600.98748
 -11870594.95707  20838133.36607  -9240649.99248  20838129.92548
 -13449396.70706  21170071.11606 -10471519.46147  21170068.21847
   1656718.56607  20636719.23307   1295228.22748  20636716.24148
 -23364118.92607  19046158.89007 -18195858.59049  19046153.90149
  -3375434.57806  21676262.39006  -2612603.01647  21676257.22647
 -20430015.80507  19919604.31907 -15910995.65648  19919601.38648
  -6244641.68006  22232641.02306  -4841443.08647  22232638.75747
 08 11  4  2 27 29.9950000  0  9  3  6  7 13 16 19 23 25 27
 -22966009.43007  18389522.56907 -17857603.01249  18389519.47649
 -13811594.68807  19250522.53807 -10743668.63748  19250519.91348
 -11979897.06306  20817333.71806  -9325820.44948  20817330.32748
 -13421641.07806  21175353.90506 -10449891.73047  21175350.34747
   1689120.79707  20642884.68707   1320476.69148  20642881.70248
 -23427754.93407  19034049.61607 -18245445.08249  19034044.37049
  -3315213.00006  21687721.98306  -2565677.13747  21687717.06247
 -20503036.28507  19905709.03807 -15967894.73048  19905706.02348
  -6358630.19106  22210949.81206  -4930265.28147  22210947.10547
 08 11  4  2 27 59.9950000  0  9  3  6  7 13 16 19 23 25 27
 -22967679.41007  18389204.73307 -17858904.29749  18389201.89449
 -13790731.07007  19254492.80407 -10727411.27748  19254490.18748
 -12088932.26207  20796584.78807  -9410782.91448  20796581.92548
 -13393463.94506  21180714.99106 -10427935.55547  21180712.12847
   1721634.57407  20649071.93707   1345812.05948  20649068.25748
 -23490979.43807  19022017.99907 -18294710.93049  19022013.13649
  -3254818.15206  21699214.89006  -2518616.25047  21699210.78847
 -20575664.12507  19891888.35807 -16024487.85948  19891885.74548
  -6472493.30906  22189282.49906  -5018989.77747  22189279.83147
 08 11  4  2 28 29.9950000  0  9  3  6  7 13 16 19 23 25 27
 -22968966.09807  18388959.71007 -17859906.91849  18388956.71849
 -13769603.09007  19258513.22607 -10710947.92248  19258510.67548
 -12197701.28907  20775887.19407  -9495537.98448  20775883.84748
 -13364871.44106  21186156.56206 -10405655.71147  21186153.22647
   1754256.36706  20655280.19406   1371231.61347  20655276.10147
 -23553795.74607  19010064.96007 -18343658.69549  19010059.87849
  -3194256.89506  21710739.20206  -2471425.69547  21710734.52647
 -20647901.00007  19878142.14007 -16080776.34448  19878139.19048
  -6586232.24206  22167637.87406  -5107617.51247  22167635.67547
 08 11  4  2 28 59.9950000  0  9  3  6  7 13 16 19 23 25 27
 -22969871.50007  18388787.60107 -17860612.43049  18388784.49949
 -13748212.92207  19262584.00707 -10694280.27048  19262581.07348
 -12306202.03907  20755240.14007  -9580084.01248  20755236.51948
 -13335866.89506  21191675.42906 -10383054.76247  21191672.65547
   1786985.89506  20661508.03806   1396735.11347  20661504.79247
 -23616203.97707  18998189.00707 -18392288.48849  18998183.98749
  -3133533.18806  21722294.49106  -2424108.59047  21722289.74947
 -20719745.50407  19864470.56207 -16136759.06648  19864467.78048
  -6699845.43006  22146017.81906  -5196147.25047  22146016.28047
 08 11  4  2 29 29.9950000  0  9  3  6  7 13 16 19 23 25 27
 -22970398.06307  18388687.40507 -17861022.73049  18388683.96449
 -13726563.20307  19266703.46007 -10677410.36748  19266701.03448
 -12414432.81307  20734644.17907  -9664419.66448  20734641.12448
 -13306453.66806  21197272.71806 -10360135.39547  21197269.90947
   1819822.02706  20667756.89006   1422321.69147  20667752.90547
 -23678205.29707  18986390.34307 -18440601.19949  18986385.47249
  -3072651.09806  21733880.21806  -2376668.03947  21733875.73347
 -20791196.49207  19850874.03007 -16192435.16048  19850871.25348
  -6813331.28506  22124422.31206  -5284577.79347  22124420.05447
 08 11  4  2 29 59.9950000  0  9  3  6  7 13 16 19 23 25 27
 -22970549.91808  18388658.27308 -17861141.07049  18388655.51949
 -13704658.78907  19270871.73307 -10660342.00048  19270869.21048
 -12522394.25807  20714100.11607  -9748545.46148  20714096.56548
 -13276637.72706  21202946.38206 -10336902.21947  21202943.72647
   1852761.44506  20674024.38206   1447988.77047  20674021.37447
 -23739802.97707  18974668.74907 -18488599.39549  18974663.74949
  -3011617.14506  21745494.49906  -2329109.15647  21745490.20247
 -20862255.39107  19837352.03007 -16247805.73848  19837349.12848
  -6926690.78106  22102850.99106  -5372909.84447  22102848.69847
 08 11  4  2 30 29.9950000  0  9  3  6  7 13 16 19 23 25 27
 -22970325.14808  18388701.39008 -17860965.92649  18388698.44449
 -13682498.00007  19275088.85107 -10643073.86348  19275085.93348
 -12630079.77307  20693607.89807  -9832456.24648  20693604.53048
 -13246418.21506  21208696.41306 -10313354.56347  21208693.58947
   1885808.19506  20680313.60106   1473739.44547  20680309.97247
 -23800993.30507  18963024.62407 -18536280.16849  18963019.65549
  -2950430.96906  21757138.39006  -2281431.65647  21757133.31247
 -20932916.64507  19823905.94407 -16302866.45348  19823902.69848
  -7039917.93806  22081304.96006  -5461138.77747  22081302.07347
 08 11  4  2 30 59.9950000  0  9  3  6  7 13 16 19 23 25 27
 -22969721.78907  18388816.24907 -17860495.78549  18388813.14849
 -13660078.49207  19279355.26507 -10625604.12548  19279352.85848
 -12737483.03107  20673169.66307  -9916147.10548  20673166.76948
 -13215794.09806  21214523.90506 -10289491.64847  21214521.72247
   1918966.22706  20686623.53006   1499576.84847  20686619.40547
 -23861772.09407  18951458.78007 -18583640.25449  18951454.06549
  -2889091.85206  21768809.72606  -2233634.98047  21768805.74947
 -21003174.38707  19810536.14007 -16357612.74648  19810533.06548
  -7153006.55106  22059784.30406  -5549259.77047  22059782.13247
 08 11  4  2 31 29.9950000  0  9  3  6  7 13 16 19 23 25 27
 -22968749.49607  18389000.84307 -17859738.14849  18388997.60549
 -13637410.46507  19283668.60807 -10607940.73848  19283666.01948
 -12844609.30907  20652784.02307  -9999622.11748  20652781.16748
 -13184775.91406  21220427.37406 -10265321.64547  21220424.44047
   1952226.98006  20692953.10106   1525494.29747  20692948.66747
 -23922148.13307  18939969.92907 -18630686.52049  18939964.79249
  -2827611.40206  21780509.93706  -2185728.20347  21780505.74147
 -21073035.03507  19797241.85807 -16412049.62148  19797239.16348
  -7265962.63306  22038289.62406  -5637277.48847  22038287.35847
 08 11  4  2 31 59.9950000  0  9  3  6  7 13 16 19 23 25 27
 -22967404.55907  18389257.12407 -17858690.14549  18389254.33549
 -13614490.52307  19288030.51507 -10590081.04348  19288027.84748
 -12951451.15207  20632453.52307 -10082875.49648  20632449.70648
 -13153361.20306  21226405.31206 -10240842.68047  21226402.51147
   1985595.86306  20699302.88206   1551496.00847  20699298.58147
 -23982116.01207  18928558.17107 -18677414.73449  18928553.52649
  -2765988.05106  21792236.21806  -2137710.09447  21792232.60847
 -21142491.53507  19784025.21007 -16466171.57048  19784021.85548
  -7378778.74206  22016821.33506  -5725186.11747  22016819.21047
 08 11  4  2 32 29.9950000  0  9  3  6  7 13 16 19 23 25 27
 -22965692.25807  18389582.46007 -17857355.89149  18389580.09749
 -13591323.68407  19292439.03007 -10572028.97348  19292436.41748
 -13058009.01207  20612176.17907 -10165907.59448  20612172.06948
 -13121556.10906  21232457.73306 -10216059.49247  21232455.56247
   2019069.59006  20705672.62406   1577579.40647  20705668.46847
 -24041679.22307  18917224.14007 -18723827.62149  18917218.76549
  -2704227.98806  21803989.09306  -2089585.41847  21803984.80047
 -21211545.41007  19770884.78007 -16519979.78548  19770881.26948
  -7491455.59806  21995379.99106  -5812986.24647  21995377.15947
 08 11  4  2 32 59.9950000  0  9  3  6  7 13 16 19 23 25 27
 -22963610.19107  18389978.99907 -17855733.50849  18389976.26949
 -13567908.19907  19296894.78007 -10553783.15248  19296891.86248
 -13164276.86307  20591954.06207 -10248713.70748  20591949.83548
 -13089360.05106  21238583.60806 -10190971.69947  21238581.81547
   2052651.72706  20712063.24906   1603747.27047  20712059.39047
 -24100834.46507  18905966.88207 -18769922.61349  18905961.64049
  -2642331.04706  21815767.53806  -2041354.09047  21815762.91747
 -21280191.34807  19757821.38207 -16573470.12548  19757818.56948
  -7603987.81606  21973965.61606  -5900673.66447  21973962.65547
 08 11  4  2 33 29.9950000  0  9  3  6  7 13 16 19 23 25 27
 -22961165.83607  18390444.01507 -17853828.82849  18390440.87049
 -13544251.52007  19301396.11607 -10535349.39148  19301393.73348
 -13270257.73007  20571786.38207 -10331296.19548  20571782.74148
 -13056781.71106  21244783.96806 -10165585.97747  21244780.75347
   2086336.65206  20718472.69406   1629995.23847  20718469.51547
 -24159587.35507  18894786.26507 -18815704.08249  18894781.33149
  -2580306.45706  21827570.40506  -1993023.28947  21827566.14047
 -21348433.14807  19744835.70207 -16626645.55148  19744832.42548
  -7716378.81306  21952578.14806  -5988251.04747  21952575.73047
 08 11  4  2 33 59.9950000  0  9  3  6  7 13 16 19 23 25 27
 -22958358.34807  18390978.24107 -17851641.16848  18390975.48348
 -13520352.73007  19305944.26507 -10516726.97348  19305941.34748
 -13375946.24207  20551674.03007 -10413650.87548  20551671.03448
 -13023820.98006  21251055.88206 -10139902.28547  21251053.36247
   2120127.04706  20724903.40506   1656325.36347  20724899.63647
 -24217935.41407  18883683.07707 -18861170.09849  18883678.16749
  -2518154.66006  21839397.60106  -1944593.39847  21839393.16347
 -21416266.41807  19731927.56207 -16679502.64148  19731924.52648
  -7828623.35906  21931218.70206  -6075714.30947  21931216.19447
 08 11  4  2 34 29.9950000  0  9  3  6  7 13 16 19 23 25 27
 -22955191.21107  18391580.56207 -17849173.27348  18391578.17948
 -13496215.96107  19310537.33507 -10497919.10248  19310534.89848
 -13481341.94907  20531618.46807 -10495777.38348  20531614.90948
 -12990483.30906  21257400.55406 -10113924.91447  21257397.41347
   2154020.68806  20731352.49906   1682735.97747  20731349.22247
 -24275880.93407  18872656.14807 -18906322.45349  18872651.66349
  -2455881.41806  21851247.61606  -1896068.84847  21851243.83547
 -21483691.57807  19719096.73307 -16732041.72748  19719093.67948
  -7940721.26606  21909887.46006  -6163063.32847  21909885.30447
 08 11  4  2 34 59.9950000  0  9  3  6  7 13 16 19 23 25 27
 -22951668.27307  18392251.05407 -17846428.13348  18392248.21048
 -13471845.14507  19315175.00707 -10478928.86348  19315172.60148
 -13586444.36707  20511617.84307 -10577675.36748  20511614.24948
 -12956772.94506  21263814.98306 -10087657.09847  21263812.33547
   2188015.28906  20737821.35806   1709225.23847  20737817.97247
 -24333426.30907  18861705.74907 -18951163.00849  18861701.10549
  -2393492.16006  21863120.06206  -1847453.89847  21863115.96847
 -21550709.03107  19706343.79607 -16784263.12548  19706340.58548
  -8052672.60906  21888584.04606  -6250298.12547  21888581.28847
 08 11  4  2 35 29.9950000  0  9  3  6  7 13 16 19 23 25 27
 -22947785.50007  18392990.20207 -17843402.59449  18392987.48049
 -13447235.91407  19319858.00707 -10459752.85948  19319855.64448
 -13691244.90207  20491674.77307 -10659338.10248  20491671.25748
 -12922687.02306  21270301.08506 -10061096.65247  21270298.40547
   2222117.19906  20744311.08506   1735798.10547  20744307.84347
 -24390565.71507  18850832.68707 -18995687.21949  18850827.81549
  -2330984.04306  21875015.41306  -1798746.31647  21875010.59347
 -21617310.94507  19693669.75707 -16836160.72748  19693666.33148
  -8164468.99606  21867309.59306  -6337412.19547  21867306.70647
 08 11  4  2 35 59.9950000  0  9  3  6  7 13 16 19 23 25 27
 -22943540.12507  18393798.21007 -17840094.52349  18393795.28449
 -13422386.10907  19324586.29607 -10440389.39148  19324584.12048
 -13795737.09007  20471791.06207 -10740760.57048  20471786.98748
 -12888224.46506  21276859.70206 -10034242.73847  21276856.70247
   2256330.30506  20750821.77306   1762457.64847  20750817.24147
 -24447295.40207  18840037.21807 -19039892.16449  18840032.18349
  -2268356.66806  21886931.84306  -1749945.82447  21886928.37447
 -21683491.71107  19681075.90507 -16887730.15648  19681072.64848
  -8276104.33606  21846065.94406  -6424400.74247  21846063.35847
 08 11  4  2 36 29.9950000  0  9  3  6  7 13 16 19 23 25 27
 -22938928.39507  18394675.55407 -17836500.96549  18394672.70249
 -13397292.22307  19329361.80407 -10420835.72748  19329359.23748
 -13899912.72707  20451966.39807 -10821936.38348  20451962.61648
 -12853382.77306  21283489.18706 -10007093.37547  21283487.06547
   2290659.87906  20757354.41306   1789207.95347  20757350.78847
 -24503610.02007  18829320.78807 -19083773.67649  18829316.04649
  -2205607.61706  21898873.42906  -1701050.49247  21898869.75747
 -21749243.94507  19668564.20207 -16938965.66448  19668560.77348
  -8387570.57806  21824854.76506  -6511257.53947  21824851.73347
 08 11  4  2 36 59.9950000  0  9  3  6  7 13 16 19 23 25 27
 -22933951.93807  18395622.80407 -17832623.21148  18395619.49548
 -13371955.58207  19334183.32707 -10401092.89848  19334180.81948
 -14003768.91807  20432203.84307 -10902863.26648  20432199.68348
 -12818164.93006  21290191.49106  -9979650.93047  21290188.68347
   2325106.19906  20763909.21006   1816049.21947  20763905.76947
 -24559510.20707  18818683.31907 -19127332.26649  18818678.59349
  -2142740.08606  21910837.02306  -1652062.84047  21910832.77347
 -21814565.96507  19656133.67907 -16989865.94148  19656130.15548
  -8498865.42606  21803676.42906  -6597980.80547  21803673.26147
 08 11  4  2 37 29.9950000  0  9  3  6  7 13 16 19 23 25 27
 -22928611.00407  18396639.17107 -17828461.44149  18396636.63249
 -13346376.78507  19339050.70207 -10381161.36748  19339047.95248
 -14107301.97307  20412501.69407 -10983538.35948  20412498.30448
 -12782571.92206  21296964.67906  -9951916.14147  21296961.94847
   2359671.00806  20770486.34306   1842982.80547  20770483.39047
 -24614993.87507  18808125.35107 -19170566.29749  18808120.48049
  -2079755.95306  21922822.67906  -1602984.36747  21922817.80847
 -21879454.52707  19643785.73307 -17040428.47348  19643782.71848
  -8609985.00406  21782530.28006  -6684567.47747  21782527.69447
 08 11  4  2 37 59.9950000  0  9  3  6  7 13 16 19 23 25 27
 -22922903.91007  18397725.17107 -17824014.35949  18397722.25749
 -13320553.85907  19343964.76507 -10361039.62548  19343962.23748
 -14210505.56307  20392862.96007 -11063956.73448  20392859.40948
 -12746603.34806  21303809.01506  -9923888.69147  21303806.22647
   2394357.36706  20777087.89006   1870011.10547  20777084.13647
 -24670058.31307  18797646.85807 -19213473.64149  18797642.17549
  -2016654.98006  21934830.28806  -1553814.78947  21934826.59347
 -21943904.44907  19631521.08507 -17090649.18848  19631518.12848
  -8720923.53906  21761419.55406  -6771013.07447  21761416.97247
 08 11  4  2 38 29.9950000  0  9  3  6  7 13 16 19 23 25 27
 -22916829.74607  18398880.85807 -17819281.25449  18398878.58549
 -13294486.27307  19348925.40507 -10340727.23848  19348922.76948
 -14313374.21107  20373287.68707 -11144114.11748  20373284.50748
 -12710259.59406  21310725.16306  -9895568.90247  21310721.67147
   2429167.80906  20783711.56906   1897136.10947  20783708.14447
 -24724701.02007  18787248.56207 -19256052.35949  18787243.74949
  -1953438.07806  21946859.59306  -1504554.90247  21946855.90947
 -22007911.71107  19619341.22607 -17140524.98048  19619338.11648
  -8831676.32405  21740343.81205  -6857313.93447  21740341.54647
 08 11  4  2 38 59.9950000  0  9  3  6  7 13 16 19 23 25 27
 -22910399.85907  18400104.59307 -17814270.96149  18400101.57749
 -13268185.63307  19353930.21007 -10320233.25848  19353927.40948
 -14415915.66407  20353774.64807 -11224016.52748  20353770.99548
 -12673553.27006  21317710.21806  -9866966.59847  21317707.55047
   2464092.98806  20790357.21006   1924350.50447  20790354.85147
 -24778932.02707  18776929.14007 -19298310.28549  18776924.33949
  -1890118.56306  21958909.72606  -1455215.05947  21958904.83147
 -22071484.25807  19607243.38207 -17190062.02748  19607240.51948
  -8942250.68006  21719302.71806  -6943475.75847  21719299.78447
 08 11  4  2 39 29.9950000  0  9  3  6  7 13 16 19 23 25 27
 -22903615.99607  18401395.38207 -17808984.83249  18401392.52349
 -13241653.92207  19358978.92107 -10299559.19548  19358975.96048
 -14518127.57007  20334324.14007 -11303662.17248  20334320.79248
 -12636487.80106  21324763.74906  -9838084.43447  21324760.87047
   2499132.48406  20797025.95206   1951653.98047  20797022.81547
 -24832752.05507  18766687.28807 -19340247.96549  18766682.63649
  -1826699.32006  21970977.20206  -1405797.52747  21970973.55047
 -22134620.79707  19595229.20207 -17239259.33648  19595226.01148
  -9052644.52706  21698295.46006  -7029496.91447  21698292.51147
 08 11  4  2 39 59.9940000  0  9  3  6  7 13 16 19 23 25 27
 -22896465.64107  18402756.19007 -17803413.12549  18402753.15049
 -13214879.12907  19364074.34607 -10278695.72348  19364071.17448
 -14619989.04307  20314940.94707 -11383034.73448  20314937.26048
 -12599052.77706  21331887.14306  -9808914.30147  21331883.97947
   2534299.72706  20803717.83006   1979057.00047  20803714.09647
 -24886145.17607  18756527.02507 -19381852.99649  18756522.14749
  -1763171.72305  21983066.22105  -1356295.56347  21983061.86947
 -22197303.10907  19583300.90807 -17288102.70348  19583297.79148
  -9162837.31306  21677326.29906  -7115361.39847  21677323.58847
 08 11  4  2 40 29.9940000  0  9  3  6  7 13 16 19 23 25 27
 -22888961.32407  18404184.25207 -17797565.62149  18404181.48649
 -13187872.49207  19369213.19707 -10257651.60548  19369210.34648
 -14721515.67607  20295620.91607 -11462146.40248  20295617.25648
 -12561260.03906  21339079.13506  -9779465.43047  21339076.13147
   2569586.06306  20810432.31506   2006552.81647  20810428.84647
 -24939126.39807  18746445.17407 -19423137.05949  18746440.22949
  -1699545.99205  21995173.70505  -1306717.14846  21995169.73646
 -22259544.81307  19571456.52507 -17336602.73048  19571454.10748
  -9272845.18406  21656392.81506  -7201081.79747  21656389.74447
 08 11  4  2 40 59.9940000  0  9  3  6  7 13 16 19 23 25 27
 -22881109.36307  18405678.26007 -17791447.21949  18405675.30349
 -13160641.14807  19374394.96307 -10236432.38348  19374392.56848
 -14822705.84407  20276364.93207 -11540995.88348  20276361.38948
 -12523117.82406  21346337.36906  -9749744.23847  21346334.27547
   2604985.53506  20817169.08006   2034136.78947  20817165.02947
 -24991698.91007  18736440.61907 -19464102.64149  18736436.27949
  -1635831.76606  22007298.70506  -1257069.71546  22007294.59646
 -22321346.59407  19559696.49407 -17384759.96948  19559693.44048
  -9382666.63306  21635494.46306  -7286656.93847  21635491.33047
 08 11  4  2 41 29.9940000  0  9  3  6  7 13 16 19 23 25 27
 -22872900.56307  18407240.36907 -17785050.74649  18407237.71749
 -13133176.19907  19379621.46307 -10215031.12948  19379619.24848
 -14923546.41007  20257176.01007 -11619572.93848  20257172.22948
 -12484618.75006  21353663.32206  -9719744.99247  21353660.14347
   2640508.99606  20823928.73606   2061817.36747  20823924.69747
 -25043852.03107  18726516.57207 -19504741.43449  18726511.32249
  -1572021.70705  22019440.44705  -1207347.68447  22019437.25247
 -22382696.34007  19548021.87707 -17432564.97748  19548018.87348
  -9492288.81606  21614633.86906  -7372076.81647  21614630.69747
 08 11  4  2 41 59.9940000  0  9  3  6  7 13 16 19 23 25 27
 -22864339.67207  18408869.76007 -17778379.93849  18408866.75649
 -13105482.01207  19384891.71307 -10193451.26248  19384889.20548
 -15024037.10207  20238052.83007 -11697877.38348  20238049.50648
 -12445768.46106  21361056.18206  -9689472.05147  21361053.19047
   2676154.05106  20830711.58006   2089592.71547  20830708.27947
 -25095589.04307  18716671.10407 -19545055.97349  18716666.43649
  -1508121.90605  22031600.36905  -1157555.70747  22031597.29947
 -22443594.99207  19536433.10407 -17480018.46948  19536430.32248
  -9601711.85906  21593811.90006  -7457341.50847  21593808.76047
 08 11  4  2 42 29.9940000  0  9  3  6  7 13 16 19 23 25 27
 -22855430.57407  18410564.88507 -17771437.78549  18410561.94749
 -13077563.01607  19390204.48607 -10171696.21148  19390201.95548
 -15124178.13307  20218996.74407 -11775909.34848  20218993.24048
 -12406572.59806  21368514.64306  -9658929.86747  21368511.79547
   2711917.62106  20837517.41606   2117460.39147  20837514.04147
 -25146913.05507  18706904.44007 -19585048.69549  18706899.51449
  -1444138.20706  22043776.08806  -1107698.35247  22043773.30747
 -22504043.82807  19524930.33807 -17527121.45748  19524926.98248
  -9710936.23806  21573026.21306  -7542451.41447  21573024.22147
 08 11  4  2 42 59.9940000  0  9  3  6  7 13 16 19 23 25 27
 -22846175.01207  18412326.08807 -17764225.66049  18412323.40049
 -13049420.42607  19395559.57207 -10149766.92648  19395557.31848
 -15223966.66007  20200007.47107 -11853666.64548  20200004.19748
 -12367033.60906  21376038.90006  -9628120.30947  21376036.32647
   2747800.55506  20844346.33006   2145421.10247  20844342.83847
 -25197823.55107  18697216.71307 -19624719.19549  18697211.81849
  -1380073.32406  22055968.28306  -1057777.77747  22055964.35047
 -22564040.59407  19513513.26007 -17573872.18448  19513509.80748
  -9819958.81306  21552280.11106  -7627404.03947  21552277.83847
 08 11  4  2 43 29.9940000  0  9  3  6  7 13 16 19 23 25 27
 -22836575.93807  18414152.68207 -17756745.87549  18414150.05749
 -13021057.75807  19400956.70507 -10127666.16848  19400954.66248
 -15323401.66407  20181085.60407 -11931148.44948  20181082.12748
 -12327156.41806  21383626.44006  -9597047.16047  21383624.01847
   2783801.08606  20851196.69006   2173473.40247  20851193.51447
 -25248322.83207  18687606.97107 -19664069.27749  18687602.33849
  -1315932.37506  22068173.31506  -1007797.85247  22068170.23247
 -22623585.64507  19502182.21307 -17620270.93048  19502179.27948
  -9928779.20306  21531572.64306  -7712199.14547  21531569.84247
 08 11  4  2 43 59.9940000  0  9  3  6  7 13 16 19 23 25 27
 -22826639.02708  18416043.87708 -17749002.82849  18416041.38149
 -12992480.66807  19406394.93207 -10105398.31348  19406392.38548
 -15422484.28107  20162230.50207 -12008355.68048  20162227.29948
 -12286948.05106  21391278.77506  -9565716.00447  21391276.76847
   2819915.32806  20858068.78306   2201614.34847  20858064.94747
 -25298415.27007  18678074.45507 -19703102.34049  18678069.31149
  -1251722.47705  22080392.04105   -957764.23047  22080388.42047
 -22682681.24607  19490936.76007 -17666319.45348  19490933.70548
 -10037398.90206  21510902.54106  -7796837.85547  21510900.57247
 08 11  4  2 44 29.9940000  0  9  3  6  7 13 16 19 23 25 27
 -22816360.61707  18417999.85407 -17740993.68849  18417996.98649
 -12963685.26207  19411874.36107 -10082960.34048  19411872.41248
 -15521206.59807  20143444.84607 -12085282.15248  20143441.43248
 -12246405.63706  21398994.04106  -9534124.52347  21398990.75247
   2856148.99206  20864963.64306   2229848.36747  20864960.58847
 -25348095.68007  18668620.41607 -19741814.33649  18668615.38949
  -1187441.02706  22092624.50206   -907674.88747  22092621.03747
 -22741320.32407  19479777.97107 -17712012.24248  19479774.77248
 -10145809.82806  21490272.22906  -7881313.89547  21490270.26847
 08 11  4  2 44 59.9940000  0  9  3  6  7 13 16 19 23 25 27
 -22805737.41807  18420021.23607 -17732715.87548  18420018.31848
 -12934668.25807  19417396.53307 -10060349.70348  19417393.70948
 -15619560.82807  20124728.27507 -12161921.80948  20124724.91648
 -12205527.70706  21406772.29906  -9502271.61347  21406769.49847
   2892507.12506  20871882.33006   2258179.37147  20871878.70547
 -25397359.93807  18659245.82207 -19780202.05949  18659241.29549
  -1123086.47706  22104870.83006   -857528.52747  22104867.42847
 -22799496.39107  19468707.54107 -17757344.25048  19468704.48648
 -10254004.70706  21469683.90806  -7965621.60247  21469682.18647
 08 11  4  2 45 29.9940000  0  9  3  6  7 13 16 19 23 25 27
 -22794767.17607  18422108.79107 -17724167.64849  18422105.85449
 -12905427.60507  19422960.65807 -10037564.78548  19422958.24848
 -15717540.74607  20106083.21307 -12238269.78548  20106080.26848
 -12164312.71106  21414616.19006  -9470156.05947  21414612.26447
   2928993.75006  20878826.04906   2286610.48847  20878822.27247
 -25446204.11707  18649951.03307 -19818262.45349  18649946.46749
  -1058658.55106  22117131.51006   -807325.02347  22117128.42447
 -22857204.05107  19457726.47107 -17802311.26248  19457722.74848
 -10361977.44106  21449137.12706  -8049756.18847  21449135.20547
 08 11  4  2 45 59.9940000  0  9  3  6  7 13 16 19 23 25 27
 -22783452.05908  18424261.69008 -17715350.68449  18424258.94349
 -12875965.23007  19428567.04107 -10014607.10248  19428564.85748
 -15815144.17207  20087510.11907 -12314324.38748  20087507.00648
 -12122764.56606  21422521.61106  -9437780.88347  21422518.52947
   2965608.34006  20885792.90006   2315141.30547  20885789.56147
 -25494628.82807  18640736.49407 -19855995.98449  18640731.59649
   -994160.38706  22129405.35406   -757066.79347  22129401.85747
 -22914442.18007  19446834.32207 -17846912.41448  19446830.95148
 -10469726.07806  21428634.07206  -8133716.14547  21428631.37347
 08 11  4  2 46 29.9940000  0  9  3  6  7 13 16 19 23 25 27
 -22771782.66007  18426482.60407 -17706257.66049  18426479.58049
 -12846271.98407  19434217.75207  -9991469.52748  19434215.35048
 -15912357.62107  20069010.97907 -12390075.12948  20069007.92848
 -12080875.32806  21430492.69706  -9405139.94547  21430490.82647
   3002361.79305  20892787.06505   2343780.33647  20892784.19047
 -25542624.05107  18631603.15007 -19893394.85949  18631598.17849
   -929584.29706  22141693.86906   -706747.82047  22141689.83447
 -22971198.60207  19436033.24407 -17891138.18848  19436030.63148
 -10577237.27306  21408174.62706  -8217491.09847  21408172.32647
 08 11  4  2 46 59.9940000  0  9  3  6  7 13 16 19 23 25 27
 -22759767.25807  18428768.77507 -17696895.01648  18428766.20548
 -12816356.28907  19439910.47907  -9968158.59448  19439907.52248
 -16009184.75407  20050585.89307 -12465524.83648  20050582.17848
 -12038654.41406  21438526.85406  -9372240.54347  21438524.55747
   3039248.17205  20899805.65805   2372522.94147  20899802.79147
 -25590196.87507  18622550.15807 -19930464.58649  18622545.27949
   -864939.82806  22153994.87706   -656375.56347  22153991.27947
 -23027478.06607  19425324.15007 -17934992.31348  19425320.94348
 -10684514.75006  21387761.01006  -8301083.93047  21387758.60047
 08 11  4  2 47 29.9940000  0  9  3  6  7 13 16 19 23 25 27
 -22747408.92608  18431120.76808 -17687265.15649  18431117.38949
 -12786220.68807  19445645.15007  -9944676.31648  19445642.69748
 -16105624.28507  20032233.98607 -12540672.51648  20032230.36948
 -11996106.34006  21446623.78306  -9339086.22747  21446621.38547
   3076265.88706  20906851.03306   2401367.88347  20906847.73247
 -25637349.06307  18613577.72107 -19967206.55149  18613572.90849
   -800231.69506  22166308.94706   -605953.69947  22166304.78747
 -23083280.31607  19414705.17407 -17978474.59448  19414702.08848
 -10791557.65206  21367391.01806  -8384493.97347  21367389.06547
 08 11  4  2 47 59.9940000  0  9  3  6  7 13 16 19 23 25 27
 -22734705.92207  18433538.04907 -17677366.71948  18433534.95548
 -12755864.01207  19451421.60407  -9921021.78548  19451419.31148
 -16201670.62107  20013956.45507 -12615513.80948  20013953.62348
 -11953230.89506  21454783.51806  -9305676.82047  21454780.07247
   3113418.28506  20913921.19006   2430317.75447  20913917.50247
 -25684077.32007  18604685.72107 -20003618.17649  18604680.54149
   -735460.08606  22178633.94006   -555482.39547  22178631.02547
 -23138601.10207  19404178.01007 -18021581.70748  19404174.89348
 -10898360.30906  21347067.29106  -8467716.81347  21347065.01447
 08 11  4  2 48 29.9940000  0  9  3  6  7 13 16 19 23 25 27
 -22721668.26607  18436018.96307 -17667207.51248  18436015.95548
 -12725295.92607  19457238.51007  -9897202.50448  19457236.22548
 -16297329.24607  19995753.73607 -12690052.98448  19995750.29948
 -11910039.35906  21463001.94006  -9272021.12147  21462999.64347
   3150696.84806  20921014.59606   2459365.92646  20921010.87746
 -25730390.63707  18595872.40807 -20039706.46949  18595867.59649
   -670636.17206  22190970.82206   -504970.34046  22190966.02546
 -23193446.94507  19393741.24407 -18064318.73048  19393738.06548
 -11004928.50006  21326787.29906  -8550756.95747  21326785.44347
 08 11  4  2 48 59.9940000  0  8  3  6  7 13 16 19 25 27
 -22708304.00807  18438561.97107 -17656793.81648  18438559.13548
 -12694524.52707  19463094.44707  -9873224.81348  19463091.57648
 -16392604.23807  19977623.23607 -12764293.23048  19977619.80348
 -11866541.27306  21471279.27506  -9238126.54747  21471276.51447
   3188095.84405  20928131.68205   2488507.98047  20928128.09247
 -25776296.20707  18587136.45507 -20075477.04349  18587131.40449
 -23247822.95707  19383393.98607 -18106689.65248  19383390.77248
 -11111266.34006  21306551.62706  -8633617.58647  21306550.01047
 08 11  4  2 49 29.9940000  0  8  3  6  7 13 16 19 25 27
 -22694613.59807  18441167.10407 -17646125.97348  18441164.33048
 -12663550.36307  19468988.85407  -9849089.10948  19468986.32648
 -16487491.77307  19959567.12707 -12838231.56648  19959563.22148
 -11822738.40606  21479615.04906  -9203994.46947  21479612.08047
   3225616.37106  20935271.06506   2517744.75447  20935267.85047
 -25821792.92207  18578478.93207 -20110929.02049  18578474.28349
 -23301726.35507  19373136.33007 -18148692.31648  19373133.22548
 -11217370.23406  21286361.30706  -8716295.93447  21286359.28747
 08 11  4  2 49 59.9940000  0  8  3  6  7 13 16 19 25 27
 -22680600.17208  18443833.97108 -17635206.41848  18443831.09648
 -12632376.67207  19474920.93207  -9824797.92648  19474918.30348
 -16581990.82007  19941584.15807 -12911867.19148  19941580.36948
 -11778635.48806  21488007.36906  -9169628.59047  21488004.68247
   3263256.68806  20942434.17406   2547074.84847  20942430.47147
 -25866883.18807  18569898.81507 -20146064.29349  18569893.80349
 -23355157.69107  19362968.78307 -18190327.12948  19362965.68648
 -11323239.38706  21266215.35406  -8798791.35947  21266212.62747
 08 11  4  2 50 29.9940000  0  8  3  6  7 13 16 19 25 27
 -22666252.77707  18446564.18207 -17624026.63348  18446561.29548
 -12600992.34407  19480892.76807  -9800342.62948  19480890.38548
 -16676086.00807  19923678.51807 -12985188.11348  19923674.99848
 -11734223.09406  21496458.54106  -9135021.57847  21496456.56847
   3301029.80906  20949622.24406   2576508.42247  20949618.67447
 -25911554.76207  18561398.03307 -20180873.30549  18561393.07649
 -23408102.65607  19352893.36107 -18231582.94948  19352890.29948
 -11428858.61306  21246116.61106  -8881092.04747  21246113.96747
 08 11  4  2 50 59.9940000  0  8  3  6  7 13 16 19 25 27
 -22651581.85207  18449355.82207 -17612594.74648  18449353.09648
 -12569407.44107  19486903.17407  -9775731.02348  19486900.96348
 -16769783.25407  19905848.17407 -13058198.95348  19905845.04548
 -11689512.55506  21504966.78306  -9100182.24646  21504964.33846
   3338927.59006  20956833.44006   2606039.12147  20956830.44047
 -25955816.81607  18552975.26807 -20215363.21549  18552970.22149
 -23460568.16407  19342909.65807 -18272465.16848  19342906.83848
 -11534233.78506  21226064.57206  -8963202.56347  21226061.54947
 08 11  4  2 51 29.9940000  0  8  3  6  7 13 16 19 25 27
 -22636590.37507  18452208.89307 -17600913.08248  18452206.22548
 -12537625.03107  19492951.22107  -9750965.52748  19492949.01848
 -16863081.43807  19888094.47907 -13130898.83248  19888090.39348
 -11644508.48806  21513530.64306  -9065114.16846  21513528.26446
   3376948.62506  20964069.28306   2635665.86747  20964066.09247
 -25999670.88307  18544629.55707 -20249535.20749  18544625.23649
 -23512554.49207  19333016.94707 -18312973.99648  19333014.28348
 -11639364.00806  21206059.01006  -9045122.22347  21206056.06847
 08 11  4  2 51 59.9940000  0  8  3  6  7 13 16 19 25 27
 -22621270.30907  18455124.13507 -17588975.37548  18455121.38148
 -12505637.17607  19499038.51007  -9726039.94948  19499036.27248
 -16955968.53907  19870418.34607 -13203278.38748  19870415.23248
 -11599204.12905  21522151.57205  -9029812.07446  21522149.41246
   3415102.49206  20971329.73606   2665396.12147  20971326.08847
 -26043108.34807  18536364.18207 -20283382.59049  18536359.55749
 -23564050.62107  19323217.61907 -18353100.85948  19323214.30748
 -11744237.34406  21186101.82206  -9126841.72347  21186099.20947
 08 11  4  2 52 29.9940000  0  8  3  6  7 13 16 19 25 27
 -22605622.91807  18458101.57207 -17576782.61348  18458098.83848
 -12473444.55907  19505164.38507  -9700954.81648  19505161.73648
 -17048441.12907  19852821.62707 -13275334.94948  19852817.88948
 -11553601.81605  21530829.63505  -8994277.84846  21530826.94346
   3453389.96106  20978615.88506   2695230.47747  20978612.11547
 -26086128.75407  18528177.92407 -20316904.97349  18528172.93249
 -23615054.53107  19313511.73607 -18392844.16048  19313508.56148
 -11848850.23806  21166194.32206  -9208358.27347  21166192.31147
 08 11  4  2 52 59.9940000  0  8  3  6  7 13 16 19 25 27
 -22589653.04707  18461140.94007 -17564338.56348  18461137.53348
 -12441052.87107  19511328.56507  -9675714.54748  19511325.91648
 -17140500.62507  19835302.93207 -13347069.62948  19835299.52948
 -11507708.89506  21539563.24406  -8958517.17646  21539560.62746
   3491807.35206  20985925.78306   2725166.07046  20985922.54146
 -26128736.68007  18520069.53307 -20350105.95349  18520064.85749
 -23665568.71107  19303899.46307 -18432205.87148  19303896.06548
 -11953204.58606  21146336.99406  -9289673.33247  21146333.99447
 08 11  4  2 53 29.9940000  0  8  3  6  7 13 16 19 25 27
 -22573358.50407  18464241.20507 -17551641.52348  18464238.33048
 -12408459.31607  19517530.81507  -9650317.00448  19517528.63948
 -17232140.17207  19817864.30707 -13418477.05548  19817861.20148
 -11461524.08206  21548352.02506  -8922529.03946  21548348.75646
   3530358.98806  20993262.76006   2755206.26247  20993258.74847
 -26170928.52007  18512040.60407 -20382982.71549  18512035.53349
 -23715587.80507  19294381.34607 -18471181.78948  19294377.82248
 -12057293.68406  21126528.99406  -9370781.72747  21126526.54947
 08 11  4  2 53 59.9940000  0  8  3  6  7 13 16 19 25 27
 -22556743.07807  18467403.25207 -17538694.44548  18467400.51448
 -12375667.47707  19523770.97907  -9624764.93848  19523768.31848
 -17323359.18807  19800506.06507 -13489556.81348  19800502.90048
 -11415052.15206  21557195.13506  -8886317.16847  21557192.58047
   3569043.17606  21000623.68206   2785349.78146  21000619.86146
 -26212706.39107  18504090.76807 -20415536.89549  18504085.45949
 -23765112.24207  19284957.08007 -18509772.26248  19284953.62348
 -12161116.79706  21106772.50206  -9451682.84047  21106769.85047
 08 11  4  2 54 29.9940000  0  8  3  6  7 13 16 19 25 27
 -22539809.85207  18470625.61907 -17525499.73848  18470622.72148
 -12342680.79307  19530048.37707  -9599061.04348  19530045.19048
 -17414157.10907  19783228.21307 -13560308.43048  19783224.92448
 -11368298.22705  21566091.69005  -8849885.57846  21566089.36946
   3607858.31306  21008009.17406   2815595.30146  21008006.45146
 -26254073.07807  18496219.17407 -20447770.68049  18496213.89349
 -23814142.77707  19275626.86107 -18547977.88748  19275623.56848
 -12264673.27706  21087066.43206  -9532376.20747  21087063.90847
 08 11  4  2 54 59.9940000  0  8  3  6  7 13 16 19 25 27
 -22522566.11307  18473907.00207 -17512063.05948  18473904.22148
 -12309506.30907  19536360.96307  -9573210.82048  19536358.63148
 -17504536.94107  19766028.95507 -13630734.27348  19766025.85448
 -11321270.98405  21575040.55705  -8813241.00446  21575038.70146
   3646798.60906  21015420.06506   2845938.35947  21015416.29147
 -26295034.69907  18488424.16607 -20479688.82449  18488418.88949
 -23862683.65207  19266389.61907 -18585801.94548  19266386.38148
 -12367966.50406  21067410.17406  -9612864.43847  21067407.60047
 08 11  4  2 55 29.9940000  0  8  3  6  7 13 16 19 25 27
 -22505016.72707  18477246.15807 -17498388.23048  18477243.61148
 -12276148.35207  19542708.95507  -9547217.62548  19542706.56848
 -17594498.62507  19748910.14307 -13700834.28948  19748906.74048
 -11273976.12506  21584040.97906  -8776387.85246  21584038.49446
   3685861.49606  21022853.71306   2876376.94547  21022850.92047
 -26335594.60907  18480705.74407 -20511293.93849  18480700.59249
 -23910736.19508  19257245.61108 -18623245.49648  19257242.69348
 -12470996.36706  21047804.31506  -9693147.45347  21047801.77247
 08 11  4  2 55 59.9940000  0  8  3  6  7 13 16 19 25 27
 -22487165.23407  18480643.46307 -17484477.98448  18480640.63148
 -12242610.48407  19549090.75207  -9521084.23848  19549088.31548
 -17684042.00807  19731870.46307 -13770608.35548  19731867.29948
 -11226419.14506  21593091.01006  -8739330.49647  21593089.43647
   3725045.37906  21030309.63506   2906909.80147  21030307.24847
 -26375755.85207  18473063.28307 -20542588.41049  18473058.31849
 -23958301.45707  19248194.11907 -18660309.34848  19248191.13548
 -12573762.80906  21028248.49406  -9773225.20347  21028245.95947
 08 11  4  2 56 29.9940000  0  8  3  6  7 13 16 19 25 27
 -22469009.51207  18484098.44007 -17470330.68048  18484095.61148
 -12208890.76207  19555507.50207  -9494809.14548  19555504.81548
 -17773160.87507  19714911.58007 -13840051.62548  19714908.56548
 -11178599.48806  21602190.70506  -8702068.44547  21602188.91647
   3764353.61706  21037789.82206   2937539.56347  21037786.89747
 -26415514.82807  18465497.56507 -20573569.43049  18465492.63549
 -24005374.59007  19239236.31507 -18696989.70348  19239233.60748
 -12676259.80106  21008743.85406  -9853092.97347  21008741.66247
 08 11  4  2 56 59.9940000  0  8  3  6  7 13 16 19 25 27
 -22450554.10907  18487610.70507 -17455949.85548  18487607.68648
 -12174993.77707  19561957.86907  -9468395.92248  19561955.43648
 -17861855.84407  19698033.56507 -13909164.59048  19698030.41248
 -11130523.37506  21611339.79106  -8664606.53947  21611336.81547
   3803783.49206  21045293.43206   2968264.08647  21045290.05747
 -26454875.66407  18458007.26007 -20604240.20749  18458002.29949
 -24051957.48007  19230372.02507 -18733288.06648  19230368.97148
 -12778487.82406  20989290.70506  -9932751.17247  20989288.39747
 08 11  4  2 57 29.9940000  0  9  3  6  7 11 13 16 19 25 27
 -22431804.97307  18491178.19007 -17441340.14848  18491175.64348
 -12140925.50007  19568441.08007  -9441849.23048  19568438.54948
 -17950128.92207  19681235.76807 -13977948.79748  19681232.36548
   -234029.48816  22180495.43206   -172092.88356  22180492.06146
 -11082198.12906  21620535.66606  -8626950.53147  21620532.87347
   3843330.54306  21052818.10406   2999079.90647  21052815.28347
 -26493843.42607  18450591.97107 -20634604.69949  18450586.69349
 -24098053.44507  19221600.54107 -18769207.01248  19221597.26448
 -12880448.82406  20969887.79106 -10012201.29747  20969885.71747
 08 11  4  2 57 59.9940000  0  9  3  6  7 11 13 16 19 25 27
 -22412761.44107  18494802.06507 -17426501.05148  18494799.25648
 -12106684.32807  19574957.04107  -9415167.81348  19574954.06548
 -18037974.48407  19664519.45507 -14046399.88748  19664516.16248
   -375099.38306  22153650.61906   -282017.44547  22153647.58847
 -11033623.79706  21629778.57206  -8589100.41047  21629776.23647
   3882998.23806  21060367.24406   3029989.75846  21060363.63946
 -26532415.66007  18443252.22907 -20664660.98049  18443246.77549
 -24143658.18007  19212921.95507 -18804743.17248  19212919.11948
 -12982137.38706  20950537.22906 -10091439.12547  20950534.58447
 08 11  4  2 58 29.9940000  0  9  3  6  7 11 13 16 19 25 27
 -22393427.02307  18498481.13507 -17411435.28948  18498478.36548
 -12072274.41807  19581504.45507  -9388354.90248  19581502.42848
 -18125392.84407  19647884.30707 -14114518.08648  19647880.80348
   -516139.98006  22126811.07206   -391919.07046  22126808.92846
 -10984806.24206  21639068.69706  -8551060.80947  21639066.01047
   3922783.72706  21067938.87706   3060991.41446  21067934.94746
 -26570595.76207  18435987.10407 -20694411.70749  18435981.38149
 -24188773.25807  19204336.65807 -18839897.78148  19204333.74848
 -13083553.62106  20931238.22906 -10170464.76647  20931236.15447
 08 11  4  2 58 59.9940000  0  9  3  6  7 11 13 16 19 25 27
 -22373801.89107  18502216.01807 -17396142.98448  18502213.10448
 -12037695.98007  19588085.12707  -9361410.68848  19588082.60448
 -18212379.86307  19631331.27507 -14182300.18848  19631327.54548
   -657147.05106  22099978.61906   -501794.69547  22099976.47947
 -10935747.35206  21648404.26006  -8512833.10247  21648401.33447
   3962688.85906  21075531.51806   3092086.28946  21075528.83446
 -26608382.85207  18428796.03307 -20723856.18449  18428790.99849
 -24233396.02007  19195845.23607 -18874668.77048  19195842.70148
 -13184693.43006  20911992.66606 -10249274.99247  20911989.82247
 08 11  4  2 59 29.9940000  0  9  3  6  7 11 13 16 19 25 27
 -22353880.57007  18506006.78307 -17380619.87548  18506003.91648
 -12002942.68807  19594698.51007  -9334330.21148  19594696.06148
 -18298925.63707  19614862.38507 -14249738.44548  19614858.65848
   -798110.68406  22073153.90006   -611636.42247  22073151.38547
 -10886442.39505  21657786.08805  -8474413.69546  21657784.30346
   4002721.21906  21083150.22906   3123280.26246  21083145.94746
 -26645769.97307  18421681.47907 -20752989.00449  18421676.19049
 -24277517.75007  19187449.36907 -18909049.33648  19187446.15848
 -13285546.84406  20892800.25206 -10327862.06348  20892797.79148
 08 11  4  2 59 59.9940000  0  9  3  6  7 11 13 16 19 25 27
 -22333664.61707  18509853.65007 -17364867.19948  18509850.82648
 -11968016.46107  19601344.02507  -9307114.98848  19601342.29148
 -18385027.65607  19598477.60407 -14316830.92248  19598473.36548
   -939028.02306  22046338.40006   -721442.07447  22046335.28347
 -10836894.70705  21667215.09605  -8435805.16846  21667213.16646
   4042880.57806  21090791.94006   3154573.24646  21090787.76846
 -26682758.06307  18414642.78307 -20781810.89549  18414637.70949
 -24321137.64107  19179148.44707 -18943038.86748  19179145.21748
 -13386111.91806  20873664.02506 -10406224.45748  20873661.22548
 08 11  4  3  0 29.9940000  0  9  3  6  7 11 13 16 19 25 27
 -22313154.52707  18513756.88507 -17348885.32448  18513753.72548
 -11932917.14107  19608023.71307  -9279764.88748  19608021.05748
 -18470682.40607  19582178.02507 -14383574.88348  19582174.45148
  -1079895.10906  22019532.21306   -831208.56647  22019529.47947
 -10787105.77005  21676689.82205  -8397008.63747  21676687.35747
   4083168.92206  21098458.13506   3185966.73046  21098455.49046
 -26719346.25807  18407680.39307 -20810321.16849  18407675.28749
 -24364253.06607  19170944.38507 -18976635.32048  19170940.96348
 -13486384.46506  20854582.58006 -10484358.90647  20854579.79947
 08 11  4  3  0 59.9940000  0  9  3  6  7 11 13 16 19 25 27
 -22292348.11307  18517716.07207 -17332672.53548  18517712.71348
 -11897642.44907  19614736.02507  -9252278.12548  19614733.71748
 -18555883.32407  19565965.02507 -14449965.21548  19565961.24048
  -1220705.70305  21992736.28305   -940931.09846  21992733.53746
 -10737075.08605  21686210.41605  -8358023.72346  21686208.15046
   4123590.14806  21106150.65806   3217463.75046  21106148.07246
 -26755531.66007  18400794.58007 -20838517.57449  18400789.61949
 -24406859.19907  19162836.69707 -19009834.90648  19162833.50248
 -13586358.60906  20835557.87706 -10562260.82447  20835555.21347
 08 11  4  3  1 29.9940000  0  9  3  6  7 11 13 16 19 25 27
 -22271240.22307  18521732.78307 -17316224.82848  18521729.53348
 -11862187.25407  19621483.11907  -9224650.71148  19621480.72948
 -18640621.41407  19549839.63507 -14515994.90248  19549835.94048
  -1361450.91805  21965953.08805  -1050602.61746  21965951.15846
 -10686799.37505  21695777.94005  -8318847.88746  21695775.09246
   4164150.82806  21113869.65806   3249069.41846  21113866.86546
 -26791308.21507  18393986.79107 -20866395.41049  18393981.29549
 -24448948.39507  19154827.40007 -19042631.68848  19154824.42448
 -13686025.05106  20816591.79106 -10639922.99247  20816589.11947
 08 11  4  3  1 59.9940000  0  9  3  6  7 11 13 16 19 25 27
 -22249844.25407  18525803.98607 -17299552.64548  18525801.16648
 -11826564.96507  19628262.02507  -9196893.10248  19628259.55348
 -18724906.38707  19533800.90007 -14581671.50048  19533797.04948
  -1502139.68805  21939181.23605  -1160230.16446  21939179.17846
 -10636293.59805  21705388.47105  -8279492.80147  21705385.51447
   4204838.99206  21121611.54106   3280774.48046  21121608.58046
 -26826688.91807  18387253.71307 -20893964.78149  18387248.86149
 -24490531.60507  19146914.52507 -19075034.19148  19146911.04548
 -13785393.07006  20797683.07206 -10717352.62148  20797680.21748
 08 11  4  3  2 29.9940000  0  9  3  6  7 11 13 16 19 25 27
 -22228142.46907  18529933.81507 -17282642.18048  18529931.12348
 -11790757.34807  19635075.95507  -9168991.07848  19635073.23648
 -18808716.31307  19517852.36107 -14646977.94948  19517848.73248
  -1642749.94105  21912423.61905  -1269796.53546  21912420.95946
 -10585541.00405  21715046.51805  -8239945.36347  21715043.57647
   4245674.70706  21129383.10406   3312594.46946  21129379.00646
 -26861654.67207  18380599.94707 -20921210.83249  18380594.91649
 -24531588.17207  19139101.42407 -19107026.32848  19139098.11948
 -13884440.53106  20778834.85406 -10794532.45748  20778832.55748
 08 11  4  3  2 59.9940000  0  9  3  6  7 11 13 16 19 25 27
 -22206138.00807  18534121.37707 -17265495.85948  18534118.80348
 -11754767.90207  19641924.77507  -9140947.37148  19641921.69748
 -18892050.53907  19501994.08007 -14711913.70348  19501990.54148
  -1783280.80905  21885681.67405  -1379301.09446  21885679.01446
 -10534547.01605  21724750.69705  -8200209.82446  21724747.46346
   4286656.14505  21137181.12705   3344527.98446  21137177.14346
 -26896208.31307  18374024.65007 -20948135.74249  18374019.30749
 -24572119.03507  19131388.76807 -19138608.82848  19131385.24448
 -13983167.14106  20760047.92406 -10871462.28548  20760044.49448
 08 11  4  3  3 29.9940000  0  9  3  6  7 11 13 16 19 25 27
 -22183827.62107  18538366.88507 -17248111.14848  18538363.57648
 -11718592.87907  19648808.76007  -9112759.05948  19648805.57648
 -18974901.62107  19486228.40807 -14776472.99648  19486224.84248
  -1923724.63306  21858956.40006  -1488737.78946  21858953.19746
 -10483309.31305  21734500.11105  -8160284.37547  21734497.94747
   4327788.50006  21145009.09606   3376579.12546  21145005.86146
 -26930345.34408  18367528.73608 -20974736.01649  18367523.68649
 -24612118.16407  19123777.19007 -19169776.98048  19123773.76848
 -14081565.13706  20741323.81506 -10948136.04348  20741320.65448
 08 11  4  3  3 59.9940000  0  9  3  6  7 11 13 16 19 25 27
 -22161210.44107  18542670.74407 -17230487.38748  18542667.87748
 -11682231.19107  19655727.90007  -9084425.29748  19655725.18248
 -19057264.66807  19470554.87707 -14840651.98848  19470551.59648
  -2064076.30106  21832248.30706  -1598102.69546  21832244.78746
 -10431828.83606  21744296.74406  -8120169.75446  21744294.69046
   4369074.38706  21152865.07206   3408749.92247  21152863.10447
 -26964063.98807  18361112.00207 -21001010.28549  18361107.04549
 -24651582.11707  19116267.53307 -19200528.11348  19116264.11548
 -14179629.70306  20722662.06506 -11024549.99248  20722659.45948
 08 11  4  3  4 29.9940000  0  9  3  6  7 11 13 16 19 25 27
 -22138293.46907  18547031.41607 -17212630.00848  18547028.45148
 -11645689.72707  19662681.65807  -9055951.44548  19662678.61548
 -19139142.71507  19454974.28307 -14904453.07048  19454970.54548
  -2204338.55506  21805557.47906  -1707397.95346  21805553.20546
 -10380113.84006  21754138.04106  -8079872.39546  21754135.47946
   4410508.64506  21160749.51006   3441036.33646  21160746.38946
 -26997370.68408  18354773.89308 -21026963.55149  18354768.78749
 -24690515.31307  19108858.40807 -19230865.67648  19108855.63948
 -14277363.94906  20704064.11106 -11100706.55547  20704060.88147
 08 11  4  3  4 59.9940000  0  9  3  6  7 11 13 16 19 25 27
 -22115072.18807  18551450.18207 -17194535.51648  18551447.09648
 -11608963.86307  19669669.85407  -9027333.91048  19669667.09648
 -19220527.31307  19439487.02507 -14967869.63348  19439483.81848
  -2344502.90206  21778884.62706  -1816616.87946  21778880.74046
 -10328161.69106  21764024.55706  -8039390.24647  21764021.94747
   4452097.44505  21168663.86905   3473443.16446  21168659.19746
 -27030259.87908  18348515.71308 -21052591.49649  18348510.30349
 -24728910.89507  19101552.36907 -19260784.32448  19101549.12748
 -14374759.29706  20685530.01006 -11176599.03147  20685526.96747
 08 11  4  3  5 29.9940000  0  9  3  6  7 11 13 16 19 25 27
 -22091558.10207  18555925.11907 -17176212.85548  18555922.23248
 -11572065.00007  19676691.83007  -8998581.56648  19676689.40048
 -19301426.30507  19424093.13507 -15030907.81348  19424089.50248
  -2484576.60206  21752229.35406  -1925765.16846  21752225.78746
 -10275985.46506  21773953.88506  -7998733.49647  21773951.33447
   4493830.85905  21176604.36105   3505962.65646  21176600.93646
 -27062742.67208  18342334.29108 -21077902.76249  18342328.94349
 -24766777.85207  19094346.08007 -19290291.04748  19094343.12348
 -14471823.28506  20667059.39306 -11252233.30147  20667056.70547
 08 11  4  3  5 59.9940000  0  9  3  6  7 11 13 16 19 25 27
 -22067751.00007  18560455.65007 -17157661.87548  18560452.61948
 -11534992.55107  19683746.27507  -8969693.97348  19683743.75648
 -19381835.15207  19408791.48607 -15093564.06648  19408787.79548
  -2624554.92206  21725592.01806  -2034839.13346  21725588.24846
 -10223586.37106  21783924.28306  -7957903.04347  21783922.00247
   4535710.75805  21184574.59605   3538596.28546  21184572.09646
 -27094817.62908  18336230.54108 -21102896.22749  18336225.51849
 -24804113.44507  19087241.68207 -19319383.72748  19087238.67048
 -14568551.63706  20648653.12706 -11327606.05147  20648649.71747
 08 11  4  3  6 29.9940000  0  9  3  6  7 11 13 16 19 25 27
 -22043653.29307  18565041.36107 -17138884.45348  18565038.27548
 -11497748.79307  19690833.85407  -8940672.87948  19690830.95548
 -19461752.71107  19393583.65807 -15155837.48448  19393579.88548
  -2764436.12906  21698973.86906  -2143837.41446  21698970.05346
 -10170968.10506  21793937.22906  -7916901.82046  21793935.15446
   4577736.54306  21192571.82206   3571343.62146  21192570.17846
 -27126486.23407  18330204.39307 -21127573.05949  18330199.52249
 -24840917.58607  19080238.23607 -19348062.28148  19080235.05748
 -14664942.69506  20630310.54106 -11402715.97348  20630307.77248
 08 11  4  3  6 59.9940000  0  9  3  6  7 11 13 16 19 25 27
 -22019269.15207  18569681.06507 -17119883.83248  18569678.59648
 -11460338.03507  19697952.46307  -8911521.64848  19697950.12348
 -19541179.19907  19378469.10407 -15217728.25848  19378465.71348
  -2904220.45306  21672373.83806  -2252760.20747  21672369.99847
 -10118136.80506  21803990.42406  -7875734.57046  21803988.31546
   4619905.91806  21200596.42406   3604202.83646  21200594.06846
 -27157752.56307  18324254.84607 -21151936.43849  18324249.18649
 -24877192.28507  19073335.17407 -19376328.28548  19073332.20548
 -14760996.80906  20612031.83806 -11477563.33248  20612029.32648
 08 11  4  3  7 29.9940000  0  9  3  6  7 11 13 16 19 25 27
 -21994604.47307  18574374.79107 -17100664.61348  18574371.56848
 -11422765.34007  19705102.18207  -8882244.24248  19705100.15048
 -19620116.43807  19363447.92407 -15279237.79348  19363444.01848
  -3043909.00006  21645791.66606  -2361608.38346  21645788.15046
 -10065099.41006  21814083.65006  -7834406.75046  21814080.65046
   4662214.96506  21208648.26006   3637170.89846  21208644.23246
 -27188621.19907  18318380.22107 -21175989.91849  18318374.92849
 -24912940.59807  19066532.63507 -19404184.12548  19066529.19748
 -14856715.33206  20593816.71306 -11552149.19148  20593814.11548
 08 11  4  3  7 59.9940000  0  9  3  6  7 11 13 16 19 25 27
 -21969664.57007  18579120.80707 -17081230.93848  18579117.77248
 -11385036.07407  19712281.82207  -8852844.84048  19712279.35048
 -19698565.98407  19348519.51007 -15340367.30948  19348516.26448
  -3183503.21106  21619227.85406  -2470383.02747  21619224.52247
 -10011863.05106  21824214.21306  -7792923.90646  21824211.38146
   4704659.82406  21216725.33006   3670244.76646  21216720.49846
 -27219096.82008  18312580.85408 -21199737.15649  18312575.74049
 -24948165.71907  19059829.45507 -19431632.27048  19059826.48648
 -14952099.75006  20575665.75206 -11626474.72348  20575663.05348
 08 11  4  3  8 29.9940000  0  9  3  6  7 11 13 16 19 25 27
 -21944449.58607  18583919.19007 -17061582.90648  18583916.10748
 -11347150.18807  19719491.88507  -8823323.39548  19719489.24448
 -19776523.99607  19333684.68207 -15401113.82448  19333681.11948
  -3322999.08205  21592682.04105  -2579081.04747  21592679.61547
  -9958429.68005  21834382.27505  -7751287.52746  21834380.07246
   4747241.83606  21224828.77506   3703425.52346  21224824.17046
 -27249178.95308  18306856.41608 -21223177.78149  18306851.47149
 -24982865.39507  19053226.33807 -19458670.99648  19053223.33448
 -15047146.34006  20557579.19706 -11700536.97348  20557576.69048
 08 11  4  3  8 59.9930000  0  9  3  6  7 11 13 16 19 25 27
 -21918956.13307  18588770.38807 -17041717.88748  18588767.56048
 -11309104.57807  19726731.61407  -8793677.48448  19726728.89648
 -19853980.24207  19318945.66107 -15461469.34448  19318941.36048
  -3462383.45705  21566158.34905  -2687692.16047  21566155.87647
  -9904798.19105  21844587.65305  -7709496.80146  21844585.58346
   4789965.69506  21232957.98206   3736716.80946  21232954.74346
 -27278861.70708  18301208.08308 -21246307.20349  18301203.16549
 -25017032.09407  19046724.56707 -19485294.39848  19046721.38848
 -15141843.66406  20539558.98206 -11774327.11748  20539556.39948
 08 11  4  3  9 29.9930000  0  9  3  6  7 11 13 16 19 25 27
 -21893185.87907  18593674.62207 -17021637.18048  18593671.33748
 -11270899.55107  19734001.53607  -8763907.34848  19733999.35748
 -19930938.86307  19304300.66107 -15521437.10248  19304297.23948
  -3601664.46106  21539654.05206  -2796222.74647  21539651.56447
  -9850969.57805  21854831.01305  -7667552.43046  21854828.33346
   4832832.74606  21241115.56706   3770119.66846  21241112.76746
 -27308149.18408  18295634.83308 -21269128.60549  18295629.86049
 -25050668.62507  19040323.81007 -19511504.68448  19040320.59548
 -15236197.17607  20521603.85707 -11847849.33248  20521601.65748
 08 11  4  3  9 59.9930000  0 10  3  6  7  8 11 13 16 19 25 27
 -21867139.48007  18598630.64607 -17001341.29348  18598627.89948
 -11232536.80107  19741302.09107  -8734014.32048  19741299.40748
 -20007394.14807  19289751.45007 -15581012.64548  19289747.84948
   -224374.75016  22224474.90306   -164982.66857  22224472.20047
  -3740833.89506  21513171.58306  -2904666.38747  21513168.36847
  -9796947.84005  21865110.79405  -7625457.62946  21865108.56746
   4875842.94106  21249299.85706   3803634.09446  21249297.14946
 -27337040.36307  18290136.88807 -21291641.21149  18290131.66149
 -25083772.28107  19034024.22407 -19537299.74648  19034021.18548
 -15330200.24206  20503716.34906 -11921098.47348  20503713.38848
 08 11  4  3 10 29.9930000  0 10  3  6  7  8 11 13 16 19 25 27
 -21840815.26207  18603639.96607 -16980828.93048  18603636.91148
 -11194013.46107  19748633.00507  -8703996.14148  19748630.47048
 -20083339.86307  19275299.73207 -15640191.13348  19275295.88848
   -359578.84006  22198745.85706   -270336.49647  22198743.69647
  -3879884.77706  21486710.48206  -3013017.70347  21486707.28647
  -9742732.25405  21875427.95005  -7583211.77346  21875425.84946
   4919000.27306  21257512.85706   3837263.12146  21257508.41546
 -27365532.42208  18284715.26308 -21313842.81349  18284710.14949
 -25116338.48407  19027826.95007 -19562676.02748  19027824.38448
 -15423846.73407  20485896.05207 -11994069.77348  20485893.06748
 08 11  4  3 10 59.9930000  0 10  3  6  7  8 11 13 16 19 25 27
 -21814225.87507  18608699.80207 -16960109.92248  18608697.06748
 -11155342.28507  19755991.41907  -8673862.76648  19755988.93548
 -20158785.26607  19260943.06707 -15698979.75048  19260939.01748
   -494621.79306  22173047.97406   -375564.73047  22173046.02147
  -4018826.12506  21460271.11406  -3121283.65647  21460267.63847
  -9688337.01205  21885778.76305  -7540825.92646  21885777.15746
   4962293.50406  21265751.08306   3870998.06646  21265747.18946
 -27393637.43408  18279367.06008 -21335742.81649  18279361.82949
 -25148377.79707  19021730.09107 -19587641.73448  19021727.14648
 -15517145.39806  20468141.56706 -12066770.04348  20468138.76348
 08 11  4  3 11 29.9930000  0 10  3  6  7  8 11 13 16 19 25 27
 -21787366.75807  18613810.86407 -16939180.75848  18613808.21248
 -11116518.34007  19763379.83307  -8643610.35948  19763376.75148
 -20233721.77707  19246683.15307 -15757371.84448  19246679.41548
   -629494.09006  22147382.76306   -480660.00846  22147380.56446
  -4157648.71906  21433854.18506  -3229457.03147  21433851.42347
  -9633759.09404  21896163.82504  -7498297.69546  21896162.97846
   5005729.06606  21274017.01306   3904843.92246  21274013.80246
 -27421349.66007  18274093.59907 -21357336.75449  18274088.92349
 -25179883.11707  19015735.12207 -19612191.33648  19015732.40348
 -15610087.59406  20450455.36406 -12139192.52348  20450452.46248
 08 11  4  3 11 59.9930000  0 10  3  6  7  8 11 13 16 19 25 27
 -21760237.03107  18618973.81007 -16918040.71148  18618971.11048
 -11077540.93807  19770796.98207  -8613238.37548  19770794.14648
 -20308145.26207  19232520.62207 -15815364.16848  19232516.90748
   -764190.56606  22121750.80206   -585618.27347  22121748.79447
  -4296348.10506  21407460.48906  -3337534.46147  21407457.12647
  -9578999.79305  21906585.66105  -7455628.16846  21906583.57546
   5049309.08605  21282309.04405   3938802.34046  21282307.22446
 -27448668.43008  18268894.62208 -21378624.10549  18268889.66949
 -25210852.13307  19009841.88807 -19636323.04348  19009838.73248
 -15702669.11306  20432837.25506 -12211333.97748  20432834.91548
 08 11  4  3 12 29.9930000  0 10  3  6  7  8 11 13 16 19 25 27
 -21732835.89107  18624187.70807 -16896689.18048  18624185.04448
 -11038408.65607  19778243.32507  -8582745.70748  19778240.93148
 -20382050.90207  19218456.59907 -15872952.98048  19218453.54048
   -898705.49606  22096153.99706   -690435.09447  22096151.57147
  -4434918.70706  21381091.81706  -3445511.51647  21381087.64247
  -9524059.21105  21917040.26305  -7412817.36346  21917038.42346
   5093036.56305  21290630.41105   3972875.68446  21290627.93146
 -27475591.80108  18263771.19208 -21399603.35549  18263765.73549
 -25241281.20707  19004051.25507 -19660034.02048  19004048.32148
 -15794884.59406  20415289.25506 -12283190.19548  20415286.86448
 08 11  4  3 12 59.9930000  0 10  3  6  7  8 11 13 16 19 25 27
 -21705161.13707  18629454.23907 -16875124.44548  18629451.36448
 -10999119.24607  19785719.75507  -8552130.58648  19785717.40348
 -20455432.84407  19204492.95807 -15930133.71548  19204488.60348
  -1033032.35905  22070591.55205   -795105.35546  22070589.46646
  -4573354.59406  21354747.83306  -3553383.60247  21354744.23547
  -9468936.91405  21927530.49705  -7369864.96946  21927527.56746
   5136914.96505  21298980.48205   4007066.60546  21298977.63846
 -27502117.18808  18258723.84908 -21420272.48449  18258718.86849
 -25271166.28107  18998364.19207 -19683321.10548  18998361.56448
 -15886728.09006  20397812.80206 -12354756.55548  20397809.76748
 08 11  4  3 13 29.9930000  0 10  3  6  7  8 11 13 16 19 25 27
 -21677216.67207  18634771.60707 -16853349.54348  18634769.41948
 -10959676.29307  19793225.16907  -8521395.84048  19793223.19648
 -20528291.34807  19190628.34907 -15986906.58248  19190624.35348
  -1167170.31305  22045065.30205   -899628.38346  22045063.93946
  -4711655.02306  21328429.69206  -3661150.14147  21328426.46247
  -9413638.53905  21938052.86405  -7326775.39146  21938050.57146
   5180942.12105  21307358.83305   4041373.43046  21307356.41946
 -27528247.82008  18253751.31708 -21440634.01649  18253746.01749
 -25300509.20707  18992780.78607 -19706185.71948  18992777.49748
 -15978199.51207  20380405.96607 -12426033.00448  20380403.41148
 08 11  4  3 13 59.9930000  0 10  3  6  7  8 11 13 16 19 25 27
 -21649001.82407  18640140.76307 -16831363.95348  18640137.97048
 -10920079.09407  19800760.88007  -8490540.89848  19800758.58748
 -20600622.35907  19176863.89607 -16043268.41448  19176860.39648
  -1301114.09005  22019577.45005  -1004000.10546  22019575.54046
  -4849815.35506  21302139.06706  -3768807.46947  21302135.29447
  -9358165.22706  21948609.29406  -7283549.46547  21948606.73247
   5225120.19906  21315764.92706   4075797.87546  21315762.76346
 -27553982.46508  18248854.16108 -21460686.98049  18248849.25549
 -25329307.22307  18987300.53607 -19728625.74648  18987297.37648
 -16069294.52706  20363071.09106 -12497016.12148  20363068.62248
 08 11  4  3 14 29.9930000  0 10  3  6  7  8 11 13 16 19 25 27
 -21620520.57407  18645560.59107 -16809170.78548  18645557.91148
 -10880331.05107  19808324.59107  -8459568.40648  19808322.00548
 -20672426.14807  19163200.27107 -16099219.42648  19163196.87248
  -1434863.09405  21994125.77105  -1108220.08646  21994123.34146
  -4987835.33206  21275874.60706  -3876355.48047  21275870.88847
  -9302521.98406  21959197.77806  -7240191.12147  21959195.60347
   5269447.20706  21324200.66106   4110338.38346  21324197.37246
 -27579324.30508  18244031.84908 -21480433.87549  18244027.08349
 -25357562.04707  18981923.94207 -19750642.50048  18981920.62248
 -16160012.84406  20345807.44206 -12567705.73448  20345804.98248
 08 11  4  3 14 59.9930000  0 10  3  6  7  8 11 13 16 19 25 27
 -21591775.68007  18651030.50507 -16786772.17248  18651027.84948
 -10840434.49207  19815916.44207  -8428480.21148  19815914.03648
 -20743701.10507  19149637.21607 -16154758.35548  19149633.50948
  -1568415.05105  21968711.45805  -1212286.51646  21968709.34546
  -5125713.39806  21249637.04406  -3983792.85947  21249633.79047
  -9246713.31606  21969817.97406  -7196703.89146  21969815.12246
   5313922.02006  21332663.71606   4144994.05546  21332660.53246
 -27604275.30108  18239284.15308 -21499876.21549  18239278.87649
 -25385274.36707  18976650.61407 -19772236.52348  18976647.12648
 -16250353.39806  20328616.65306 -12638100.96948  20328613.98248
 08 11  4  3 15 29.9930000  0 10  3  6  7  8 11 13 16 19 25 27
 -21562776.38307  18656549.13807 -16764175.33248  18656546.52848
 -10800398.93007  19823535.01307  -8397283.68048  19823532.66948
 -20814454.05907  19136172.89607 -16209890.53148  19136169.91948
  -1701775.43405  21943333.72405  -1316203.68846  21943331.75546
  -5263454.93406  21223426.19206  -4091123.85247  21223422.56047
  -9190750.51206  21980467.45806  -7153096.55547  21980464.47847
   5358536.66806  21341154.21606   4179758.64147  21341150.92747
 -27628844.84408  18234608.63808 -21519021.30549  18234603.09549
 -25412451.89507  18971478.94207 -19793413.83248  18971475.42748
 -16340321.98406  20311496.24706 -12708206.35948  20311493.61448
 08 11  4  3 15 59.9930000  0 10  3  6  7  8 11 13 16 19 25 27
 -21533519.38707  18662116.65307 -16741377.68048  18662113.82948
 -10760220.46107  19831180.47407  -8365975.78548  19831178.29848
 -20884677.48807  19122809.95007 -16264610.09848  19122806.77848
  -1834935.87505  21917994.48905  -1419965.02046  21917992.30246
  -5401051.87906  21197241.48906  -4198342.19947  21197238.65747
  -9134631.47706  21991146.72406  -7109367.47747  21991143.73247
   5403296.32806  21349671.48206   4214636.25446  21349668.14246
 -27653028.64808  18230006.46608 -21537865.82449  18230000.98549
 -25439088.95307  18966409.77107 -19814169.98848  18966406.93948
 -16429911.11306  20294447.71606 -12778016.07448  20294445.42348
 08 11  4  3 16 29.9930000  0 10  3  6  7  8 11 13 16 19 25 27
 -21504010.94907  18667732.13807 -16718384.10948  18667728.92748
 -10719905.27007  19838852.25507  -8334561.37148  19838850.39948
 -20954374.62507  19109546.74707 -16318919.55548  19109543.79448
  -1967897.91806  21892692.45006  -1523571.79746  21892690.31046
  -5538507.00806  21171084.07506  -4305450.06647  21171081.37647
  -9078364.00806  22001854.39606  -7065522.76246  22001851.36446
   5448196.35206  21358214.66906   4249623.25846  21358212.06746
 -27676832.47308  18225476.29408 -21556414.26249  18225471.69649
 -25465189.96907  18961442.93507 -19834508.46148  18961439.57148
 -16519123.39506  20277471.48906 -12847532.15648  20277468.84948
 08 11  4  3 16 59.9930000  0 10  3  6  7  8 11 13 16 19 25 27
 -21474245.91407  18673395.94207 -16695190.58248  18673392.95448
 -10679447.98407  19846551.31707  -8303036.22348  19846548.89248
 -21023536.40207  19096386.06007 -16372811.85548  19096382.98248
  -2100652.16006  21867430.77806  -1627016.64146  21867427.82546
  -5675810.82006  21144955.97406  -4412440.00447  21144953.03247
  -9021945.06306  22012589.87206  -7021560.02346  22012587.81746
   5493243.36306  21366787.41106   4284724.81646  21366784.77846
 -27700250.67608  18221020.27808 -21574662.21149  18221014.92749
 -25490747.80107  18956579.47407 -19854423.65648  18956576.46248
 -16607949.66406  20260568.07506 -12916747.43048  20260565.95848
 08 11  4  3 17 29.9930000  0 10  3  6  7  8 11 13 16 19 25 27
 -21444216.86707  18679110.06707 -16671791.34048  18679107.71648
 -10638840.89507  19854278.20807  -8271394.35548  19854275.99748
 -21092152.01207  19083328.70007 -16426278.57048  19083326.02848
  -2233186.45706  21842210.30206  -1730290.11746  21842207.39646
  -5812951.56306  21118859.71606  -4519302.86347  21118856.23947
  -8965368.48406  22023356.66906  -6977474.41046  22023353.49346
   5538446.82406  21375389.38806   4319948.23846  21375386.91546
 -27723275.34808  18216638.83308 -21592603.52049  18216633.73549
 -25515753.38307  18951821.24707 -19873908.52748  18951817.69648
 -16696378.87906  20243741.04406 -12985653.32448  20243738.19248
 08 11  4  3 17 59.9930000  0 10  3  6  7  8 11 13 16 19 25 27
 -21413930.03907  18684873.74707 -16648191.21148  18684870.81048
 -10598089.74206  19862033.16106  -8239640.22348  19862030.72048
 -21160224.03507  19070375.23207 -16479321.71548  19070371.93148
  -2365502.52006  21817031.70806  -1833393.56346  21817029.02846
  -5949931.26206  21092793.81706  -4626040.24647  21092790.10347
  -8908642.13706  22034151.08306  -6933272.06646  22034147.46246
   5583801.44506  21384019.94206   4355289.48847  21384017.29847
 -27745912.13307  18212331.07507 -21610242.57849  18212326.00949
 -25540210.71107  18947166.98907 -19892966.18848  18947163.95048
 -16784413.27706  20226988.65306 -13054251.54748  20226986.09548
 08 11  4  3 18 29.9930000  0 10  3  6  7  8 11 13 16 19 25 27
 -21383382.69907  18690686.66907 -16624388.10248  18690683.98248
 -10557191.98006  19869816.00506  -8207771.85948  19869813.28648
 -21227746.96507  19057525.98207 -16531936.99248  19057523.13448
  -2497593.07406  21791895.77806  -1936321.26247  21791893.00947
  -6086743.29306  21066759.15306  -4732646.96947  21066756.46247
  -8851765.29706  22044973.56006  -6888952.50046  22044971.91146
   5629311.44506  21392680.92706   4390751.78147  21392678.00947
 -27768157.94907  18208097.91907 -21627576.98049  18208092.93949
 -25564115.71507  18942618.04407 -19911593.46948  18942614.46248
 -16872046.91806  20210312.33306 -13122537.50448  20210309.93148
 08 11  4  3 18 59.9930000  0 10  3  6  7  8 11 13 16 19 25 27
 -21352579.03907  18696548.44207 -16600385.26648  18696545.50548
 -10516150.87906  19877625.43506  -8175791.80948  19877623.78248
 -21294720.97707  19044780.87207 -16584124.53148  19044778.25948
  -2629457.22706  21766802.22406  -2039072.53147  21766800.24747
  -6223387.12506  21040756.56006  -4839122.66447  21040753.73947
  -8794742.87505  22055824.56005  -6844519.43446  22055822.57946
   5674974.96106  21401370.19206   4426333.71547  21401367.62247
 -27790016.17207  18203938.61407 -21644609.35949  18203933.63449
 -25587470.21107  18938173.85707 -19929791.78948  18938170.69248
 -16959279.41006  20193712.23906 -13190510.87548  20193710.05648
 08 11  4  3 19 29.9930000  0  9  3  6  7  8 11 16 19 25 27
 -21321526.69907  18702457.62207 -16576188.66048  18702454.72048
 -10474974.12506  19885461.43506  -8143706.05548  19885459.28648
 -21361149.96507  19032140.26307 -16635887.38748  19032137.02448
  -2761098.05506  21741751.93506  -2141649.78546  21741749.46246
  -6359866.57406  21014784.95006  -4945470.26247  21014783.02847
   5720785.61706  21410087.73906   4462030.27747  21410085.58747
 -27811494.22307  18199851.42707 -21661345.50449  18199845.95049
 -25610280.05907  18933833.55207 -19947565.70748  18933830.13848
 -17046114.97707  20177188.06007 -13258174.95748  20177185.53648
 08 11  4  3 19 59.9930000  0  9  3  6  7  8 11 16 19 25 27
 -21290226.38307  18708413.49707 -16551798.81348  18708411.03248
 -10433661.84806  19893322.65306  -8111514.67248  19893320.43948
 -21427031.47707  19019603.56007 -16687223.63748  19019599.98948
  -2892511.52306  21716744.95006  -2244049.87547  21716741.76747
  -6496177.89506  20988846.26306  -5051686.83247  20988842.97047
   5766744.75005  21418832.82505   4497842.58646  21418830.87646
 -27832592.15607  18195836.42707 -21677785.45749  18195830.98249
 -25632544.22707  18929596.54407 -19964914.41048  18929593.30648
 -17132550.18807  20160740.19207 -13325527.07448  20160737.41148
 08 11  4  3 20 29.9930000  0  9  3  6  7  8 11 16 19 25 27
 -21258680.62907  18714416.66907 -16527217.72748  18714413.51748
 -10392216.42606  19901209.31006  -8079219.55548  19901207.34148
 -21492364.92207  19007170.76307 -16738132.82048  19007167.38048
  -3023695.72706  21691781.13006  -2346271.33647  21691778.72447
  -6632319.37506  20962939.16906  -5157771.09447  20962935.79047
   5812850.93406  21427606.86406   4533769.43047  21427604.63047
 -27853312.09007  18191893.85707 -21693930.86349  18191888.74349
 -25654263.56307  18925463.58307 -19981838.57448  18925460.24748
 -17218583.94106  20144368.66106 -13392566.36748  20144365.82548
 08 11  4  3 20 59.9930000  0  9  3  6  7  8 11 16 19 25 27
 -21226891.85207  18720465.88007 -16502447.26248  18720463.03648
 -10350640.24606  19909121.64606  -8046822.55548  19909118.95848
 -21557149.52707  18994842.96607 -16788614.34448  18994839.66548
  -3154648.55506  21666861.35706  -2448312.48047  21666859.14947
  -6768289.98806  20937064.02106  -5263722.19547  20937061.97047
   5859103.27006  21436408.85706   4569810.15247  21436406.07547
 -27873656.11308  18188022.50508 -21709783.34449  18188017.03649
 -25675438.84007  18921434.25507 -19998338.80548  18921430.76348
 -17304215.14807  20128073.21607 -13459291.98048  20128070.97448
 08 11  4  3 21 29.9930000  0  9  3  6  7  8 11 16 19 25 27
 -21194857.33607  18726561.93507 -16477485.31648  18726559.01348
 -10308930.32006  19917058.47406  -8014321.32448  19917055.64948
 -21621379.39507  18982620.40307 -16838663.59448  18982617.11848
  -3285362.81306  21641987.09906  -2550167.69547  21641985.86847
  -6904082.86706  20911223.88806  -5369534.78947  20911221.32947
   5905505.88306  21445238.38806   4605967.99247  21445235.64647
 -27893621.17207  18184223.10707 -21725340.53149  18184217.66549
 -25696065.92207  18917508.91107 -20014411.86748  18917505.86848
 -17389437.51206  20111856.01306 -13525699.02348  20111853.37248
 08 11  4  3 21 59.9930000  0  9  3  6  7  8 11 16 19 25 27
 -21162578.12507  18732704.10707 -16452332.70348  18732701.04848
 -10267087.20706  19925020.78606  -7981716.31348  19925018.83348
 -21685051.86707  18970503.58307 -16888278.50448  18970500.79048
  -3415834.82806  21617159.34106  -2651834.16847  21617157.56047
  -7039694.61306  20885417.97406  -5475206.26647  20885414.71247
   5952059.56606  21454097.99706   4642243.57447  21454094.96247
 -27913207.68407  18180496.06707 -21740602.75049  18180490.98949
 -25716143.90207  18913687.59107 -20030057.05948  18913684.95448
 -17474248.28506  20095717.31006 -13591785.34048  20095714.36448
 08 11  4  3 22 29.9930000  0  9  3  6  7  8 11 16 19 25 27
 -21130053.41007  18738893.48907 -16426988.78948  18738890.75148
 -10225109.71107  19933009.34907  -7949006.60948  19933007.00548
 -21748162.86707  18958493.71607 -16937455.92648  18958491.01748
  -3546059.19106  21592378.40306  -2753307.68047  21592376.56447
  -7175120.06605  20859646.91105  -5580732.58647  20859644.00547
   5998766.35506  21462985.66906   4678638.45747  21462983.16147
 -27932414.37108  18176840.91108 -21755569.00049  18176835.49349
 -25735670.23407  18909972.38807 -20045272.38348  18909969.83348
 -17558642.69907  20079657.51307 -13657547.22748  20079654.75148
 08 11  4  3 22 59.9930000  0  9  3  6  7  8 11 16 19 25 27
 -21097282.56607  18745129.86407 -16401453.08248  18745127.12648
 -10182997.25006  19941022.59106  -7916191.70748  19941020.17748
 -21810708.81607  18946592.19207 -16986193.02748  18946588.70048
  -3676030.75406  21567645.77106  -2854584.22347  21567643.76347
  -7310354.91806  20833912.91106  -5686110.35947  20833909.78647
   6045628.63706  21471904.05206   4715154.49647  21471900.59547
 -27951240.45308  18173259.00508 -21770238.66449  18173253.78249
 -25754642.88307  18906361.24707 -20060056.27048  18906358.37248
 -17642616.62907  20063678.01307 -13722981.47348  20063674.82548
 08 11  4  3 23 29.9930000  0  9  3  6  7  8 11 16 19 25 27
 -21064272.39507  18751411.41107 -16375730.88748  18751408.96648
 -10140756.37906  19949060.97406  -7883276.75048  19949057.89248
 -21872693.65607  18934796.59907 -17034492.91048  18934793.46248
  -3805752.02006  21542960.11406  -2955665.66847  21542959.04847
  -7445401.94506  20808214.21606  -5791341.77747  20808211.24747
   6092640.70706  21480849.77806   4751787.22747  21480846.52147
 -27969692.74608  18169747.30208 -21784617.06649  18169742.59149
 -25773067.36307  18902855.79407 -20074413.02748  18902852.43148
 -17726173.62907  20047777.26307 -13788090.81348  20047775.01748
 08 11  4  3 23 59.9930000  0  9  3  6  7  8 11 16 19 25 27
 -21031026.07807  18757738.06007 -16349824.67648  18757735.20048
 -10098389.49206  19957123.18506  -7850263.60548  19957121.35348
 -21934116.95707  18923108.73207 -17082355.23449  18923104.92749
  -3935220.85906  21518323.36406  -3056550.44547  21518321.84947
  -7580259.77006  20782551.40306  -5896425.77747  20782548.54847
   6139801.36306  21489824.35706   4788535.75447  21489821.15347
 -27987773.41807  18166306.73207 -21798705.90649  18166301.45449
 -25790944.78507  18899454.30207 -20088343.48848  18899451.17748
 -17809312.78507  20031956.19207 -13852874.57848  20031953.87648
 08 11  4  3 24 29.9930000  0  9  3  6  7  8 11 16 19 25 27
 -20997548.04707  18764108.45007 -16323737.90248  18764105.91548
 -10055900.93806  19965208.68506  -7817155.66048  19965206.19648
 -21994979.89507  18911526.59907 -17129780.89848  18911523.30248
  -4064437.46906  21493734.28606  -3157238.69147  21493732.43147
  -7714928.66806  20756925.21606  -6001362.53947  20756921.71247
   6187107.35906  21498826.41106   4825397.50047  21498823.31047
 -28005486.80907  18162936.04407 -21812508.55549  18162930.72449
 -25808278.39807  18896155.52807 -20101850.21548  18896152.63848
 -17892035.10507  20016214.82507 -13917333.53148  20016212.25148
 08 11  4  3 24 59.9930000  0  9  3  6  7  8 11 16 19 25 27
 -20963841.52007  18770522.76307 -16297473.09048  18770520.09148
 -10013293.70306  19973316.09906  -7783955.23448  19973313.74748
 -22055282.56607  18900051.42707 -17176769.99648  18900048.14648
  -4193400.42606  21469193.54406  -3257729.31347  21469191.81047
  -7849408.18006  20731334.65306  -6106151.76247  20731331.07947
   6234557.34406  21507855.71606   4862371.48447  21507853.49747
 -28022835.59808  18159634.40308 -21826027.09049  18159629.60749
 -25825069.62907  18892960.16907 -20114934.30548  18892957.42748
 -17974339.90607  20000552.66107 -13981467.14848  20000549.89248
 08 11  4  3 25 29.9930000  0  9  3  6  7  8 11 16 19 25 27
 -20929909.42207  18776979.84907 -16271032.51248  18776977.00548
  -9970570.31306  19981446.53606  -7750664.27347  19981443.71647
 -22115024.79307  18888683.17707 -17223322.38748  18888679.09948
  -4322107.86706  21444701.92706  -3358020.82447  21444698.67747
  -7983697.10906  20705780.31006  -6210792.45747  20705777.13047
   6282149.42606  21516912.40306   4899456.16447  21516909.73547
 -28039822.30907  18156402.24707 -21839263.48049  18156396.91149
 -25841320.18807  18889867.82507 -20127597.08648  18889864.98948
 -18056226.74207  19984970.39607 -14045275.07448  19984967.54048
 08 11  4  3 25 59.9930000  0  9  3  6  7  8 11 16 19 25 27
 -20895743.30107  18783481.32507 -16244409.56348  18783478.91148
  -9927721.91406  19989600.08306  -7717275.91048  19989597.63048
 -22174195.16407  18877423.08307 -17269429.18848  18877419.46648
  -4450546.79306  21420260.77106  -3458103.10947  21420257.89947
  -8117782.44906  20680265.23906  -6315274.52047  20680261.56747
   6329893.93806  21525997.35706   4936659.62547  21525994.50147
 -28056438.29307  18153240.13007 -21852211.00449  18153234.98549
 -25857019.96507  18886880.17707 -20139830.69948  18886877.54048
 -18137683.43407  19969469.31707 -14108747.82048  19969466.93148
 08 11  4  3 26 29.9930000  0  9  3  6  7  8 11 16 19 25 27
 -20861342.89107  18790027.57507 -16217604.06348  18790025.03248
  -9884747.70306  19997777.88006  -7683789.53148  19997775.52448
 -22232789.83607  18866272.95807 -17315087.37948  18866269.62248
  -4578712.23406  21395871.47406  -3557972.26647  21395869.00547
  -8251660.02006  20654788.32506  -6419594.66847  20654785.46647
   6377792.69106  21535112.44206   4973983.32847  21535110.22447
 -28072682.56308  18150149.03608 -21864868.88749  18150143.91149
 -25872167.02307  18883997.81707 -20151633.61348  18883994.66948
 -18218705.89107  19954051.50507 -14171882.19948  19954049.25148
 08 11  4  3 26 59.9930000  0  9  3  6  7  8 11 16 19 25 27
 -20826702.30107  18796619.47407 -16190611.41848  18796616.99348
  -9841641.68806  20005980.84106  -7650200.45348  20005978.77848
 -22290800.40207  18855233.84107 -17360290.42648  18855230.21248
  -4706593.91006  21371536.61406  -3657620.32047  21371534.20447
  -8385319.92206  20629354.09106  -6523745.20347  20629351.05247
   6425852.75806  21544258.15306   5011432.69947  21544256.50947
 -28088549.27707  18147129.92707 -21877232.55949  18147124.48249
 -25886754.39807  18881222.20007 -20163000.41848  18881218.71648
 -18299284.98407  19938717.93507 -14234671.11748  19938714.96248
 08 11  4  3 27 29.9930000  0  9  3  6  7  8 11 16 19 25 27
 -20791813.65607  18803258.61407 -16163425.47748  18803255.93948
  -9798395.69906  20014210.45806  -7616502.31648  20014208.08748
 -22348216.05107  18844308.47407 -17405029.90248  18844304.50548
  -4834179.33606  21347257.51306  -3757037.55147  21347255.40347
  -8518750.12106  20603963.24706  -6627716.75047  20603959.82947
   6474083.71506  21553435.77806   5049015.16447  21553433.53247
 -28104030.15207  18144184.06007 -21889295.57849  18144178.50149
 -25900772.79307  18878554.49707 -20173923.85548  18878551.18148
 -18379409.30507  19923470.88007 -14297105.66048  19923468.03248
 08 11  4  3 27 59.9930000  0  9  3  6  7  8 11 16 19 25 27
 -20756673.65207  18809945.45007 -16136043.66048  18809942.78648
  -9755006.39806  20022466.81006  -7582692.48847  20022464.34547
 -22405030.41807  18833496.66107 -17449300.84048  18833492.95048
  -4961460.71506  21323036.59106  -3856217.84447  21323035.02147
  -8651943.84006  20578617.24706  -6731504.01647  20578613.89947
   6522489.99606  21562648.00506   5086734.28147  21562644.99747
 -28119121.92607  18141311.82507 -21901055.40249  18141306.71649
 -25914217.87507  18875996.02107 -20184400.56348  18875992.76348
 -18459071.99207  19908311.56707 -14359180.49248  19908308.69648
 08 11  4  3 28 29.9930000  0  9  3  6  7  8 11 16 19 25 27
 -20721296.13707  18816677.38807 -16108476.78548  18816674.67748
  -9711487.03906  20030748.28606  -7548781.30147  20030745.23947
 -22461254.47707  18822797.53607 -17493111.80949  18822793.82149
  -5088447.26606  21298871.07506  -3955168.38747  21298869.60347
  -8784910.57406  20553314.73206  -6835114.41047  20553311.00947
   6571059.19106  21571890.46606   5124580.38747  21571887.42347
 -28133838.02007  18138511.75507 -21912522.49649  18138506.20049
 -25927102.10207  18873544.49707 -20194440.23448  18873541.15748
 -18538283.30107  19893238.14607 -14420903.59048  19893235.16548
 08 11  4  3 28 59.9930000  0  9  3  6  7  8 11 16 19 25 27
 -20685677.93807  18823455.59907 -16080722.35548  18823452.97848
  -9667834.13706  20039055.32506  -7514766.06347  20039052.47447
 -22516881.94107  18812212.07507 -17536457.89149  18812208.40349
  -5215130.93406  21274763.85706  -4053882.91447  21274762.68947
  -8917642.91006  20528055.87206  -6938542.16847  20528052.51747
   6619795.85205  21581163.35705   5162557.02047  21581162.21247
 -28148174.88707  18135783.39607 -21923694.07449  18135778.00549
 -25939420.69507  18871199.97407 -20204039.14548  18871197.20448
 -18617036.75407  19878251.73907 -14482269.91848  19878249.07148
 08 11  4  3 29 29.9930000  0  9  3  6  7  8 11 16 19 25 27
 -20649819.41007  18830279.03607 -16052780.65648  18830276.37248
  -9624047.83606  20047387.16106  -7480646.88347  20047384.95847
 -22571910.34007  18801740.46607 -17579337.16849  18801737.10749
  -5341507.87905  21250715.31705  -4152358.40247  21250714.03647
  -9050137.21106  20502843.09906  -7041784.42647  20502839.46247
   6668701.12106  21590470.30206   5200664.93447  21590468.66547
 -28162132.72707  18133127.39607 -21934570.32049  18133122.14249
 -25951173.12107  18868963.54407 -20213196.89148  18868960.68148
 -18695329.25007  19863353.11407 -14543277.06648  19863350.57148
 08 11  4  3 29 59.9930000  0  9  3  6  7  8 11 16 19 25 27
 -20613732.36707  18837146.54407 -16024660.88748  18837143.91148
  -9580139.73806  20055743.06706  -7446432.79347  20055740.62247
 -22626348.96107  18791381.66907 -17621756.88348  18791377.57948
  -5467585.19906  21226724.55206  -4250600.43047  21226722.13047
  -9182401.73806  20477674.13806  -7144847.66447  20477670.54447
   6717764.38706  21599807.29406   5238896.02347  21599804.13047
 -28175723.17207  18130541.28607 -21945160.27749  18130536.11449
 -25962370.05107  18866833.19207 -20221921.78948  18866829.96248
 -18773169.27007  19848540.66107 -14603931.62948  19848537.86048
 08 11  4  3 30 29.9930000  0  9  3  6  7  8 11 16 19 25 27
 -20577412.52307  18844057.51307 -15996359.73048  18844055.18948
  -9536104.85506  20064122.52806  -7412119.91047  20064119.68147
 -22680190.26607  18781135.74707 -17663711.15648  18781132.31048
  -5593353.71106  21202791.37206  -4348601.85947  21202788.74747
  -9314427.64506  20452551.02106  -7247724.94147  20452547.24347
   6766991.66006  21609174.73906   5277254.87147  21609171.34547
 -28188941.46907  18128025.77107 -21955460.25849  18128020.32949
 -25973005.60207  18864809.09907 -20230209.23048  18864805.75948
 -18850548.89807  19833815.99707 -14664227.44148  19833813.15748
 08 11  4  3 30 59.9930000  0  9  3  6  7  8 11 16 19 25 27
 -20540858.48407  18851013.60707 -15967876.08248  18851010.72448
  -9491941.68406  20072527.02806  -7377707.05548  20072523.50148
 -22733430.36307  18771003.86407 -17705196.95348  18771000.62648
  -5718807.99206  21178918.91906  -4446358.43047  21178915.59147
  -9446209.89106  20427472.50506  -7350412.37547  20427469.10747
   6816385.68006  21618574.04406   5315743.68447  21618571.13447
 -28201786.11707  18125581.62207 -21965469.07849  18125576.42749
 -25983077.54707  18862892.83307 -20238057.52348  18862889.45448
 -18927463.51207  19819179.65307 -14724160.92248  19819177.09948
 08 11  4  3 31 29.9930000  0  9  3  6  7  8 11 16 19 25 27
 -20504069.72307  18858014.62207 -15939209.53948  18858011.72448
  -9447649.12506  20080955.48906  -7343193.39147  20080952.85747
 -22786065.39107  18760988.37207 -17746211.27349  18760984.60749
  -5843942.59406  21155105.54406  -4543865.89847  21155104.13847
  -9577743.43406  20402443.50506  -7452906.00847  20402439.41947
   6865948.27306  21628005.93506   5354363.86747  21628003.63847
 -28214256.12907  18123208.46607 -21975185.96949  18123203.68149
 -25992583.87107  18861083.78607 -20245465.07448  18861080.38448
 -19003908.61307  19804632.69207 -14783728.52748  19804629.76348
 08 11  4  3 31 59.9930000  0  9  3  6  7  8 11 16 19 25 27
 -20467046.37507  18865060.11407 -15910360.18848  18865057.14948
  -9403227.19907  20089408.69207  -7308578.92247  20089406.15347
 -22838093.03907  18751087.49707 -17786752.30148  18751084.39648
  -5968753.26606  21131354.91106  -4641120.94147  21131353.40347
  -9709024.86306  20377461.09106  -7555203.19147  20377457.75547
   6915680.57005  21637469.16105   5393116.30547  21637467.22047
 -28226351.67607  18120906.71607 -21984611.07849  18120901.77149
 -26001523.94507  18859382.62207 -20252431.37948  18859379.15748
 -19079881.30507  19790175.18507 -14842928.03948  19790173.02848
 08 11  4  3 32 29.9930000  0  9  3  6  7  8 11 16 19 25 27
 -20429792.93807  18872149.10707 -15881331.54748  18872146.02448
  -9358679.94507  20097885.46607  -7273866.80947  20097883.02447
 -22889515.18807  18741302.13007 -17826821.51648  18741298.78248
  -6093239.93806  21107666.27106  -4738123.53147  21107664.07947
  -9840054.68406  20352526.63806  -7657304.32847  20352523.48547
   6965579.66006  21646964.91106   5431998.67247  21646963.44247
 -28238076.94107  18118675.59107 -21993747.66049  18118670.14649
 -26009900.98807  18857788.20807 -20258958.96148  18857785.34948
 -19155382.64507  19775807.87207 -14901760.24648  19775805.45048
 08 11  4  3 32 59.9930000  0  9  3  6  7  8 11 16 19 25 27
 -20392321.07007  18879279.49707 -15852132.69948  18879276.85748
  -9314018.82407  20106384.09107  -7239065.94947  20106381.28247
 -22940340.75007  18731630.81707 -17866425.85948  18731626.85748
  -6217409.51206  21084037.33306  -4834879.01647  21084035.73947
  -9970840.43406  20327639.35706  -7759215.27047  20327636.71247
   7015635.03506  21656490.71606   5471002.82047  21656487.72447
 -28249443.62507  18116512.36407 -22002604.81349  18116507.06049
 -26017725.66407  18856299.20007 -20265056.10948  18856296.45448
 -19230421.14107  19761528.78607 -14960231.80948  19761526.31448
 08 11  4  3 33 29.9930000  0  9  3  6  7  8 11 16 19 25 27
 -20354627.47307  18886452.17707 -15822761.09048  18886450.18148
  -9269240.01207  20114905.48207  -7204173.36347  20114902.80647
 -22990563.59007  18722073.38007 -17905560.54748  18722070.21648
  -6341254.31606  21060470.02106  -4931381.43847  21060468.13847
 -10101374.96906  20302798.56706  -7860930.46947  20302796.65747
   7065851.09406  21666046.37206   5510132.16447  21666042.91147
 -28260448.01207  18114418.44207 -22011179.66449  18114413.87249
 -26024993.77007  18854916.29407 -20270719.59448  18854913.08748
 -19304990.34407  19747339.01307 -15018337.67648  19747336.14648
 08 11  4  3 33 59.9930000  0  9  3  6  7  8 11 16 19 25 27
 -20316720.79707  18893666.00507 -15793223.44148  18893663.21248
  -9224352.15606  20123447.03606  -7169195.83647  20123444.85347
 -23040190.28507  18712629.43507 -17944230.70748  18712626.02448
  -6464778.50406  21036964.65306  -5027634.03947  21036962.43547
 -10231663.11306  20278006.08306  -7962453.66847  20278003.25947
   7116220.73006  21675631.23206   5549381.18847  21675628.07547
 -28271098.71907  18112391.73907 -22019478.92649  18112386.79049
 -26031713.11707  18853637.41107 -20275955.46548  18853634.07548
 -19379095.52707  19733237.03607 -15076081.98848  19733234.39648
 08 11  4  3 34 29.9930000  0  9  3  6  7  8 11 16 19 25 27
 -20278599.35907  18900920.55207 -15763518.44548  18900917.77148
  -9179352.77307  20132010.49707  -7134131.39847  20132007.99747
 -23089215.85907  18703300.46607 -17982432.45748  18703297.20048
  -6587975.50406  21013520.73206  -5123631.68447  21013518.51347
 -10361698.91806  20253260.99706  -8063780.25447  20253258.12247
   7166747.24205  21685246.29405   5588752.48047  21685243.22447
 -28281393.62507  18110432.70007 -22027500.93049  18110427.18149
 -26037880.53907  18852463.88007 -20280761.26648  18852461.25548
 -19452731.29307  19719224.43507 -15133460.51248  19719222.11848
 08 11  4  3 34 59.9930000  0  9  3  6  7  8 11 16 19 25 27
 -20240269.64107  18908214.19207 -15733651.14548  18908211.46248
  -9134248.47306  20140592.72406  -7098985.19947  20140590.43147
 -23137644.89507  18694084.87207 -18020169.38349  18694081.08749
  -6710847.91806  20990138.24706  -5219376.41847  20990136.68547
 -10491485.46506  20228563.30206  -8164912.59047  20228561.06747
   7217424.93005  21694889.23905   5628241.53147  21694887.64947
 -28291339.68407  18108540.05207 -22035251.10549  18108534.75549
 -26043502.16007  18851394.14607 -20285141.76648  18851390.97848
 -19525901.27707  19705301.04407 -15190476.08248  19705298.22048
 08 11  4  3 35 29.9930000  0  9  3  6  7  8 11 16 19 25 27
 -20201737.79307  18915547.35707 -15703626.34848  18915544.02848
  -9089044.75006  20149195.54406  -7063761.54348  20149193.73548
 -23185480.57407  18684981.83307 -18057443.94148  18684978.68948
  -6833397.00806  20966818.33306  -5314869.20747  20966816.10347
 -10621024.53906  20203912.77106  -8265852.09447  20203910.27847
   7268249.10906  21704561.32506   5667844.76247  21704559.41947
 -28300942.23807  18106712.53607 -22042733.61349  18106707.32549
 -26048582.93807  18850427.21607 -20289100.82048  18850424.61448
 -19598608.15607  19691464.89607 -15247130.77748  19691462.29448
 08 11  4  3 35 59.9930000  0  9  3  6  7  8 11 16 19 25 27
 -20162999.60507  18922918.48207 -15673440.75848  18922915.45048
  -9043736.75806  20157817.56006  -7028456.65247  20157815.41547
 -23232716.11707  18675993.66107 -18094250.86748  18675989.84948
  -6955613.89106  20943560.71606  -5410103.10947  20943558.97847
 -10750307.86306  20179310.91906  -8366592.32848  20179308.70848
   7319225.65606  21714262.26306   5707566.68047  21714259.46247
 -28310196.94507  18104951.47407 -22049945.07449  18104946.32549
 -26053117.52007  18849564.27107 -20292634.27748  18849561.55248
 -19670844.44107  19677719.02807 -15303418.80948  19677716.33748
 08 11  4  3 36 29.9930000  0  9  3  6  7  8 11 16 19 25 27
 -20124054.13307  18930329.34907 -15643093.64848  18930326.49748
  -8998323.92606  20166458.91906  -6993070.03947  20166456.59947
 -23279348.27707  18667119.51307 -18130587.62948  18667116.35748
  -7077493.44106  20920368.57506  -5505074.16047  20920365.82947
 -10879331.50006  20154758.29406  -8467130.19947  20154756.06447
   7370356.09006  21723992.23906   5747408.53547  21723988.12647
 -28319103.36707  18103256.88807 -22056885.14849  18103251.56049
 -26057104.78907  18848805.46607 -20295741.25848  18848803.04048
 -19742606.50006  19664062.78606 -15359337.29748  19664060.45048
 08 11  4  3 36 59.9930000  0  9  3  6  7  8 11 16 19 25 27
 -20084900.74607  18937779.73207 -15612584.52348  18937777.19648
  -8952804.53507  20175120.85707  -6957600.39547  20175118.92347
 -23325373.72707  18658361.40307 -18166451.62148  18658357.52848
  -7199029.96906  20897241.16906  -5599777.94547  20897238.73947
 -11008089.93006  20130256.37206  -8567461.43047  20130254.16147
   7421642.93006  21733751.46606   5787372.27747  21733748.05247
 -28327660.19107  18101628.57507 -22063552.80949  18101623.23949
 -26060542.51207  18848151.91107 -20298420.03148  18848148.70448
 -19813889.71106  19650498.36406 -15414882.65648  19650495.70048
 08 11  4  3 37 29.9920000  0  9  3  6  7  8 11 16 19 25 27
 -20045547.12107  18945268.69507 -15581919.38348  18945265.47748
  -8907186.60206  20183801.69506  -6922053.97348  20183800.12148
 -23370795.19907  18649717.53907 -18201844.98048  18649714.30948
  -7320222.02006  20874177.89106  -5694213.29747  20874176.50047
 -11136581.74607  20105805.46907  -8667584.87947  20105802.50447
   7473079.03106  21743539.06306   5827452.34447  21743536.81647
 -28335873.54708  18100065.33608 -22069952.82849  18100060.21949
 -26063436.78507  18847600.85907 -20300675.32448  18847597.91048
 -19884695.38307  19637024.20307 -15470055.91848  19637021.94148
 08 11  4  3 37 59.9920000  0  9  3  6  7  8 11 16 19 25 27
 -20005991.15607  18952796.05507 -15551096.57448  18952793.40648
  -8861467.24207  20192502.20307  -6886428.51247  20192499.63747
 -23415613.97707  18641188.96107 -18236768.72348  18641185.36748
  -7441073.62906  20851181.05506  -5788383.34847  20851179.06647
 -11264812.42207  20081404.39807  -8767504.87547  20081400.96547
   7524668.11705  21753355.83605   5867651.56647  21753354.59447
 -28343744.65207  18098567.33607 -22076086.16449  18098562.56649
 -26065787.62907  18847153.55507 -20302507.16048  18847150.14548
 -19955025.85907  19623641.23407 -15524858.89148  19623638.50848
 08 11  4  3 38 29.9920000  0  9  3  6  7  8 11 16 19 25 27
 -19966230.60507  18960362.52307 -15520114.34448  18960359.37548
  -8815643.53906  20201221.85206  -6850721.74247  20201219.53147
 -23459822.00007  18632776.58607 -18271216.52348  18632773.07848
  -7561571.96506  20828251.27306  -5882278.14847  20828248.76647
 -11392769.59407  20057054.64107  -8867211.73048  20057051.50848
   7576414.22305  21763203.62505   5907973.12947  21763201.67247
 -28351269.13707  18097135.74207 -22081949.40649  18097130.70749
 -26067589.94907  18846810.59407 -20303911.57448  18846807.59448
 -20024871.64807  19610349.57807 -15579284.18848  19610347.44148
 08 11  4  3 38 59.9920000  0  9  3  6  7  8 11 16 19 25 27
 -19926266.16007  18967967.36707 -15488973.22348  18967964.42648
  -8769716.32806  20209961.71906  -6814934.30947  20209959.61747
 -23503418.03107  18624480.63307 -18305187.46549  18624477.00049
  -7681713.83606  20805388.60206  -5975895.17647  20805386.45747
 -11520450.69107  20032758.53107  -8966703.45747  20032754.27047
   7628317.16006  21773079.89106   5948416.95347  21773078.05947
 -28358447.87907  18095769.69507 -22087543.23849  18095765.05549
 -26068844.27707  18846572.12507 -20304888.97748  18846569.02748
 -20094230.68807  19597151.07007 -15633330.19548  19597148.69148
 08 11  4  3 39 29.9920000  0  9  3  6  7  8 11 16 19 25 27
 -19886099.27707  18975610.65607 -15457674.36748  18975607.68848
  -8723686.82006  20218720.47706  -6779067.15247  20218718.69547
 -23546401.44507  18616300.94507 -18338681.03948  18616297.91848
  -7801496.27006  20782595.23406  -6069232.13747  20782592.71947
 -11647853.05907  20008514.10207  -9065978.01648  20008510.44548
   7680376.77005  21782986.71905   5988982.86347  21782984.46147
 -28365282.52007  18094468.98407 -22092868.93849  18094463.78149
 -26069551.36307  18846437.41407 -20305439.98048  18846434.10248
 -20163101.34807  19584045.86707 -15686995.64548  19584042.97348
 08 11  4  3 39 59.9920000  0  9  3  6  7  8 11 16 19 25 27
 -19845730.86707  18983292.64807 -15426218.46948  18983289.82048
  -8677555.28106  20227499.06306  -6743120.52747  20227497.00847
 -23588770.74607  18608238.78907 -18371696.09048  18608235.08248
  -7920915.52706  20759870.07006  -6162286.06647  20759868.87147
 -11774973.93807  19984324.05507  -9165033.22748  19984320.27748
   7732593.47305  21792922.93005   6029671.16446  21792919.81346
 -28371773.66807  18093233.72707 -22097926.97349  18093228.46949
 -26069711.46107  18846406.82007 -20305564.74248  18846404.13748
 -20231481.23407  19571033.57007 -15740278.68048  19571030.82848
 08 11  4  3 40 29.9920000  0  9  3  6  7  8 11 16 19 25 27
 -19805156.34807  18991013.34407 -15394601.96948  18991010.47748
  -8631316.65206  20236298.65606  -6707090.44547  20236296.01647
 -23630518.58207  18600294.35907 -18404226.87548  18600290.55948
  -8039962.50406  20737216.36706  -6255049.93047  20737214.29747
 -11901804.88707  19960188.42207  -9263862.53548  19960185.16848
   7784973.11305  21802891.33605   6070486.45347  21802887.62147
 -28377916.25807  18092064.90607 -22102713.41449  18092060.00049
 -26069319.18807  18846481.54707 -20305259.09048  18846478.28148
 -20299362.64506  19558115.71906 -15793173.30148  19558113.21948
 08 11  4  3 40 59.9920000  0  9  3  6  7  8 11 16 19 25 27
 -19764376.84807  18998773.77307 -15362825.74248  18998770.31348
  -8584971.58606  20245117.61706  -6670977.41848  20245115.42648
 -23671643.81607  18592468.30507 -18436272.52049  18592465.01649
  -8158633.82006  20714633.75006  -6347521.05947  20714632.15247
 -12028342.84406  19936109.27306  -9362463.52748  19936105.64548
   7837515.92205  21812889.08605   6111428.87147  21812887.18447
 -28383711.39507  18090962.13307 -22107229.10249  18090956.95349
 -26068374.86707  18846661.28107 -20304523.26648  18846658.05148
 -20366743.73407  19545293.75807 -15845678.03548  19545291.19948
 08 11  4  3 41 29.9920000  0  9  3  6  7  8 11 16 19 25 27
 -19723397.43007  19006571.91407 -15330893.74248  19006568.81348
  -8538525.21106  20253955.88306  -6634785.45748  20253953.81648
 -23712150.07407  18584760.32807 -18467835.84848  18584756.74248
  -8276930.55106  20692122.93006  -6439700.32047  20692121.02747
 -12154589.62507  19912085.37507  -9460837.62948  19912081.71148
   7890217.84805  21822918.59405   6152495.23846  21822916.07846
 -28389164.73007  18089924.36707 -22111478.45349  18089919.35649
 -26066883.46107  18846944.85207 -20303361.13748  18846941.61348
 -20433626.84807  19532566.38307 -15897794.75448  19532563.37148
 08 11  4  3 41 59.9920000  0  9  3  6  7  8 11 16 19 25 27
 -19682211.18807  19014409.46907 -15298800.56648  19014406.93048
  -8491970.15606  20262815.37506  -6598508.79748  20262812.78148
 -23752028.16407  18577171.55507 -18498909.69548  18577167.99248
  -8394841.39106  20669684.94506  -6531578.87547  20669683.03947
 -12280534.73007  19888118.34407  -9558976.67648  19888115.45748
   7943086.24204  21832978.25804   6193691.35246  21832976.23846
 -28394269.13307  18088953.11707 -22115455.92249  18088948.08249
 -26064837.50007  18847334.81307 -20301766.90248  18847331.21948
 -20500002.09807  19519935.71907 -15949515.73848  19519933.28548
 08 11  4  3 42 29.9920000  0  9  3  6  7  8 11 16 19 25 27
 -19640825.84007  19022285.00807 -15266552.26648  19022281.96148
  -8445313.58607  20271693.95307  -6562153.03948  20271691.20348
 -23791283.35907  18569701.60907 -18529498.16449  18569698.04349
  -8512368.94106  20647320.21906  -6623158.77347  20647317.82847
 -12406181.70706  19864208.54706  -9656883.39548  19864205.07448
   7996115.22304  21843070.18004   6235012.59046  21843067.35946
 -28399032.09407  18088046.82807 -22119167.32049  18088041.66049
 -26062244.02707  18847827.90607 -20299746.02348  18847824.64148
 -20565873.97307  19507400.56307 -16000844.46948  19507398.21548
 08 11  4  3 42 59.9920000  0  9  3  6  7  8 11 16 19 25 27
 -19599240.23007  19030198.15607 -15234147.91848  19030195.16448
  -8398554.14806  20280591.34406  -6525717.10947  20280589.65247
 -23829912.71907  18562350.54707 -18559598.98049  18562347.16049
  -8629508.52006  20625029.25006  -6714436.34847  20625026.72747
 -12531525.74206  19840356.32006  -9754554.07447  19840353.32847
   8049306.82405  21853192.25805   6276460.57846  21853188.47346
 -28403452.77307  18087205.86707 -22122612.00849  18087200.39149
 -26059101.55107  18848426.08607 -20297297.34848  18848423.07448
 -20631238.80907  19494962.18807 -16051778.11348  19494959.34048
 08 11  4  3 43 29.9920000  0  9  3  6  7  8 11 16 19 25 27
 -19557451.69507  19038150.30507 -15201585.41448  19038146.84448
  -8351688.69906  20289509.57806  -6489198.61347  20289507.73847
 -23867911.48807  18555119.89807 -18589208.42248  18555116.54748
  -8746252.46106  20602813.69506  -6805405.62947  20602811.75847
 -12656560.14806  19816563.00806  -9851983.46947  19816560.40647
   8102665.23005  21863346.37505   6318038.50046  21863343.64546
 -28407528.18807  18086429.87507 -22125787.66449  18086425.01649
 -26055406.82807  18849129.53907 -20294418.35548  18849126.32048
 -20696090.66007  19482621.16407 -16102312.02748  19482618.47348
 08 11  4  3 43 59.9920000  0  9  3  6  7  8 11 16 19 25 27
 -19515466.50807  19046139.71107 -15168869.68848  19046136.63348
  -8304723.09006  20298446.89806  -6452602.04347  20298444.19147
 -23905283.63707  18548008.25807 -18618329.58248  18548004.58648
  -8862602.52306  20580673.20306  -6896068.00447  20580670.91847
 -12781287.67206  19792828.05506  -9949173.74248  19792825.22748
   8156184.91905  21873530.86705   6359742.11346  21873528.84846
 -28411264.41807  18085718.78907 -22128699.01649  18085713.94149
 -26051165.58207  18849936.39807 -20291113.50848  18849933.61348
 -20760432.91407  19470377.04707 -16152448.87148  19470374.50048
 08 11  4  3 44 29.9920000  0  9  3  6  7  8 11 16 19 25 27
 -19473280.99607  19054167.19507 -15135997.87548  19054164.53948
  -8257653.62506  20307403.96106  -6415924.55147  20307401.74247
 -23942024.12907  18541016.57007 -18646958.54749  18541013.02049
  -8978551.15606  20558609.18806  -6986417.57047  20558606.61347
 -12905701.39106  19769153.04706 -10046119.48048  19769150.04748
   8209870.24605  21883747.01605   6401574.77746  21883744.54746
 -28414658.57407  18085073.04707 -22131343.82449  18085067.76249
 -26046374.28507  18850848.28107 -20287380.03148  18850844.88748
 -20824259.40607  19458231.32007 -16202183.79748  19458228.98848
 08 11  4  3 44 59.9920000  0  9  3  6  7  8 11 16 19 25 27
 -19430895.74207  19062233.48407 -15102970.41848  19062230.35248
  -8210480.48006  20316380.43806  -6379166.28947  20316378.85947
 -23978131.29307  18534145.46107 -18675094.01248  18534141.97348
  -9094094.37106  20536621.57006  -7076451.22347  20536619.35647
 -13029797.92206  19745538.50806 -10142818.05948  19745534.71148
   8263722.16804  21893993.68804   6443537.29746  21893991.69946
 -28417711.15207  18084492.14807 -22133722.45349  18084487.12949
 -26041032.96907  18851864.46907 -20283217.98048  18851861.59848
 -20887567.69507  19446184.10207 -16251514.94148  19446181.81648
 08 11  4  3 45 29.9920000  0  9  3  6  7  8 11 16 19 25 27
 -19388312.82407  19070336.27307 -15069788.92648  19070333.94148
  -8163204.92606  20325376.74206  -6342328.22347  20325375.15647
 -24013605.09407  18527395.01607 -18702735.93849  18527391.87149
  -9209229.84806  20514711.95306  -7166167.16047  20514710.19147
 -13153575.21506  19721984.05506 -10239267.87948  19721981.23448
   8317739.73805  21904273.10205   6485628.83246  21904270.57846
 -28420423.50807  18083975.87507 -22135835.97749  18083971.00449
 -26035143.10507  18852985.10907 -20278628.48448  18852982.09048
 -20950357.14506  19434235.97706 -16300441.78548  19434233.14848
 08 11  4  3 45 59.9920000  0  9  3  6  7  8 11 16 19 25 27
 -19345528.82807  19078478.14807 -15036450.77348  19078475.50448
  -8115823.45706  20334393.54706  -6305407.61348  20334390.50848
 -24048440.36707  18520766.07007 -18729880.30949  18520762.85949
  -9323949.89106  20492881.84406  -7255559.36747  20492878.83647
 -13277026.78906  19698491.80506 -10335463.87147  19698488.83647
   8371927.34005  21914584.98405   6527852.86746  21914582.51646
 -28422792.77307  18083525.40607 -22137682.15649  18083520.06649
 -26028701.20707  18854211.25007 -20273608.84048  18854207.98448
 -21012621.51606  19422386.85206 -16348959.46948  19422385.22348
 08 11  4  3 46 29.9920000  0  9  3  6  7  8 11 16 19 25 27
 -19302548.83207  19086656.64107 -15002959.86748  19086654.09448
  -8068340.64106  20343429.53906  -6268408.02048  20343426.54348
 -24082640.07807  18514258.24207 -18756529.44549  18514254.73849
  -9438255.34806  20471130.07806  -7344628.52047  20471127.91447
 -13400153.54706  19675062.26606 -10431406.77748  19675058.25448
   8426281.10904  21924928.15604   6570206.43046  21924925.09046
 -28424823.93007  18083138.50007 -22139264.87949  18083133.69549
 -26021711.87508  18855541.05508 -20268162.61748  18855537.85648
 -21074362.79306  19410638.33606 -16397069.56648  19410635.88748
 08 11  4  3 46 59.9920000  0  9  3  6  7  8 11 16 19 25 27
 -19259370.47307  19094873.19507 -14969314.41848  19094870.93448
  -8020753.51206  20352485.17206  -6231327.15647  20352482.69947
 -24116200.24607  18507872.25007 -18782680.23049  18507868.47349
  -9552139.20706  20449458.34406  -7433369.17247  20449456.70747
 -13522949.45707  19651694.98407 -10527091.87548  19651691.49248
   8480804.44104  21935303.21904   6612692.09446  21935300.77046
 -28426514.52707  18082816.93007 -22140582.23049  18082812.01649
 -26014172.36307  18856976.03107 -20262287.68448  18856972.80948
 -21135576.01606  19398989.35906 -16444768.18048  19398987.00848
 08 11  4  3 47 29.9920000  0  8  3  6  7  8 11 19 25 27
 -19215986.44107  19103129.38307 -14935508.70348  19103126.68448
  -7973054.71106  20361561.28106  -6194159.29747  20361560.07047
 -24149111.55507  18501609.28107 -18808325.41849  18501605.50049
  -9665589.94906  20427869.82006  -7521772.32847  20427867.09447
 -13645403.67606  19628392.23406 -10622510.70748  19628389.16048
 -28427857.49607  18082561.31307 -22141628.69549  18082556.09049
 -26006075.24207  18858516.58607 -20255978.25448  18858513.98448
 -21196251.09007  19387444.29707 -16492047.47348  19387441.38348
 08 11  4  3 47 59.9920000  0  8  3  6  7  8 11 19 25 27
 -19172396.65207  19111423.98407 -14901542.64848  19111421.38748
  -7925243.65606  20370659.93806  -6156903.97347  20370657.57447
 -24181372.40607  18495470.34407 -18833463.74649  18495467.03149
  -9778603.09406  20406364.19506  -7609834.48447  20406361.50847
 -13767512.76206  19605155.21906 -10717660.64548  19605152.10948
 -28428852.66007  18082372.13307 -22142404.16849  18082366.58249
 -25997420.38707  18860163.79707 -20249234.22748  18860160.93048
 -21256385.51607  19376000.91407 -16538905.46948  19375997.50048
 08 11  4  3 48 29.9920000  0  8  3  6  7  8 11 19 25 27
 -19128590.68807  19119759.53907 -14867408.13348  19119756.94948
  -7877309.94906  20379781.29706  -6119553.05147  20379778.74647
 -24212970.93807  18489457.04707 -18858085.99248  18489454.05948
  -9891164.43406  20384944.44506  -7697544.60947  20384942.05547
 -13889262.79706  19581987.66406 -10812530.76648  19581984.24248
 -28429490.25407  18082250.68807 -22142900.98849  18082245.34849
 -25988197.53907  18861918.68807 -20242047.59048  18861915.58648
 -21315966.55107  19364662.80507 -16585332.25848  19364660.04748
 08 11  4  3 48 59.9920000  0  8  3  6  7  8 11 19 25 27
 -19084570.07007  19128137.10207 -14833106.36348  19128134.28148
  -7829254.62906  20388925.62506  -6082107.36747  20388923.21147
 -24243907.07807  18483569.84407 -18882192.07049  18483567.07449
 -10003271.16406  20363611.70306  -7784900.48847  20363608.16447
 -14010651.53506  19558887.71906 -10907119.36348  19558885.18048
 -28429771.65607  18082197.22707 -22143120.26249  18082191.98849
 -25978407.86307  18863781.88307 -20234419.28948  18863778.63348
 -21374992.82007  19353430.29707 -16631326.74648  19353427.80948
 08 11  4  3 49 29.9920000  0  8  3  6  7  8 11 19 25 27
 -19040328.89107  19136555.72707 -14798632.72748  19136553.42648
  -7781070.62506  20398094.16406  -6044561.39847  20398092.71547
 -24274172.23807  18477810.79707 -18905775.31648  18477807.65648
 -10114912.32806  20342366.78906  -7871893.60247  20342363.11347
 -14131668.94906  19535859.19506 -11001418.63348  19535855.75848
 -28429690.14807  18082212.76607 -22143056.75449  18082207.87149
 -25968044.65607  18865753.49207 -20226344.07048  18865750.85648
 -21433455.12507  19342305.17207 -16676881.79748  19342302.80548
 08 11  4  3 49 59.9920000  0  8  3  6  7  8 11 19 25 27
 -18995870.01607  19145015.70307 -14763989.47348  19145013.31348
  -7732761.09406  20407287.17206  -6006917.63347  20407285.78547
 -24303768.48407  18472179.43807 -18928837.34849  18472175.37149
 -10226087.14506  20321210.77306  -7958523.31647  20321207.64847
 -14252314.86306  19512901.00006 -11095428.40648  19512898.07848
 -28429249.53507  18082296.99207 -22142713.42249  18082291.47349
 -25957111.39507  18867834.27307 -20217824.66848  18867831.21548
 -21491354.31606  19331287.39106 -16721998.05548  19331284.42648
 08 11  4  3 50 29.9920000  0  8  3  6  7  8 11 19 25 27
 -18951202.21107  19153515.93807 -14729183.41048  19153513.43848
  -7684334.54306  20416503.22706  -5969182.68047  20416500.49247
 -24332702.84407  18466672.95307 -18951383.61349  18466669.77749
 -10336800.14506  20300142.82806  -8044793.16847  20300139.97747
 -14372594.52006  19490012.50006 -11189152.79348  19490009.60248
 -28428458.74607  18082447.16407 -22142097.22749  18082442.30949
 -25945616.85507  18870021.57007 -20208867.89848  18870018.18048
 -21548696.68006  19320375.43806 -16766680.41448  19320373.21548
 08 11  4  3 50 59.9920000  0  8  3  6  7  8 11 19 25 27
 -18906329.47707  19162055.12507 -14694217.65648  19162052.21148
  -7635794.21106  20425740.28906  -5931359.07447  20425737.88747
 -24360977.91807  18461292.09407 -18973416.12949  18461289.14549
 -10447051.07006  20279162.39806  -8130702.96147  20279159.77347
 -14492508.29306  19467193.33606 -11282592.08248  19467190.47348
 -28427321.59407  18082663.55507 -22141211.12949  18082658.53949
 -25933564.69107  18872315.21107 -20199476.61748  18872311.97748
 -21605483.59406  19309569.40606 -16810929.96548  19309567.20348
 08 11  4  3 51 29.9920000  0  8  3  6  7  8 11 19 25 27
 -18861258.63707  19170631.93007 -14659097.53548  19170629.32448
  -7587146.45706  20434997.79706  -5893451.74647  20434995.75047
 -24388598.64107  18456036.62507 -18994938.78149  18456033.29349
 -10556842.02306  20258270.14806  -8216254.33247  20258267.64847
 -14612059.34806  19444443.64806 -11375748.73048  19444440.64548
 -28425844.98807  18082944.15607 -22140060.52349  18082938.90249
 -25920961.65607  18874713.40607 -20189656.09448  18874710.19948
 -21661718.96507  19298868.39807 -16854749.72748  19298866.09848
 08 11  4  3 51 59.9920000  0  8  3  6  7  8 11 19 25 27
 -18815990.32807  19179245.27307 -14623823.55148  19179243.29348
  -7538391.71906  20444275.48406  -5855461.06347  20444273.42647
 -24415564.29707  18450905.13307 -19015950.99249  18450901.81349
 -10666169.89506  20237465.98406  -8301444.87147  20237462.75447
 -14731244.94906  19421763.28906 -11468620.61348  19421760.63748
 -28424029.58207  18083289.74207 -22138645.91849  18083284.82449
 -25907808.46507  18877216.08607 -20179406.86748  18877213.39148
 -21717401.31307  19288272.15607 -16898138.57448  19288269.59848
 08 11  4  3 52 29.9920000  0  8  3  6  7  8 11 19 25 27
 -18770531.45707  19187896.56307 -14588401.07448  19187893.49648
  -7489536.52706  20453572.60206  -5817392.12547  20453569.35247
 -24441880.37107  18445896.87507 -19036457.03148  18445893.94948
 -10775037.51206  20216749.28906  -8386276.77047  20216746.87947
 -14850068.59807  19399151.83607 -11561210.45748  19399148.52348
 -28421882.93007  18083698.29707 -22136973.20749  18083693.57049
 -25894112.34807  18879822.71107 -20168734.58648  18879819.81348
 -21772535.09007  19277780.64807 -16941099.95748  19277777.94548
 08 11  4  3 52 59.9920000  0  8  3  6  7  8 11 19 25 27
 -18724888.06607  19196581.99207 -14552834.79748  19196579.27748
  -7440586.87506  20462886.49206  -5779249.54347  20462884.63747
 -24467551.59007  18441011.68007 -19056460.59049  18441008.78949
 -10883446.88706  20196119.43006  -8470751.59047  20196116.50847
 -14968532.96507  19376609.24207 -11653520.34848  19376605.35248
 -28419411.19107  18084168.27307 -22135047.18049  18084163.33249
 -25879879.44107  18882531.08607 -20157644.02048  18882528.23848
 -21827124.05107  19267392.50807 -16983636.81348  19267390.14548
 08 11  4  3 53 29.9920000  0  8  3  6  7  8 11 19 25 27
 -18679058.54307  19205303.18007 -14517123.50848  19205300.57048
  -7391540.53506  20472220.53906  -5741031.65647  20472218.43447
 -24492575.16807  18436250.28107 -19075959.48449  18436247.36349
 -10991392.13706  20175577.60906  -8554864.75847  20175575.41447
 -15086632.71107  19354135.64107 -11745546.09848  19354132.24648
 -28416612.41407  18084701.27307 -22132866.32449  18084696.16049
 -25865108.27707  18885342.29707 -20146134.03548  18885339.27048
 -21881164.05906  19257109.09406 -17025745.91848  19257106.91848
 08 11  4  3 53 59.9920000  0  8  3  6  7  8 11 19 25 27
 -18633052.05106  19214057.75806 -14481274.30148  19214055.03948
  -7342406.05106  20481569.89806  -5702745.08247  20481568.19547
 -24516958.46107  18431610.25007 -19094959.47349  18431606.86349
 -11098878.09006  20155124.13306  -8638620.03147  20155121.99647
 -15204373.56607  19331730.06307 -11837292.21948  19331726.36748
 -28413495.91807  18085294.03907 -22130437.88349  18085289.41049
 -25849807.87907  18888253.33607 -20134211.65648  18888250.73448
 -21934661.77707  19246928.65607 -17067432.45348  19246926.09448
 08 11  4  3 54 29.9920000  0  8  3  6  7  8 11 19 25 27
 -18586860.80907  19222847.62507 -14445281.14848  19222845.10248
  -7293175.46906  20490938.18806  -5664383.60547  20490936.47747
 -24540692.41007  18427093.98407 -19113453.46949  18427090.71949
 -11205892.89106  20134759.79706  -8722008.16447  20134757.57047
 -15321744.31307  19309395.54707 -11928749.93048  19309392.20748
 -28410054.39507  18085949.01607 -22127756.18449  18085943.94549
 -25833970.60907  18891267.30507 -20121870.95348  18891264.36348
 -21987607.25007  19236853.47707 -17108688.67248  19236850.90648
 08 11  4  3 54 59.9920000  0  8  3  6  7  8 11 19 25 27
 -18540492.61707  19231671.29707 -14409150.10948  19231669.01648
  -7243856.11306  20500323.41406  -5625952.97747  20500321.64847
 -24563783.88707  18422699.71107 -19131446.82849  18422696.44549
 -11312440.29306  20114484.08606  -8805032.09847  20114481.80947
 -15438749.21907  19287129.61707 -12019922.57048  19287126.21548
 -28406295.84007  18086664.39107 -22124827.44149  18086659.25449
 -25817604.72707  18894381.29707 -20109118.32848  18894378.49248
 -22040005.93807  19226882.33607 -17149518.82448  19226880.40248
 08 11  4  3 55 29.9920000  0  8  3  6  7  8 11 19 25 27
 -18493942.73407  19240529.33607 -14372877.48448  19240526.98148
  -7194442.94506  20509726.84406  -5587449.22747  20509724.49247
 -24586226.65607  18418429.03907 -19148934.71148  18418425.72748
 -11418511.38306  20094299.46906  -8887684.89547  20094297.63347
 -15555380.39107  19264935.75007 -12110803.99248  19264932.26248
 -28402215.55107  18087440.63307 -22121648.00449  18087435.75449
 -25800705.61707  18897597.24207 -20095950.21548  18897594.11748
 -22091850.63307  19217016.76607 -17189917.29348  19217014.77748
 08 11  4  3 55 59.9920000  0  8  3  6  7  8 11 19 25 27
 -18447218.51206  19249421.03906 -14336469.00848  19249418.30148
  -7144942.86706  20519146.19506  -5548877.74247  20519144.45347
 -24608026.86307  18414280.70307 -19165921.89549  18414277.05549
 -11524109.54706  20074205.49206  -8969969.15647  20074203.05147
 -15671641.69907  19242811.55507 -12201397.20748  19242808.85648
 -28397821.07407  18088277.30507 -22118223.73449  18088272.21549
 -25783280.71507  18900913.00807 -20082372.37548  18900909.99648
 -22143146.52307  19207255.78907 -17229888.12548  19207253.19948
 08 11  4  3 56 29.9920000  0  8  3  6  7  8 11 19 25 27
 -18400317.91006  19258345.98406 -14299923.09848  19258343.13748
  -7095353.64806  20528583.10206  -5510236.83247  20528581.43447
 -24629181.77007  18410255.10207 -19182406.25049  18410251.93049
 -11629228.94906  20054201.59406  -9051880.38347  20054199.15647
 -15787528.03107  19220759.28107 -12291698.22348  19220756.12148
 -28393110.89507  18089173.33607 -22114553.47749  18089168.46149
 -25765328.76207  18904329.10907 -20068383.86748  18904326.12548
 -22193889.45707  19197599.30507 -17269428.07848  19197596.96148
 08 11  4  3 56 59.9920000  0  8  3  6  7  8 11 19 25 27
 -18353242.92606  19267304.04706 -14263241.30548  19267301.60948
  -7045676.59806  20538036.06306  -5471527.44947  20538034.26647
 -24649691.35207  18406352.25007 -19198387.74649  18406349.12549
 -11733866.79706  20034289.60206  -9133416.35547  20034287.64547
 -15903037.39507  19198778.68807 -12381705.52048  19198775.53948
 -28388086.46507  18090129.65607 -22110638.33249  18090124.56649
 -25746851.39807  18907845.48407 -20053985.93848  18907842.58248
 -22244078.98807  19188048.46107 -17308536.80148  19188046.49248
 08 11  4  3 57 29.9920000  0  8  3  6  7  8 11 19 25 27
 -18305997.97306  19276293.91406 -14226427.07048  19276292.03148
  -6995915.96906  20547504.59406  -5432752.94547  20547502.96147
 -24669559.60207  18402571.24207 -19213869.50049  18402568.28549
 -11838024.21906  20014469.33606  -9214577.96947  20014466.71147
 -16018171.43007  19176869.41407 -12471420.32048  19176866.32848
 -28382752.85507  18091144.41407 -22106482.28149  18091139.48449
 -25727853.71107  18911460.53107 -20039182.57448  18911457.81648
 -22293717.73007  19178603.07007 -17347216.34848  19178600.30948
 08 11  4  3 57 59.9920000  0  8  3  6  7  8 11 19 25 27
 -18258591.87106  19285314.69506 -14189487.27048  19285312.69548
  -6946080.31606  20556988.18806  -5393919.99247  20556986.85947
 -24688794.11707  18398911.09407 -19228857.44949  18398908.21149
 -11941705.85906  19994738.85906  -9295368.84847  19994737.02347
 -16132935.66407  19155030.81307 -12560846.98848  19155027.40648
 -28377119.21507  18092216.78107 -22102092.43449  18092211.71949
 -25708345.09007  18915172.79707 -20023981.04748  18915170.27048
 -22342812.07807  19169259.85907 -17385471.68448  19169257.80148
 08 11  4  3 58 29.9920000  0  8  3  6  7  8 11 19 25 27
 -18211029.48406  19294366.10906 -14152425.69548  19294363.69548
  -6896174.05506  20566484.60206  -5355032.03147  20566483.39147
 -24707398.75007  18395370.96907 -19243354.58248  18395367.18448
 -12044912.53506  19975100.07806  -9375789.63347  19975096.96147
 -16247331.23807  19133262.00807 -12649986.39148  19133258.21548
 -28371190.55107  18093344.76607 -22097472.69549  18093339.62149
 -25688330.60207  18918981.33607 -20008385.36348  18918978.98148
 -22391364.93407  19160021.37507 -17423305.08648  19160019.01648
 08 11  4  3 58 59.9920000  0  8  3  6  7  8 11 19 25 27
 -18163308.22306  19303447.46906 -14115240.30148  19303444.75448
  -6846193.49606  20575996.55506  -5316086.18847  20575994.55547
 -24725369.19507  18391950.82807 -19257357.53549  18391948.17249
 -12147637.11307  19955551.89107  -9455834.74647  19955549.48447
 -16361352.16407  19111564.07807 -12738833.85548  19111561.18048
 -28364963.99207  18094529.44507 -22092620.84449  18094524.77749
 -25667807.49607  18922887.14107 -19992393.34048  18922884.44148
 -22439370.95707  19150885.91407 -17460712.37948  19150883.54748
 08 11  4  3 59 29.9920000  0  8  3  6  7  8 11 19 25 27
 -18115432.77006  19312557.87506 -14077934.76648  19312554.93448
  -6796143.63306  20585520.21106  -5277086.31347  20585518.45747
 -24742710.03507  18388651.33607 -19270869.88349  18388648.47349
 -12249880.90606  19936095.66406  -9535505.21147  19936093.16847
 -16475000.13307  19089938.00807 -12827390.69548  19089934.50448
 -28358445.06307  18095770.22707 -22087541.16849  18095765.30549
 -25646781.49207  18926887.95307 -19976009.46548  18926885.01248
 -22486833.38707  19141854.14807 -17497696.09448  19141851.95748
 08 11  4  3 59 59.9920000  0  8  3  6  7  8 11 19 25 27
 -18067406.31306  19321696.84406 -14040511.57048  19321694.60648
  -6746027.09006  20595057.70306  -5238034.46947  20595055.43447
 -24759423.28907  18385470.89807 -19283893.21549  18385467.85649
 -12351642.88306  19916730.60906  -9614800.26247  19916728.42247
 -16588275.10507  19068382.88307 -12915656.90648  19068379.49648
 -28351636.73407  18097065.55507 -22082235.97749  18097060.35249
 -25625256.06607  18930984.46107 -19959236.42648  18930981.34048
 -22533752.94507  19132926.00807 -17534256.80548  19132922.90248
 08 11  4  4  0 29.9920000  0  8  3  6  7  8 11 19 25 27
 -18019233.61706  19330863.81306 -14002974.42648  19330861.62148
  -6695848.48006  20604606.48406  -5198934.28147  20604604.47747
 -24775512.77307  18382409.14107 -19296430.48049  18382405.79349
 -12452923.90606  19897457.48406  -9693720.52347  19897455.50047
 -16701178.78907  19046897.08607 -13003633.78148  19046894.75048
 -28344544.35208  18098415.29708 -22076709.43049  18098410.52749
 -25603236.68007  18935174.44507 -19942078.48848  18935171.55948
 -22580132.86307  19124099.62507 -17570396.99648  19124097.37148
 08 11  4  4  0 59.9920000  0  8  3  6  7  8 11 19 25 27
 -17970918.44906  19340057.91406 -13965326.27348  19340055.76248
  -6645610.72706  20614165.89106  -5159788.01647  20614164.24247
 -24790981.19907  18379465.46907 -19308483.81348  18379462.23848
 -12553723.80906  19878275.83606  -9772265.89147  19878273.35247
 -16813711.30507  19025482.93807 -13091321.46148  19025480.25848
 -28337171.46907  18099817.98407 -22070964.32449  18099813.46549
 -25580727.18807  18939458.11707 -19924538.65648  18939454.98448
 -22625974.26607  19115376.32807 -17606117.57048  19115373.81348
 08 11  4  4  1 29.9920000  0  8  3  6  7  8 11 19 25 27
 -17922460.89806  19349278.89806 -13927567.15648  19349276.42248
  -6595314.10206  20623737.14106  -5120595.87547  20623735.38347
 -24805828.40607  18376640.46107 -19320053.07849  18376636.99649
 -12654039.41807  19859186.28907  -9850433.89547  19859183.81347
 -16925870.09807  19004139.93807 -13178717.92248  19004137.47348
 -28329519.08207  18101274.18007 -22065001.43449  18101269.28949
 -25557728.72707  18943834.32807 -19906617.80948  18943831.50048
 -22671275.95307  19106755.90607 -17641417.59448  19106753.51648
 08 11  4  4  1 59.9920000  0  8  3  6  7  8 11 19 25 27
 -17873864.44106  19358527.13306 -13889699.80948  19358524.25448
  -6544961.42206  20633319.49206  -5081360.03147  20633317.07047
 -24820056.62107  18373932.84407 -19331140.00449  18373929.99649
 -12753869.91006  19840189.18806  -9928223.86747  19840187.10647
 -17037655.18407  18982868.64807 -13265823.17248  18982864.80548
 -28321590.64807  18102783.42207 -22058823.43049  18102778.25049
 -25534245.23407  18948303.59407 -19888319.01248  18948300.40248
 -22716039.25807  19098237.53907 -17676298.09848  19098235.44148
 08 11  4  4  2 29.9920000  0  8  3  6  7  8 11 19 25 27
 -17825136.31306  19367799.46906 -13851729.84848  19367796.93048
  -6494559.39806  20642910.08606  -5042085.76247  20642908.45347
 -24833672.07407  18371341.74207 -19341749.45749  18371338.79749
 -12853218.45706  19821284.10906 -10005638.29747  19821281.61347
 -17149070.25007  18961666.40607 -13352640.10248  18961663.19548
 -28313393.31307  18104343.32807 -22052435.90249  18104338.34849
 -25510284.24607  18952862.42207 -19869648.12948  18952860.38348
 -22760269.12107  19089820.90607 -17710762.92648  19089818.60648
 08 11  4  4  2 59.9920000  0  8  3  6  7  8 11 19 25 27
 -17776269.08606  19377098.85906 -13813651.51248  19377096.21548
  -6444100.10506  20652512.14106  -5002766.85947  20652510.62547
 -24846666.86307  18368869.03907 -19351875.27749  18368865.67649
 -12952073.53906  19802472.48406 -10082668.21147  19802470.04347
 -17260104.82007  18940537.34407 -13439160.53548  18940534.08648
 -28304919.82407  18105955.72707 -22045833.17249  18105950.91449
 -25485838.80907  18957514.82007 -19850599.75848  18957512.01248
 -22803956.32807  19081507.71907 -17744804.90648  19081504.96948
 08 11  4  4  3 29.9920000  0  8  3  6  7  8 11 19 25 27
 -17727268.60506  19386423.45306 -13775469.34048  19386420.58248
  -6393589.25806  20662124.18806  -4963407.78147  20662122.29747
 -24859046.18807  18366513.45307 -19361521.52349  18366510.05949
 -13050437.35206  19783754.39106 -10159315.33647  19783751.75447
 -17370761.82807  18919479.70307 -13525386.77348  18919476.14148
 -28296176.78907  18107619.11707 -22039020.41849  18107614.72749
 -25460915.75407  18962257.38307 -19831179.20748  18962254.38748
 -22847105.01207  19073297.12507 -17778427.27048  19073294.86348
 08 11  4  4  3 59.9920000  0  8  3  6  7  8 11 19 25 27
 -17678128.09806  19395774.37506 -13737178.05148  19395771.32048
  -6343019.79306  20671747.15606  -4924002.99247  20671744.57847
 -24870802.66007  18364276.24207 -19370682.41049  18364272.58649
 -13148299.45706  19765131.88306 -10235571.51247  19765129.25047
 -17481031.40207  18898496.30507 -13611311.10248  18898493.09048
 -28287157.34407  18109335.93807 -22031992.28149  18109330.97749
 -25435508.97707  18967092.39107 -19811381.73848  18967089.13748
 -22889706.55107  19065189.97707 -17811623.27748  19065187.57848
 08 11  4  4  4 29.9920000  0  8  3  6  7  8 11 19 25 27
 -17628848.86706  19405151.61706 -13698778.64848  19405149.13748
  -6292392.37106  20681381.35206  -4884553.06647  20681378.90247
 -24881936.93407  18362157.61707 -19379358.48449  18362154.19949
 -13245657.91006  19746605.24206 -10311435.23447  19746602.73847
 -17590911.75007  18877586.78907 -13696932.13348  18877583.58648
 -28277863.40207  18111104.36707 -22024750.25849  18111099.93849
 -25409620.47307  18972018.82007 -19791208.90248  18972015.82848
 -22931760.82807  19057187.35207 -17844392.85248  19057184.78148
 08 11  4  4  4 59.9920000  0  8  3  6  7  8 11 19 25 27
 -17579432.59406  19414555.16406 -13660272.47748  19414552.54748
  -6241708.60206  20691025.92206  -4845059.26247  20691024.90247
 -24892450.18407  18360156.78907 -19387550.63349  18360153.62949
 -13342510.31606  19728174.71106 -10386904.64147  19728172.37947
 -17700401.55507  18856751.35207 -13782248.86348  18856747.98448
 -28268296.98007  18112924.82807 -22017295.90249  18112919.94549
 -25383252.59407  18977036.45307 -19770662.53148  18977033.60648
 -22973267.41407  19049288.81307 -17876735.65648  19049286.18448
 08 11  4  4  5 29.9920000  0  8  3  6  7  8 11 19 25 27
 -17529882.48406  19423984.45306 -13621662.01648  19423981.52748
  -6190971.02706  20700681.33606  -4805523.51647  20700679.98147
 -24902344.87507  18358273.89807 -19395260.78549  18358270.87949
 -13438855.90606  19709840.39106 -10461979.11347  19709838.13747
 -17809500.88707  18835990.28907 -13867261.32048  18835986.73448
 -28258461.37507  18114796.50007 -22009631.79349  18114791.22349
 -25356409.25807  18982144.57807 -19749745.67248  18982141.57448
 -23014227.83207  19041494.05507 -17908652.87148  19041491.86348
 08 11  4  4  5 59.9920000  0  8  3  6  7  8 11 19 25 27
 -17480194.59007  19433439.43007 -13582944.19148  19433436.99248
  -6140175.00806  20710347.28906  -4765942.23447  20710345.50047
 -24911616.43807  18356509.53107 -19402485.39548  18356506.23448
 -13534686.67606  19691604.98406 -10536652.41848  19691602.56348
 -17918202.19907  18815305.60907 -13951963.63348  18815302.05148
 -28248352.54307  18116719.93007 -22001754.78149  18116715.19949
 -25329086.90607  18987343.20307 -19728455.55148  18987340.86748
 -23054635.92607  19033804.67207 -17940139.70748  19033802.34848
 08 11  4  4  6 29.9920000  0  8  3  6  7  8 11 19 25 27
 -17430364.88706  19442921.75006 -13544115.85548  19442919.37948
  -6089316.63706  20720025.96906  -4726312.34847  20720022.29347
 -24920260.48007  18354864.84407 -19409221.02348  18354861.43848
 -13629995.26606  19673468.24206 -10610918.84048  19673465.72348
 -18026499.01207  18794697.59407 -14036350.75448  18794693.82048
 -28237967.19507  18118696.43807 -21993662.30949  18118691.37549
 -25301282.68807  18992634.60207 -19706789.95348  18992631.59048
 -23094486.50407  19026221.66407 -17971192.11748  19026219.03548
 08 11  4  4  6 59.9910000  0  8  3  6  7  8 11 19 25 27
 -17380405.82406  19452428.46406 -13505186.73848  19452426.64848
  -6038407.73806  20729713.23006  -4686643.06647  20729710.33147
 -24928286.92607  18353337.15907 -19415475.40649  18353334.33149
 -13724785.68406  19655430.51106 -10684781.49647  19655427.95247
 -18134395.49207  18774165.54207 -14120425.93048  18774162.05048
 -28227316.73807  18120722.95607 -21985363.26249  18120717.87849
 -25273009.03107  18998014.87807 -19684758.55948  18998012.09748
 -23133787.19507  19018742.75307 -18001816.03548  19018740.25348
 08 11  4  4  7 29.9910000  0  8  3  6  7  8 11 19 25 27
 -17330313.64806  19461961.18306 -13466153.89848  19461958.63648
  -5987444.37506  20739411.45606  -4646931.36747  20739408.89047
 -24935695.80907  18351927.46407 -19421248.57848  18351924.23348
 -13819060.18006  19637489.76106 -10758242.12547  19637487.82347
 -18241895.34407  18753708.67507 -14204192.03548  18753705.52648
 -28216400.26607  18122800.34707 -21976856.92249  18122795.68349
 -25244264.72307  19003484.99507 -19662360.42648  19003482.09348
 -23172538.77307  19011368.80007 -18032012.07448  19011366.48348
 08 11  4  4  7 59.9910000  0  8  3  6  7  8 11 19 25 27
 -17280090.19507  19471518.44807 -13427018.74248  19471515.24148
  -5936427.76206  20749119.57306  -4607178.18847  20749117.41747
 -24942486.03507  18350635.54207 -19426539.67248  18350632.00748
 -13912811.86306  19619650.03406 -10831295.35547  19619647.32747
 -18348991.82807  18733329.58107 -14287643.84848  18733326.45248
 -28205218.22307  18124928.08907 -21968143.64549  18124923.26149
 -25215051.19107  19009044.21407 -19639596.64848  19009041.17148
 -23210738.12907  19004099.33107 -18061777.80948  19004097.80848
 08 11  4  4  8 29.9910000  0  8  3  6  7  8 11 19 25 27
 -17229741.52006  19481099.18306 -13387785.99648  19481096.94448
  -5885363.80905  20758835.99505  -4567388.14547  20758834.91747
 -24948663.96107  18349459.72207 -19431353.65248  18349456.35548
 -14006043.63306  19601908.15906 -10903943.46547  19601906.62447
 -18455688.51207  18713025.39407 -14370784.11348  18713021.81248
 -28193777.38707  18127105.33907 -21959228.69948  18127100.18348
 -25185375.94107  19014690.76107 -19616473.09848  19014688.31248
 -23248390.20706  18996934.83906 -18091117.09048  18996932.70248
 08 11  4  4  8 59.9910000  0  8  3  6  7  8 11 19 25 27
 -17179270.57007  19490703.70607 -13348458.00448  19490701.47248
  -5834254.96506  20768562.33906  -4527563.11747  20768559.38647
 -24954232.12107  18348400.25307 -19435692.48849  18348396.90549
 -14098754.49606  19584266.08106 -10976185.68048  19584263.87448
 -18561985.42207  18692797.65107 -14453612.86748  18692795.09348
 -28182081.20307  18129330.70607 -21950114.78549  18129325.65149
 -25155242.65207  19020424.99507 -19592992.62548  19020422.57748
 -23285496.28507  18989873.35507 -18120030.91848  18989871.08548
 08 11  4  4  9 29.9910000  0  8  3  6  7  8 11 19 25 27
 -17128677.43006  19500331.15106 -13309034.80548  19500328.31548
  -5783100.97306  20778296.66706  -4487702.87547  20778294.15947
 -24959189.90207  18347456.87007 -19439555.71548  18347453.43348
 -14190941.22306  19566723.91706 -11048019.47348  19566721.32748
 -18667879.25007  18672646.58907 -14536127.53548  18672643.55048
 -28170129.91807  18131605.21407 -21940802.10948  18131600.30048
 -25124652.22307  19026245.62807 -19569155.94948  19026243.60548
 -23322055.09407  18982916.94007 -18148518.30548  18982914.48348
 08 11  4  4  9 59.9910000  0  8  3  6  7  8 11 19 25 27
 -17077967.58607  19509981.07307 -13269520.65248  19509977.80048
  -5731906.85206  20788038.90906  -4447811.33647  20788035.69847
 -24963542.89507  18346628.62007 -19442947.66448  18346625.18348
 -14282605.57006  19549280.84706 -11119446.22748  19549277.80448
 -18773373.03507  18652572.22207 -14618330.48448  18652569.12448
 -28157929.44907  18133927.08107 -21931295.24648  18133922.42148
 -25093611.21107  19032153.23007 -19544968.17248  19032150.65148
 -23358070.59007  18976063.28407 -18176582.32848  18976060.71448
 08 11  4  4 10 29.9910000  0  8  3  6  7  8 11 19 25 27
 -17027141.14107  19519652.60507 -13229915.64548  19519650.27648
  -5680672.49206  20797787.70606  -4407888.50047  20797786.44847
 -24967290.75407  18345915.17507 -19445868.09449  18345912.16349
 -14373744.43406  19531937.55806 -11190463.49248  19531935.08948
 -18878464.11707  18632573.55007 -14700219.64548  18632570.64848
 -28145479.88307  18136295.87007 -21921594.28149  18136291.29649
 -25062120.69107  19038145.83107 -19520430.12548  19038143.16748
 -23393541.34007  18969313.03407 -18204221.87548  18969310.84348
 08 11  4  4 10 59.9910000  0  8  3  6  7  8 11 19 25 27
 -16976200.17607  19529347.08907 -13190221.40248  19529344.41348
  -5629399.12106  20807544.90106  -4367935.26647  20807543.17947
 -24970435.38707  18345317.18307 -19448318.46549  18345313.87049
 -14464355.75806  19514694.63606 -11261069.71548  19514691.97648
 -18983150.92207  18612651.94007 -14781793.78948  18612649.53848
 -28132783.64507  18138712.00307 -21911701.11749  18138707.31249
 -25030183.51207  19044223.24507 -19495544.04348  19044220.60148
 -23428467.85207  18962666.94807 -18231437.34848  18962664.88648
 08 11  4  4 11 29.9910000  0  8  3  6  7  8 11 19 25 27
 -16925145.89507  19539061.73707 -13150438.87548  19539059.43748
  -5578087.88706  20817309.47206  -4327952.52747  20817307.80447
 -24972977.81307  18344832.83107 -19450299.58649  18344829.77649
 -14554437.46106  19497551.94806 -11331263.23448  19497550.02348
 -19087432.21107  18592808.31507 -14863051.93448  18592805.36648
 -28119842.20707  18141174.60507 -21901616.87948  18141169.58148
 -24997801.94507  19050385.13607 -19470311.68048  19050382.47248
 -23462849.97307  18956124.26107 -18258228.62548  18956121.92148
 08 11  4  4 11 59.9910000  0  8  3  6  7  8 11 19 25 27
 -16873975.72307  19548799.16707 -13110566.02048  19548796.64448
  -5526736.08606  20827080.90906  -4287938.14147  20827077.98347
 -24974915.51207  18344463.99507 -19451809.49648  18344461.06548
 -14643983.78106  19480512.63606 -11401039.57848  19480509.89848
 -19191303.23807  18573042.22207 -14943990.39148  18573039.44848
 -28106654.14507  18143684.15107 -21891340.46948  18143679.37048
 -24964974.67207  19056632.17507 -19444732.01648  19056629.37848
 -23496683.96107  18949686.13607 -18284592.78948  18949683.65148
 08 11  4  4 12 29.9910000  0  8  3  6  7  8 11 19 25 27
 -16822700.01207  19558556.91707 -13070610.91848  19558554.78848
  -5475353.18006  20836859.46406  -4247899.53547  20836856.98747
 -24976258.59407  18344209.21407 -19452856.06649  18344205.48049
 -14733001.34806  19463572.87006 -11470403.91048  19463570.12048
 -19294770.79707  18553353.04207 -15024614.46548  18553349.71848
 -28093229.08207  18146239.02607 -21880879.38749  18146234.32749
 -24931712.92607  19062961.86207 -19418813.80948  19062958.71448
 -23529978.64507  18943350.12807 -18310536.69548  18943348.11648
 08 11  4  4 12 59.9910000  0  8  3  6  7  8 11 19 25 27
 -16771314.91807  19568335.37007 -13030570.61748  19568333.03448
  -5423935.39506  20846643.67506  -4207833.75046  20846640.84346
 -24977003.65207  18344067.09707 -19453436.64848  18344063.81948
 -14821483.10906  19446735.34706 -11539350.72748  19446732.86648
 -19397828.45307  18533741.99507 -15104919.12148  18533738.63648
 -28079563.93407  18148839.21407 -21870231.22349  18148834.41749
 -24898014.19907  19069374.30807 -19392555.08648  19069371.56248
 -23562729.17607  18937117.73707 -18336056.59448  18937115.86248
 08 11  4  4 13 29.9910000  0  8  3  6  7  8 11 19 25 27
 -16719819.74607  19578134.47207 -12990444.51248  19578132.13248
  -5372481.53506  20856435.26906  -4167739.87547  20856433.38247
 -24977149.68807  18344039.48707 -19453550.45348  18344036.19848
 -14909425.21506  19430000.69006 -11607877.03948  19429998.28048
 -19500472.99607  18514209.49507 -15184901.87548  18514206.57348
 -28065658.72707  18151485.24507 -21859396.00449  18151480.65149
 -24863879.09807  19075869.83107 -19365956.32048  19075867.19048
 -23594933.68807  18930989.76107 -18361151.02748  18930987.74148
 08 11  4  4 13 59.9910000  0  8  3  6  7  8 11 19 25 27
 -16668223.05506  19587952.84706 -12950239.29347  19587950.17147
  -5320999.44106  20866232.01906  -4127623.97746  20866229.88646
 -24976704.76207  18344123.93307 -19453203.77348  18344120.61248
 -14996832.24206  19413367.84706 -11675986.40248  19413365.08948
 -19602709.78507  18494755.06507 -15264566.88348  18494750.74148
 -28051521.92607  18154175.55007 -21848380.31649  18154170.72649
 -24829316.67607  19082447.13607 -19339024.60548  19082444.17548
 -23626598.65607  18924963.73007 -18385825.03548  18924962.13648
 08 11  4  4 14 29.9910000  0  8  3  6  7  8 11 19 25 27
 -16616524.72706  19597790.51106 -12909954.88747  19597788.06947
  -5269488.94505  20876033.33105  -4087485.96146  20876031.71846
 -24975668.97307  18344321.01107 -19452396.67648  18344317.61648
 -15083701.13706  19396836.31506 -11743676.43848  19396834.08148
 -19704536.10507  18475377.58907 -15343912.06348  18475374.31948
 -28037153.73807  18156909.60507 -21837184.34049  18156905.04649
 -24794328.18407  19089105.48707 -19311760.87948  19089102.12048
 -23657723.11307  18919041.21407 -18410077.86348  18919039.13648
 08 11  4  4 14 59.9910000  0  8  3  6  7  8 11 19 25 27
 -16564725.25406  19607647.66706 -12869591.68847  19607645.56547
  -5217950.20706  20885841.48006  -4047325.92646  20885839.55846
 -24974043.39107  18344630.52607 -19451130.00048  18344626.84348
 -15170029.31606  19380409.33106 -11810945.13348  19380406.54648
 -19805949.96507  18456079.04207 -15422935.83248  18456075.39048
 -28022555.42207  18159688.06507 -21825809.02749  18159682.64049
 -24758915.60907  19095843.96407 -19284166.69548  19095841.11248
 -23688306.80507  18913221.49507 -18433909.32048  18913219.36648
 08 11  4  4 15 29.9910000  0  8  3  6  7  8 11 19 25 27
 -16512830.47306  19617522.88606 -12829154.20347  19617520.98347
  -5166388.10205  20895653.18305  -4007147.70746  20895651.83546
 -24971833.45307  18345051.38607 -19449407.99648  18345047.50348
 -15255818.52006  19364083.96406 -11877793.85248  19364081.78048
 -19906954.00007  18436858.56507 -15501640.27348  18436855.37448
 -28007732.29707  18162508.29207 -21814258.54349  18162503.69049
 -24723085.21107  19102662.19007 -19256246.93048  19102658.73348
 -23718353.73007  18907503.64407 -18457322.51648  18907501.47248
 08 11  4  4 15 59.9910000  0  8  3  6  7  8 11 19 25 27
 -16460840.82406  19627416.59706 -12788642.81347  19627413.71447
  -5114803.43405  20905468.91705  -3966951.88746  20905467.86246
 -24969040.13707  18345582.55807 -19447231.38748  18345579.03048
 -15341066.72306  19347861.91706 -11944221.02048  19347859.05848
 -20007546.87507  18417716.24507 -15580024.31648  18417713.71848
 -27992686.27707  18165371.56507 -21802534.37549  18165366.69049
 -24686839.60507  19109559.64407 -19228003.62948  19109557.02648
 -23747864.00007  18901888.30807 -18480317.53948  18901885.82348
 08 11  4  4 16 29.9910000  0  8  3  6  7  8 11 19 25 27
 -16408759.09407  19637327.46407 -12748059.66047  19637324.69047
  -5063198.02006  20915290.07306  -3926739.89546  20915287.71446
 -24965666.25007  18346224.55807 -19444602.39848  18346220.82748
 -15425772.66406  19331742.40906 -12010225.64148  19331740.25348
 -20107728.15607  18398652.15907 -15658087.64848  18398649.40548
 -27977419.96907  18168276.80807 -21790638.55549  18168272.46849
 -24650182.32407  19116535.34707 -19199439.54748  19116532.61648
 -23776838.87107  18896374.35507 -18502895.37948  18896372.37448
 08 11  4  4 16 59.9910000  0  8  3  6  7  8 11 19 25 27
 -16356586.30507  19647255.60507 -12707405.55948  19647253.80048
  -5011573.27306  20925113.81506  -3886512.81346  20925111.54246
 -24961713.07007  18346976.73707 -19441522.01248  18346972.98048
 -15509934.84006  19315727.15106 -12075806.55148  19315724.57348
 -20207496.41807  18379667.20607 -15735829.14548  18379664.19048
 -27961934.75007  18171223.37007 -21778572.14849  18171218.83149
 -24613115.91007  19123589.01907 -19170556.64848  19123585.97248
 -23805278.31307  18890962.58907 -18525056.00448  18890959.93748
 08 11  4  4 17 29.9910000  0  8  3  6  7  8 11 19 25 27
 -16304321.39106  19657200.90106 -12666679.66847  19657198.70247
  -4959927.18406  20934941.93306  -3846269.08646  20934939.39446
 -24957179.74207  18347839.41707 -19437989.57448  18347836.24948
 -15593548.80506  19299816.11206 -12140960.27748  19299813.18348
 -20306847.80507  18360761.43307 -15813245.80148  18360757.96448
 -27946230.01207  18174212.14407 -21766334.70349  18174207.45649
 -24575640.29707  19130720.16707 -19141354.90248  19130717.00348
 -23833180.23007  18885653.38607 -18546797.76648  18885650.48748
 08 11  4  4 17 59.9910000  0  8  3  6  7  8 11 19 25 27
 -16251970.83206  19667162.71406 -12625887.03147  19667160.68747
  -4908265.85506  20944772.63606  -3806013.50047  20944771.00347
 -24952073.05907  18348811.04207 -19434010.35248  18348807.65948
 -15676617.61307  19284008.92507 -12205689.21548  19284005.98348
 -20405786.55907  18341933.58907 -15890340.93048  18341930.56548
 -27930312.68007  18177241.13607 -21753931.59049  18177236.14449
 -24537763.55507  19137928.27607 -19111840.59448  19137925.15148
 -23860550.35507  18880444.82307 -18568125.15248  18880442.46048
 08 11  4  4 18 29.9910000  0  8  3  6  7  8 11 19 25 27
 -16199534.34806  19677141.42506 -12585027.43047  19677139.77347
  -4856588.66006  20954605.79206  -3765745.62146  20954605.04646
 -24946393.07807  18349891.95607 -19429584.41048  18349888.92948
 -15759138.07007  19268305.30007 -12269990.86748  19268302.62448
 -20504309.46107  18323185.27607 -15967112.01648  18323181.92948
 -27914182.81307  18180310.51107 -21741362.86749  18180305.56249
 -24499486.48807  19145211.62007 -19082014.33648  19145208.96048
 -23887387.12507  18875337.56507 -18589036.92648  18875335.60148
 08 11  4  4 18 59.9910000  0  8  3  6  7  8 11 19 25 27
 -16147007.48807  19687137.16707 -12544097.42247  19687135.14447
  -4804890.89106  20964444.12806  -3725461.64847  20964442.84347
 -24940135.59407  18351082.93307 -19424708.45748  18351079.35148
 -15841102.78106  19252708.10506 -12333859.47748  19252705.73748
 -20602409.55107  18304517.46407 -16043553.64148  18304514.41348
 -27897836.05107  18183421.03407 -21728625.13349  18183416.34349
 -24460806.00406  19152572.92506 -19051873.73848  19152570.25348
 -23913685.31607  18870333.24507 -18609529.03548  18870331.41748
 08 11  4  4 19 29.9910000  0  8  3  6  7  8 11 19 25 27
 -16094389.56306  19697149.17506 -12503096.48847  19697147.65947
  -4753171.46906  20974286.40106  -3685160.85546  20974284.43746
 -24933300.39507  18352383.30007 -19419382.35248  18352380.28448
 -15922507.64506  19237217.61206 -12397291.82848  19237214.43748
 -20700083.71507  18285930.79207 -16119663.36748  18285927.46048
 -27881272.43407  18186573.31507 -21715718.42249  18186568.31949
 -24421722.99607  19160009.60507 -19021419.47348  19160007.30048
 -23939443.33207  18865432.22207 -18629600.21948  18865429.53848
 08 11  4  4 19 59.9910000  0  8  3  6  7  8 11 19 25 27
 -16041679.16806  19707180.18306 -12462023.46947  19707177.59747
  -4701428.63305  20984132.28405  -3644841.77746  20984130.40946
 -24925886.46107  18353794.26107 -19413605.28548  18353790.80448
 -16003348.17606  19221834.00306 -12460284.43848  19221831.53448
 -20797328.27007  18267425.51107 -16195438.34048  18267422.84748
 -27864491.21908  18189766.77608 -21702642.15249  18189761.64849
 -24382237.48406  19167523.33106 -18990651.55947  19167521.10547
 -23964658.91407  18860633.15907 -18649248.74248  18860631.18348
 08 11  4  4 20 29.9910000  0  8  3  6  7  8 11 19 25 27
 -15988879.50006  19717227.87806 -12420880.88347  19717224.88247
  -4649664.99605  20993982.54205  -3604506.50847  20993981.12847
 -24917897.16007  18355314.58907 -19407379.87548  18355310.96848
 -16083624.62507  19206557.73707 -12522837.51248  19206555.06948
 -20894143.43807  18249002.53407 -16270878.71948  18248999.30048
 -27847495.15607  18193000.83107 -21689398.47349  18192996.07349
 -24342353.81307  19175113.51107 -18959573.41048  19175110.75748
 -23989334.22707  18855937.79207 -18668476.26648  18855935.58948
 08 11  4  4 20 59.9910000  0  8  3  6  7  8 11 19 25 27
 -15935986.27306  19727293.23006 -12379665.38747  19727290.56247
  -4597876.11705  21003838.14405  -3564151.57847  21003836.08147
 -24909328.70707  18356945.37807 -19400703.16848  18356941.88648
 -16163330.00807  19191390.62007 -12584945.59448  19191388.05448
 -20990522.95307  18230662.00307 -16345979.64148  18230659.04248
 -27830280.86307  18196276.64407 -21675984.74649  18196271.67149
 -24302069.17207  19182778.73707 -18928182.80548  19182776.10548
 -24013464.21507  18851346.62007 -18687278.85948  18851344.04248
 08 11  4  4 21 29.9910000  0  8  3  6  7  8 11 19 25 27
 -15883007.17606  19737375.34706 -12338382.98847  19737372.14847
  -4546069.04705  21013697.01105  -3523782.43047  21013694.30047
 -24900189.24207  18358684.53407 -19393581.53548  18358680.79248
 -16242468.52707  19176330.91707 -12646611.97748  19176328.14448
 -21086471.83207  18212403.65107 -16420744.98848  18212400.73748
 -27812856.34007  18199592.59707 -21662407.20349  18199587.52349
 -24261392.63707  19190519.60507 -18896486.83648  19190517.44848
 -24037055.82807  18846856.91707 -18705661.94148  18846854.45248
