     2.10           OBSERVATION DATA    G (GPS)             RINEX VERSION / TYPE
Pinnacle 1.00                           06-NOV-08 23:50     PGM / RUN BY / DATE
build April 19, 2002                                        COMMENT
-Unknown-           -Unknown-                               OBSERVER / AGENCY
         Begin Pinnacle project                             COMMENT
1105                                                        COMMENT
                                                            COMMENT
                                                            COMMENT
November 6, 2008 11:42:26 pm                                COMMENT
                                                            COMMENT
                                                            COMMENT
D:\2008통합기준점\GPS\이정열\20081105\Pinnacle.dbd          COMMENT
         End Pinnacle project                               COMMENT
                                                            COMMENT
CH06                                                        MARKER NAME
CH06(Tail)(Head)                                            MARKER NUMBER
AFT4JXD4WSG         TPS GB1000          3.1 Jun,28,2007 p3  REC # / TYPE / VERS
-Unknown-           PG-A1                                   ANT # / TYPE
 -3128310.4903  3984268.5951  3863651.8362                  APPROX POSITION XYZ
        1.5790        0.0000        0.0000                  ANTENNA: DELTA H/E/N
     1     1                                                WAVELENGTH FACT L1/2
     7    L1    L2    C1    P1    P2    D1    D2            # / TYPES OF OBSERV
    30.000                                                  INTERVAL
  2008    11     5     3    40    0.0000000     GPS         TIME OF FIRST OBS
  2008    11     5     5    40    0.0000000     GPS         TIME OF LAST OBS
    13                                                      # OF SATELLITES
   G 3   184   184   184   184   184   184   184            PRN / # OF OBS
   G 6   111   111   111   111   111   111   111            PRN / # OF OBS
   G 7   241   241   241   241   241   241   241            PRN / # OF OBS
   G 8   241   241   241   241   241   241   241            PRN / # OF OBS
   G11   241   241   241   241   241   241   241            PRN / # OF OBS
   G16     6     6     6     6     6     6     6            PRN / # OF OBS
   G17    14    14    14    14    14    14    14            PRN / # OF OBS
   G19   241   241   241   241   241   241   241            PRN / # OF OBS
   G20    54    54    54    54    54    54    54            PRN / # OF OBS
   G25   213   213   213   213   213   213   213            PRN / # OF OBS
   G27   241   241   241   241   241   241   241            PRN / # OF OBS
   G28   146   146   146   146   146   146   146            PRN / # OF OBS
   G32    90    90    90    90    90    90    90            PRN / # OF OBS
SE TPS 00000000                                             COMMENT
                                                            END OF HEADER
 08 11  5  3 40  0.0000000  0  9G19G25G 7G 3G27G 6G11G 8G16         
 108001337.198    84156893.3844   20551968.937 8  20551968.21546  20551971.11346
     -1297.499       -1011.034  
 111939554.329    87225629.2014   21301386.398 7  21301385.80546  21301390.23446
     -1542.189       -1201.704  
 110390569.533    86018626.9774   21006625.241 7  21006625.48246  21006628.90446
      -156.129        -121.654  
 113079643.711    88114009.0434   21518337.675 7  21518336.98345  21518342.33145
     -2809.808       -2189.461  
 115258773.431    89812031.3074   21933010.824 7  21933010.49545  21933015.79445
       744.078         579.804  
 119669634.752    93249064.0424   22772369.933 7  22772369.58444  22772375.21544
     -2971.856       -2315.730  
 116819370.406    91028087.8624   22229985.923 7  22229985.53944  22229989.41344
      2735.490        2131.549  
 121133910.448    94390070.7324   23051014.136 7  23051014.05144  23051019.20544
      2474.696        1928.339  
 127861922.806    99632665.1804   24331310.184 6  24331309.37643  24331315.93043
     -3181.346       -2478.963  
 08 11  5  3 40 30.0000000  0  9G19G25G 7G 3G27G 6G11G 8G16         
 108040307.857    84187260.1284   20559384.912 8  20559384.17946  20559387.11646
     -1300.615       -1013.470  
 111985971.144    87261798.1224   21310218.792 8  21310218.65345  21310223.26645
     -1552.344       -1209.622  
 110395445.147    86022426.1504   21007552.722 7  21007553.05446  21007556.60546
      -169.001        -131.690  
 113163912.661    88179673.1424   21534373.818 7  21534373.64845  21534378.11145
     -2808.164       -2188.179  
 115236584.509    89794741.2304   21928788.221 7  21928788.03945  21928793.53445
       735.095         572.802  
 119758716.932    93318478.7014   22789321.631 7  22789321.45044  22789327.10044
     -2967.037       -2311.977  
 116737340.567    90964168.4854   22214375.571 7  22214374.88344  22214379.49844
      2733.080        2129.679  
 121059745.398    94332279.7904   23036900.807 7  23036900.32844  23036906.05044
      2469.522        1924.300  
 127957321.932    99707002.0934   24349464.332 5  24349462.95942  24349470.42742
     -3178.667       -2476.866  
 08 11  5  3 41  0.0000000  0  9G19G25G 7G 3G27G 6G11G 8G16         
 108079495.134    84217795.6604   20566841.904 8  20566840.97146  20566843.88946
     -1313.001       -1023.113  
 112032815.779    87298300.4104   21319133.368 8  21319133.07245  21319137.91945
     -1571.760       -1224.747  
 110400830.666    86026622.6384   21008577.649 8  21008577.95846  21008581.74046
      -191.184        -148.972  
 113248255.344    88245394.6994   21550423.742 7  21550423.67945  21550428.29745
     -2815.801       -2194.129  
 115214789.759    89777758.2984   21924641.205 7  21924640.86045  21924646.12245
       716.744         558.508  
 119847778.022    93387876.9114   22806269.417 7  22806269.27044  22806274.89344
     -2971.495       -2315.445  
 116655507.592    90900402.5404   22198803.630 7  22198803.51944  22198807.81644
      2721.289        2120.485  
 120985860.934    94274707.4914   23022840.790 6  23022840.13644  23022846.58844
      2454.948        1912.952  
 128052765.272    99781373.4314   24367626.863 6  24367627.23742  24367632.21143
     -3185.356       -2482.089  
 08 11  5  3 41 30.0000000  0  9G19G25G 7G 3G27G 6G11G 8G16         
 106543764.631    83021122.5454   20274602.479 8  20274601.75546  20274604.27846
     -1333.990       -1039.476  
 110504954.460    86107759.1074   21028390.761 8  21028390.65945  21028395.16245
     -1599.815       -1246.615  
 108831592.561    84803839.6934   20709961.209 8  20709961.82745  20709965.49845
      -222.052        -173.033  
 111757539.568    87083797.9754   21266750.071 7  21266749.83945  21266754.47545
     -2832.056       -2206.796  
 113618255.484    88533705.6034   21620830.743 7  21620830.24345  21620835.37745
       689.712         537.432  
 118361685.378    92229882.6084   22523475.934 6  22523475.46044  22523480.83444
     -2984.573       -2325.649  
 114998736.411    89609411.9884   21883530.529 7  21883530.34444  21883534.25744
      2700.792        2104.510  
 119337122.989    92989976.6374   22709096.480 7  22709096.27044  22709102.06244
      2431.617        1894.765  
 126573121.408    98628404.1364   24086060.062 6  24086059.96042  24086065.41342
     -3200.616       -2493.973  
 08 11  5  3 42  0.0000000  0  9G19G25G 7G 3G27G 6G11G 8G16         
 106584136.136    83052580.8514   20282285.077 8  20282283.97946  20282286.64146
     -1359.269       -1059.169  
 110553406.701    86145514.0794   21037611.240 8  21037611.07945  21037615.46645
     -1632.154       -1271.808  
 108838754.534    84809420.4354   20711324.526 7  20711324.57745  20711328.44545
      -257.261        -200.462  
 111842781.802    87150220.4664   21282971.310 7  21282970.92145  21282975.41745
     -2852.595       -2222.805  
 113598008.631    88517928.8354   21616977.853 7  21616977.30945  21616982.85645
       658.251         512.927  
 118451455.915    92299833.6404   22540558.409 7  22540558.32544  22540563.82544
     -3001.972       -2339.207  
 114918058.749    89546546.2794   21868177.991 7  21868177.71444  21868181.94644
      2675.873        2085.101  
 119264563.435    92933436.7354   22695289.151 7  22695288.31244  22695294.14444
      2403.848        1873.126  
 126669407.112    98703431.8804   24104382.961 6  24104382.65542  24104387.28642
     -3220.218       -2509.259  
 08 11  5  3 42 30.0000000  0  9G19G25G 7G 3G27G 6G11G 8G16         
 106625306.696    83084661.8044   20290119.373 8  20290118.60446  20290121.08446
     -1384.678       -1078.970  
 110602870.320    86184057.1424   21047023.638 7  21047023.50645  21047027.93245
     -1664.646       -1297.125  
 108847014.806    84815856.9974   20712896.165 7  20712897.03345  20712900.36745
      -292.681        -228.063  
 111928681.234    87217155.0844   21299317.340 7  21299316.98245  21299321.70145
     -2873.274       -2238.914  
 113578747.225    88502919.9334   21613312.745 7  21613312.54945  21613317.50145
       626.595         488.252  
 118541788.683    92370222.7624   22557748.587 7  22557748.48744  22557753.65044
     -3019.493       -2352.845  
 114838171.513    89484296.4864   21852976.045 7  21852975.76544  21852979.80444
      2650.691        2065.470  
 119192879.984    92877579.5124   22681647.562 6  22681647.14544  22681653.35144
      2375.809        1851.278  
 126766322.978    98778950.6694   24122825.683 6  24122825.90842  24122830.55142
     -3240.058       -2524.712  
 08 11  5  3 43  0.0000000  0  8G19G25G 7G 3G27G 6G11G 8            
 106667196.181    83117302.9564   20298090.585 8  20298089.64446  20298092.54546
     -1407.062       -1096.411  
 110653265.023    86223325.7224   21056613.465 8  21056613.22345  21056617.86745
     -1694.113       -1320.085  
 108856294.884    84823088.2114   20714662.156 7  20714662.61746  20714666.84446
      -325.116        -253.334  
 112015156.993    87284538.7724   21315773.176 7  21315772.85845  21315777.55945
     -2890.914       -2252.653  
 113560393.202    88488618.0904   21609820.220 7  21609820.06045  21609825.53145
       597.873         465.875  
 118632603.897    92440987.8334   22575030.130 7  22575030.21844  22575034.51944
     -3034.000       -2364.159  
 114758998.288    89422603.0694   21837909.865 7  21837909.70144  21837913.65744
      2628.406        2048.103  
 119121995.968    92822345.2134   22668159.042 7  22668158.24344  22668164.29744
      2350.648        1831.674  
 08 11  5  3 43 30.0000000  0  8G19G25G 7G 3G27G 6G11G 8            
 106709638.139    83150374.6064   20306167.089 8  20306166.36946  20306168.91146
     -1421.615       -1107.751  
 110704424.910    86263190.5494   21066348.847 8  21066349.01245  21066353.22545
     -1715.769       -1336.958  
 108866430.386    84830985.9924   20716590.888 8  20716591.03246  20716595.25846
      -349.805        -272.572  
 112102042.913    87352242.0664   21332306.685 7  21332306.53445  21332311.87345
     -2900.704       -2260.285  
 113542783.220    88474896.0104   21606469.106 7  21606468.52045  21606474.04345
       576.890         449.530  
 118723735.539    92511999.4714   22592371.551 7  22592371.64244  22592376.20244
     -3040.676       -2369.356  
 114680375.948    89361338.9104   21822948.013 7  21822947.78744  21822952.41244
      2613.827        2036.747  
 119051750.600    92767608.5784   22654792.259 7  22654791.43844  22654797.13744
      2333.159        1818.044  
 08 11  5  3 44  0.0000000  0  8G19G25G 7G 3G27G 6G11G 8            
 106752443.285    83183729.2674   20314312.710 8  20314311.71346  20314314.67746
     -1431.635       -1115.561  
 110756161.157    86303504.4884   21076194.133 8  21076193.92445  21076198.64945
     -1732.905       -1350.316  
 108877233.493    84839403.9984   20718646.820 8  20718646.93046  20718651.00646
      -369.981        -288.299  
 112189149.916    87420117.6344   21348882.759 7  21348881.83845  21348888.00445
     -2905.998       -2264.414  
 113525731.031    88461608.5804   21603224.180 7  21603223.65045  21603228.97545
       560.344         436.631  
 118814995.008    92583110.7144   22609737.834 7  22609737.61844  22609742.78444
     -3042.842       -2371.052  
 114602119.085    89300359.5444   21808056.586 7  21808056.19345  21808061.17945
      2603.692        2028.856  
 118981958.801    92713225.3684   22641511.320 7  22641510.90144  22641516.53044
      2320.066        1807.838  
 08 11  5  3 44 30.0000000  0  8G19G25G 7G 3G27G 6G11G 8            
 106795417.963    83217216.0174   20322490.348 8  20322489.34646  20322492.38346
     -1434.443       -1117.746  
 110808280.203    86344116.7084   21086112.008 8  21086111.68045  21086116.02545
     -1742.808       -1358.033  
 108888512.754    84848193.0194   20720793.067 7  20720793.09646  20720797.21646
      -383.050        -298.484  
 112276284.194    87488014.4514   21365464.075 7  21365463.88745  21365468.81345
     -2904.053       -2262.905  
 113509045.461    88448606.8254   21600049.426 7  21600049.02945  21600053.80745
       550.928         429.298  
 118906189.281    92654171.1544   22627091.347 7  22627090.89744  22627096.18744
     -3037.851       -2367.154  
 114524037.717    89239516.9414   21793198.497 7  21793197.97745  21793202.78645
      2600.633        2026.461  
 118912430.546    92659047.5044   22628280.558 7  22628280.20944  22628285.50344
      2314.045        1803.153  
 08 11  5  3 45  0.0000000  0  8G19G25G 7G 3G27G 6G11G 8            
 106838470.688    83250763.5964   20330683.227 8  20330682.44146  20330684.81946
     -1435.415       -1118.505  
 110860690.930    86384956.2204   21096085.541 8  21096085.87645  21096089.49745
     -1750.912       -1364.343  
 108900178.369    84857283.0984   20723012.970 7  20723013.41746  20723016.86346
      -394.330        -307.270  
 112363354.510    87555861.4404   21382032.636 7  21382032.37545  21382037.44145
     -2900.302       -2259.972  
 113492638.081    88435821.8434   21596927.050 7  21596926.47745  21596931.34945
       543.222         423.290  
 118997227.077    92725109.6724   22644415.654 7  22644415.64544  22644419.67544
     -3031.004       -2361.819  
 114446044.108    89178742.7094   21778356.486 7  21778356.23745  21778360.20245
      2599.253        2025.396  
 118843079.156    92605007.4744   22615083.615 7  22615082.75544  22615088.36644
      2309.688        1799.761  
 08 11  5  3 45 30.0000000  0  8G19G25G 7G 3G27G 6G11G 8            
 106881527.709    83284314.5174   20338876.551 8  20338875.80146  20338878.55346
     -1435.060       -1118.233  
 110913319.687    86425965.6314   21106100.151 8  21106100.12145  21106104.52945
     -1757.681       -1369.622  
 108912158.240    84866618.0554   20725293.260 8  20725292.97446  20725296.83646
      -404.357        -315.088  
 112450287.521    87623601.4284   21398575.327 7  21398574.95345  21398580.52045
     -2895.214       -2256.003  
 113476437.459    88423197.9754   21593844.244 7  21593844.28545  21593848.30945
       536.787         418.274  
 119088035.051    92795869.1104   22661695.500 7  22661695.38744  22661700.24044
     -3022.833       -2355.440  
 114368068.146    89117982.2374   21763518.155 7  21763517.95345  21763522.33744
      2599.112        2025.278  
 118773835.167    92551051.1244   22601907.135 7  22601906.60044  22601910.85644
      2306.523        1797.302  
 08 11  5  3 46  0.0000000  0  8G19G25G 7G 3G27G 6G11G 8            
 106924551.854    83317839.8274   20347064.078 8  20347063.11046  20347065.70746
     -1433.400       -1116.932  
 110966129.596    86467116.1934   21116149.821 7  21116149.56345  21116154.12745
     -1763.168       -1373.891  
 108924417.183    84876170.4684   20727625.639 8  20727626.08846  20727629.69146
      -413.108        -321.900  
 112537045.607    87691205.1204   21415084.954 7  21415084.62444  21415089.67345
     -2888.847       -2251.045  
 113460409.191    88410708.4074   21590794.699 7  21590794.36545  21590798.64445
       531.559         414.202  
 119178576.760    92866421.0614   22678925.632 6  22678924.91544  22678930.00344
     -3013.451       -2348.144  
 114290076.363    89057209.4364   21748677.186 7  21748677.13845  21748680.69844
      2600.131        2026.072  
 118704665.834    92497152.9564   22588744.726 7  22588744.30744  22588748.27044
      2304.556        1795.759  
 08 11  5  3 46 30.0000000  0  8G19G25G 7G 3G27G 6G11G 8            
 106967531.146    83351330.1804   20355242.490 8  20355241.63246  20355244.84846
     -1433.325       -1116.871  
 111019108.802    86508398.6734   21126231.399 8  21126231.49845  21126235.86145
     -1770.207       -1379.375  
 108936944.749    84885932.1964   20730009.746 8  20730009.79745  20730013.58645
      -423.501        -330.001  
 112623617.304    87758663.5734   21431559.174 7  21431558.85744  21431563.87045
     -2884.025       -2247.286  
 113444544.271    88398346.1164   21587775.671 7  21587775.27845  21587779.69245
       524.671         408.840  
 119268840.656    92936756.5364   22696101.510 7  22696101.54144  22696107.17744
     -3005.608       -2342.027  
 114212060.536    88996417.8994   21733830.469 7  21733829.95645  21733834.90044
      2599.465        2025.561  
 118635563.698    92443307.1404   22575594.900 7  22575594.35944  22575598.83744
      2300.839        1792.853  
 08 11  5  3 47  0.0000000  0  8G19G25G 7G 3G27G 6G11G 8            
 107010479.356    83384796.3194   20363415.470 8  20363414.49846  20363417.23646
     -1430.309       -1114.525  
 111072271.098    86549823.8264   21136347.861 8  21136347.64845  21136352.22445
     -1774.352       -1382.612  
 108949756.299    84895915.2154   20732447.461 8  20732447.62246  20732451.70146
      -431.021        -335.864  
 112710016.512    87825987.6174   21448000.751 7  21448000.31145  21448005.55545
     -2876.327       -2241.295  
 113428858.772    88386123.6384   21584790.433 7  21584790.07945  21584794.78545
       520.619         405.674  
 119358840.860    93006886.5294   22713228.182 6  22713228.35844  22713233.64744
     -2994.789       -2333.601  
 114134037.844    88935621.0284   21718983.541 7  21718983.43345  21718987.87845
      2601.615        2027.232  
 118566546.697    92389527.6674   22562461.102 6  22562460.38444  22562465.47844
      2299.874        1792.111  
 08 11  5  3 47 30.0000000  0  8G19G25G 7G 3G27G 6G11G 8            
 107053365.200    83418213.8564   20371576.216 8  20371575.36246  20371577.90046
     -1428.302       -1112.960  
 111125585.559    86591367.5534   21146493.276 7  21146493.01345  21146497.29745
     -1779.489       -1386.610  
 108962822.384    84906096.5704   20734933.853 8  20734933.93246  20734938.31945
      -439.609        -342.553  
 112796212.197    87893153.0624   21464402.727 7  21464402.75744  21464407.33644
     -2869.603       -2236.047  
 113413324.278    88374018.8314   21581834.605 7  21581834.40645  21581838.71545
       515.460         401.656  
 119448546.785    93076787.2304   22730298.775 7  22730298.60044  22730304.45744
     -2985.108       -2326.056  
 114055980.798    88874797.3914   21704129.859 7  21704129.47245  21704133.91144
      2602.606        2028.009  
 118497588.350    92335793.9034   22549338.539 7  22549338.12044  22549343.47244
      2297.761        1790.467  
 08 11  5  3 48  0.0000000  0  8G19G25G 7G 3G27G 6G11G 8            
 107096201.065    83451592.4494   20379727.768 8  20379726.82346  20379729.61246
     -1426.356       -1111.446  
 111179064.815    86633039.6864   21156669.676 7  21156669.39445  21156674.39045
     -1784.698       -1390.675  
 108976157.159    84916487.2934   20737471.603 8  20737472.12846  20737475.48346
      -448.310        -349.331  
 112882216.678    87960169.5304   21480768.945 7  21480768.03944  21480773.24544
     -2862.950       -2230.877  
 113397955.815    88362043.3864   21578910.067 7  21578909.58845  21578914.26045
       510.163         397.539  
 119537971.454    93146468.7684   22747315.761 6  22747315.72644  22747321.66144
     -2975.458       -2318.540  
 113977905.471    88813959.4984   21689272.624 7  21689272.81145  21689275.95845
      2603.458        2028.671  
 118428705.096    92282118.6504   22536230.849 7  22536230.45844  22536235.98044
      2295.495        1788.699  
 08 11  5  3 48 30.0000000  0  8G19G25G 7G 3G27G 6G11G 8            
 107138989.601    83484934.1594   20387870.287 8  20387869.17946  20387871.66346
     -1426.106       -1111.255  
 111232711.113    86674841.9814   21166878.701 8  21166878.83345  21166882.73245
     -1791.602       -1396.051  
 108989764.629    84927090.5034   20740060.850 7  20740061.28846  20740065.00945
      -458.751        -357.469  
 112968032.292    88027038.8234   21497099.469 7  21497099.28644  21497103.39344
     -2857.988       -2227.004  
 113382758.539    88350201.3414   21576017.881 7  21576017.51445  21576022.72345
       503.082         392.010  
 119627117.611    93215933.2864   22764279.888 7  22764279.66744  22764285.41044
     -2967.536       -2312.366  
 113899817.802    88753111.9994   21674412.974 7  21674412.32045  21674417.14944
      2602.458        2027.889  
 118359903.538    92228507.0614   22523138.894 7  22523138.24244  22523143.15144
      2291.365        1785.479  
 08 11  5  3 49  0.0000000  0  8G19G25G 7G 3G27G 6G11G 8            
 107181727.387    83518236.3294   20396002.418 7  20396001.31646  20396004.58846
     -1424.128       -1109.705  
 111286521.441    86716772.0924   21177118.229 7  21177118.05045  21177122.59445
     -1796.787       -1400.090  
 109003643.093    84937904.8754   20742701.985 8  20742702.17146  20742705.97346
      -467.530        -364.303  
 113053656.326    88093758.8354   21513392.848 7  21513392.77444  21513397.39444
     -2851.322       -2221.805  
 113367731.825    88338492.2014   21573158.480 7  21573158.03645  21573163.37145
       497.635         387.769  
 119715982.742    93285178.8094   22781190.436 6  22781189.97444  22781195.72344
     -2957.857       -2304.813  
 113821718.380    88692255.3414   21659551.182 7  21659550.78145  21659554.70744
      2603.080        2028.382  
 118291184.950    92174960.1184   22510062.298 7  22510061.79744  22510065.94844
      2288.814        1783.494  
 08 11  5  3 49 30.0000000  0  8G19G25G 7G 3G27G 6G11G 8            
 107224435.355    83551515.2644   20404129.711 8  20404129.13646  20404131.65146
     -1423.606       -1109.303  
 111340516.740    86758846.3414   21187393.661 8  21187393.71845  21187397.38745
     -1803.423       -1405.271  
 109017814.906    84948947.8434   20745398.878 8  20745399.14146  20745402.72146
      -477.795        -372.318  
 113139109.786    88160345.9324   21529654.322 7  21529654.02644  21529658.76344
     -2846.094       -2217.737  
 113352898.883    88326934.0564   21570335.860 7  21570335.33245  21570340.50145
       490.677         382.341  
 119804588.224    93354222.0194   22798051.288 6  22798051.25744  22798056.12844
     -2949.719       -2298.479  
 113743631.577    88631408.5204   21644691.687 7  21644691.91445  21644695.72945
      2602.147        2027.639  
 118222574.454    92121497.4064   22497006.020 7  22497005.36144  22497009.39944
      2284.674        1780.266  
 08 11  5  3 50  0.0000000  0  8G19G25G 7G 3G27G 6G11G 8            
 107267139.968    83584791.5844   20412256.191 8  20412255.45546  20412258.02446
     -1423.869       -1109.504  
 111394723.402    86801085.2734   21197708.447 8  21197708.42745  21197712.99545
     -1810.846       -1411.045  
 109032308.121    84960241.2464   20748156.838 8  20748157.32346  20748160.58746
      -488.920        -380.973  
 113224419.317    88226820.8634   21545888.084 7  21545887.60744  21545892.74144
     -2841.697       -2214.306  
 113338288.861    88315549.6084   21567555.772 7  21567555.37745  21567560.21445
       482.823         376.227  
 119892960.946    93423083.8584   22814868.536 6  22814868.09444  22814873.28344
     -2942.308       -2292.714  
 113665587.478    88570594.9684   21629840.329 7  21629840.25045  21629844.51145
      2600.286        2026.192  
 118154102.586    92068142.7074   22483975.860 7  22483975.27144  22483980.12044
      2279.604        1776.311  
 08 11  5  3 50 30.0000000  0  8G19G25G 7G 3G27G 6G11G 8            
 107309853.498    83618074.8464   20420384.144 8  20420383.19246  20420386.17646
     -1423.722       -1109.387  
 111449153.787    86843498.5464   21208066.053 7  21208065.79345  21208070.91145
     -1817.869       -1416.516  
 109047136.548    84971795.8514   20750978.570 8  20750978.89446  20750982.58446
      -499.664        -389.352  
 113309597.028    88293193.0884   21562096.486 7  21562095.95344  21562101.31144
     -2836.836       -2210.520  
 113323916.420    88304350.3024   21564820.714 7  21564820.14845  21564825.41645
       475.320         370.375  
 119981113.619    93491774.2394   22831643.135 6  22831642.69244  22831648.19244
     -2934.582       -2286.692  
 113587601.940    88509827.0484   21614999.884 7  21615000.01645  21615004.27645
      2598.723        2024.975  
 118085785.996    92014909.0064   22470975.400 7  22470974.71044  22470979.73144
      2274.805        1772.568  
 08 11  5  3 51  0.0000000  0  8G19G25G 7G 3G27G 6G11G 8            
 107352562.605    83651354.6634   20428511.449 8  20428510.71146  20428513.30846
     -1423.469       -1109.198  
 111503794.622    86886075.8014   21218464.265 7  21218463.96345  21218468.60945
     -1824.765       -1421.896  
 109062288.149    84983602.2794   20753861.816 8  20753862.17746  20753865.75546
      -510.349        -397.673  
 113394630.256    88359452.7104   21578278.463 7  21578278.01244  21578283.21044
     -2831.916       -2206.684  
 113309770.952    88293327.8334   21562128.891 8  21562128.98745  21562133.54845
       467.805         364.529  
 120069034.078    93560283.6554   22848373.740 6  22848373.59844  22848379.02944
     -2926.723       -2280.557  
 113509665.091    88449097.0634   21600170.003 7  21600169.96745  21600173.22845
      2597.138        2023.735  
 118017615.925    91961789.4794   22458003.108 7  22458002.74944  22458007.76844
      2269.952        1768.792  
 08 11  5  3 51 30.0000000  0  8G19G25G 7G 3G27G 6G11G 8            
 107395275.696    83684637.5814   20436639.560 8  20436638.67046  20436641.44946
     -1423.531       -1109.248  
 111558654.266    86928823.5674   21228903.916 8  21228903.98545  21228908.06645
     -1831.986       -1427.523  
 109077772.902    84995668.3154   20756808.465 8  20756808.92446  20756812.47646
      -521.427        -406.305  
 113479527.392    88425606.3054   21594433.868 7  21594433.58944  21594438.60044
     -2827.340       -2203.122  
 113295863.273    88282490.6734   21559482.239 7  21559481.93845  21559486.59045
       459.906         358.373  
 120156730.983    93628618.8884   22865062.076 6  22865061.91744  22865067.08144
     -2919.193       -2274.708  
 113431789.355    88388414.7034   21585350.339 7  21585350.13245  21585354.04645
      2595.113        2022.160  
 117949604.908    91908793.8914   22445060.796 7  22445060.31144  22445065.87044
      2264.648        1764.656  
 08 11  5  3 52  0.0000000  0  8G19G25G 7G 3G27G 6G11G 8            
 107438000.303    83717929.4694   20444770.062 8  20444769.42346  20444771.72646
     -1424.194       -1109.764  
 111613740.094    86971747.5644   21239386.146 8  21239385.79645  21239390.60145
     -1839.783       -1433.596  
 109093599.866    85008001.0034   20759820.424 8  20759820.85346  20759824.46346
      -533.114        -415.409  
 113564295.942    88491659.7034   21610565.117 7  21610565.03744  21610569.01844
     -2823.317       -2199.982  
 113282203.439    88271846.6384   21556882.771 7  21556882.48145  21556887.44445
       451.340         351.695  
 120244212.175    93696786.0194   22881709.432 7  22881709.35144  22881714.52644
     -2912.348       -2269.360  
 113353985.317    88327788.1994   21570544.466 7  21570544.37545  21570548.28345
      2592.407        2020.057  
 117881764.873    91855931.5344   22432150.950 7  22432150.02644  22432156.89544
      2258.592        1759.944  
 08 11  5  3 52 30.0000000  0  8G19G25G 7G 3G27G 6G11G 8            
 107480730.084    83751225.3984   20452901.086 8  20452900.26146  20452902.75546
     -1424.459       -1109.969  
 111669045.644    87014842.7814   21249909.918 7  21249909.40545  21249915.04545
     -1847.221       -1439.396  
 109109763.707    85020596.1984   20762896.066 8  20762896.50646  20762900.15246
      -544.477        -424.272  
 113648930.176    88557608.4374   21626670.194 7  21626669.81544  21626674.48444
     -2818.943       -2196.584  
 113268787.381    88261392.5624   21554330.402 7  21554329.86345  21554334.64445
       443.085         345.257  
 120331472.247    93764780.8544   22898314.819 6  22898314.83444  22898319.82944
     -2905.002       -2263.644  
 113276250.291    88267215.4764   21555752.411 7  21555752.35545  21555755.81545
      2589.938        2018.133  
 117814093.709    91803200.7644   22419273.775 7  22419273.14644  22419279.22144
      2252.831        1755.447  
 08 11  5  3 53  0.0000000  0  8G19G25G 7G 3G27G 6G11G 8            
 107523473.779    83784532.1554   20461034.956 8  20461034.09146  20461036.95846
     -1425.384       -1110.684  
 111724579.688    87058116.0394   21260478.177 8  21260478.12745  21260482.93045
     -1855.311       -1445.696  
 109126274.845    85033462.0024   20766038.052 7  20766038.40245  20766042.19145
      -556.545        -433.666  
 113733439.006    88623459.4464   21642751.731 7  21642751.29044  21642756.47544
     -2815.226       -2193.682  
 113255626.527    88251137.3314   21551825.643 7  21551825.31845  21551830.34045
       434.053         338.229  
 120418520.316    93832610.4934   22914879.136 7  22914878.85844  22914884.42044
     -2898.451       -2258.538  
 113198596.702    88206706.2104   21540975.212 7  21540975.05245  21540978.62445
      2586.693        2015.602  
 117746604.009    91750611.3914   22406430.715 7  22406429.92344  22406436.08244
      2246.212        1750.309  
 08 11  5  3 53 30.0000000  0  8G19G25G 7G 3G27G 6G11G 8            
 107566254.882    83817868.0704   20469175.762 7  20469174.94546  20469177.71746
     -1426.769       -1111.761  
 111780365.487    87101585.4754   21271093.808 8  21271093.89845  21271098.55945
     -1863.815       -1452.325  
 109143158.014    85046617.7114   20769250.994 8  20769251.23846  20769255.00346
      -569.099        -443.451  
 113817845.725    88689230.8934   21658813.997 7  21658813.68044  21658817.99244
     -2811.987       -2191.156  
 113242746.671    88241101.0724   21549374.680 7  21549374.18645  21549379.40245
       424.504         330.789  
 120505380.556    93900293.7864   22931407.882 7  22931408.07444  22931413.56844
     -2892.304       -2253.743  
 113121051.356    88146281.2844   21526218.657 7  21526218.72045  21526222.11945
      2582.890        2012.648  
 117679323.799    91698185.2634   22393627.389 7  22393626.80744  22393633.21544
      2239.021        1744.690  
 08 11  5  3 54  0.0000000  0  8G19G25G 7G 3G27G 6G11G 8            
 107609074.163    83851233.7354   20477324.026 8  20477323.20046  20477326.19046
     -1428.482       -1113.107  
 111836403.777    87145251.6504   21281757.615 8  21281757.66845  21281762.34945
     -1872.686       -1459.239  
 109160415.300    85060064.9324   20772534.872 7  20772535.33746  20772539.04445
      -582.029        -453.536  
 113902151.944    88754924.0374   21674856.850 7  21674856.91445  21674861.18644
     -2809.050       -2188.875  
 113230150.822    88231286.1144   21546977.862 7  21546977.62145  21546982.66145
       414.563         323.038  
 120592054.235    93967831.6854   22947901.656 7  22947901.88844  22947907.41644
     -2886.552       -2249.260  
 113043618.809    88085944.2594   21511483.911 7  21511483.97145  21511487.63045
      2578.619        2009.312  
 117612257.980    91645926.1974   22380865.794 7  22380865.27844  22380870.91444
      2231.381        1738.737  
 08 11  5  3 54 30.0000000  0  8G19G25G 7G 3G27G 6G11G 8            
 107651927.282    83884625.7624   20485479.019 8  20485478.19346  20485480.82446
     -1429.269       -1113.716  
 111892689.914    87189110.9634   21292468.763 8  21292468.35445  21292473.00545
     -1880.593       -1465.400  
 109178043.537    85073801.2044   20775889.189 7  20775889.57546  20775893.34145
      -594.078        -462.917  
 113986353.118    88820535.3214   21690880.164 7  21690879.65744  21690884.21544
     -2805.215       -2185.886  
 113217837.061    88221690.9664   21544634.686 7  21544634.06945  21544639.30545
       405.461         315.945  
 120678537.496    94035221.2074   22964358.890 7  22964358.49744  22964364.96344
     -2879.897       -2244.079  
 112966297.902    88025694.2164   21496770.225 7  21496770.31045  21496773.56745
      2575.194        2006.643  
 117545406.544    91593834.1704   22368144.360 7  22368143.68544  22368149.51744
      2224.490        1733.371  
 08 11  5  3 55  0.0000000  0  8G19G25G 7G 3G27G 6G11G 8            
 107694832.773    83918058.6024   20493643.414 8  20493642.73946  20493645.40246
     -1431.108       -1115.148  
 111949242.634    87233178.0014   21303230.543 7  21303230.34645  21303234.97745
     -1889.574       -1472.400  
 109196062.716    85087842.1134   20779318.402 7  20779318.59146  20779322.74246
      -607.231        -473.169  
 114070467.806    88886079.2284   21706886.562 7  21706885.87344  21706890.69544
     -2802.441       -2183.723  
 113205826.388    88212331.9974   21542348.819 7  21542348.83945  21542353.87545
       395.229         307.968  
 120764850.040    94102477.7114   22980782.744 6  22980782.46044  22980788.77944
     -2874.307       -2239.717  
 112889111.131    87965548.6894   21482081.666 7  21482081.15445  21482085.72145
      2570.564        2003.040  
 117478792.621    91541927.2294   22355468.732 7  22355468.26744  22355473.46344
      2216.413        1727.072  
 08 11  5  3 55 30.0000000  0  8G19G25G 7G 3G27G 6G11G 8            
 107737790.751    83951532.3504   20501818.155 8  20501817.29946  20501820.06346
     -1432.349       -1116.116  
 112006061.462    87277452.3944   21314042.384 7  21314042.01345  21314047.18145
     -1897.924       -1478.900  
 109214473.787    85102188.3884   20782822.030 8  20782822.11146  20782826.06646
      -619.781        -482.943  
 114154496.633    88951556.2164   21722876.382 7  21722875.85544  21722881.34444
     -2799.080       -2181.093  
 113194120.937    88203210.8524   21540121.935 7  21540121.19145  21540126.43445
       385.542         300.422  
 120850992.157    94169601.4174   22997175.561 6  22997175.13444  22997181.07244
     -2868.107       -2234.888  
 112812061.943    87905510.3824   21467419.432 7  21467418.91345  21467423.74945
      2566.388        1999.780  
 117412419.907    91490208.2384   22342838.558 7  22342837.90744  22342842.34344
      2208.832        1721.169  
 08 11  5  3 56  0.0000000  0  8G19G25G 7G 3G27G 6G11G 8            
 107780817.320    83985059.5444   20510005.883 8  20510005.11246  20510007.68746
     -1435.145       -1118.296  
 112063162.327    87321946.5564   21324908.774 7  21324908.59945  21324912.97845
     -1907.865       -1486.646  
 109233294.311    85116853.7244   20786403.633 8  20786403.57745  20786407.49245
      -633.979        -494.007  
 114238455.831    89016978.9574   21738853.287 7  21738853.05244  21738858.01044
     -2797.260       -2179.686  
 113182739.332    88194342.0604   21537955.753 7  21537955.34645  21537960.44945
       374.166         291.559  
 120936980.536    94236605.3204   23013538.761 6  23013537.79744  23013544.16244
     -2863.530       -2231.310  
 112735170.139    87845594.7004   21452787.597 7  21452787.37045  21452791.71145
      2560.618        1995.287  
 117346308.751    91438693.0624   22330257.665 7  22330257.17144  22330262.36344
      2199.520        1713.901  
 08 11  5  3 56 30.0000000  0  8G19G25G 7G 3G27G 6G11G 8            
 107823915.480    84018642.5234   20518207.146 8  20518206.37246  20518208.82746
     -1437.869       -1120.415  
 112120548.113    87366662.7284   21335828.540 7  21335828.44145  21335832.98045
     -1917.677       -1494.296  
 109252528.730    85131841.5704   20790063.511 7  20790063.89245  20790067.53945
      -648.113        -505.020  
 114322348.607    89082349.9354   21754817.746 7  21754817.34644  21754822.35544
     -2795.389       -2178.217  
 113171687.030    88185729.8654   21535852.969 7  21535852.35545  21535857.30845
       362.822         282.721  
 121022818.836    94303492.2934   23029873.350 7  23029873.27544  23029878.89544
     -2858.850       -2227.681  
 112658441.806    87785806.4114   21438186.972 7  21438186.77945  21438191.07145
      2554.774        1990.736  
 117280466.362    91387387.3084   22317728.187 7  22317727.70244  22317732.72144
      2190.151        1706.609  
 08 11  5  3 57  0.0000000  0  8G19G25G 7G 3G27G 6G11G 8            
 107867083.218    84052279.7234   20526421.679 8  20526420.85646  20526423.60546
     -1440.250       -1122.276  
 112178216.688    87411599.2654   21346802.561 8  21346802.24745  21346807.51945
     -1927.157       -1501.683  
 109272175.741    85147150.9164   20793802.688 7  20793802.61645  20793806.47445
      -661.968        -515.819  
 114406173.480    89147668.0024   21770768.826 7  21770768.71044  21770773.52944
     -2793.176       -2176.507  
 113160964.200    88177374.4074   21533812.322 8  21533812.06145  21533816.27545
       351.756         274.097  
 121108506.191    94370261.6234   23046179.269 6  23046178.89944  23046184.51244
     -2853.932       -2223.838  
 112581878.333    87726146.5774   21423617.548 7  21423617.45945  21423620.93445
      2549.167        1986.365  
 117214895.122    91336292.8384   22305250.121 7  22305249.37144  22305254.95844
      2180.967        1699.458  
 08 11  5  3 57 30.0000000  0  8G19G25G 7G 3G27G 6G11G 8            
 107910320.191    84085970.8764   20534649.478 8  20534648.34246  20534651.28446
     -1442.109       -1123.728  
 112236167.278    87456755.5474   21357830.243 7  21357830.15245  21357835.08845
     -1936.097       -1508.653  
 109292236.109    85162782.3614   20797619.529 8  20797619.87646  20797623.84646
      -675.291        -526.200  
 114489930.241    89212932.9944   21786707.312 7  21786706.83644  21786712.16244
     -2790.482       -2174.405  
 113150572.630    88169277.0724   21531834.429 7  21531834.69745  21531838.99245
       341.128         265.811  
 121194042.668    94436913.3864   23062456.197 7  23062456.03044  23062461.91844
     -2848.449       -2219.569  
 112505483.042    87666617.7944   21409079.833 7  21409079.64245  21409083.40145
      2543.958        1982.308  
 117149598.670    91285412.4964   22292824.873 7  22292824.04444  22292829.05744
      2172.208        1692.619  
 08 11  5  3 58  0.0000000  0  8G19G25G 7G 3G27G 6G11G 8            
 107953631.425    84119719.8874   20542891.438 8  20542890.71046  20542893.33746
     -1445.278       -1126.193  
 112294404.359    87502135.0714   21368912.660 8  21368912.60245  21368917.36145
     -1946.322       -1516.616  
 109312715.913    85178740.6344   20801516.797 7  20801517.19245  20801521.08145
      -690.002        -537.670  
 114573624.056    89278148.9344   21802633.756 7  21802633.37744  21802638.07544
     -2789.076       -2173.308  
 113140519.408    88161443.3794   21529921.822 7  21529921.53245  21529926.18545
       329.102         256.442  
 121279433.517    94503451.6864   23078705.890 6  23078706.22144  23078711.58744
     -2844.256       -2216.312  
 112429264.221    87607226.5234   21394576.096 7  21394575.30845  21394579.67245
      2537.301        1977.109  
 117084585.992    91234753.2724   22280453.114 7  22280452.87544  22280457.85944
      2161.980        1684.655  
 08 11  5  3 58 30.0000000  0  8G19G25G 7G 3G27G 6G11G 8            
 107997028.871    84153536.0834   20551149.587 8  20551148.85146  20551151.26545
     -1447.612       -1128.012  
 112352940.108    87547747.3284   21380051.663 7  21380051.74945  21380056.25045
     -1955.771       -1523.977  
 109333628.459    85195036.1164   20805496.384 7  20805496.37145  20805500.66545
      -703.909        -548.502  
 114657267.369    89343325.5334   21818550.595 7  21818550.29444  21818555.34944
     -2786.881       -2171.597  
 113130819.087    88153884.6774   21528076.093 7  21528075.69045  21528080.77445
       317.839         247.662  
 121364692.069    94569886.9044   23094930.404 7  23094929.80744  23094934.29044
     -2839.342       -2212.482  
 112353237.427    87547984.8724   21380108.674 7  21380108.45245  21380111.87645
      2531.381        1972.500  
 117019873.538    91184327.9884   22268139.196 7  22268138.48144  22268143.62944
      2152.451        1677.234  
 08 11  5  3 59  0.0000000  0  8G19G25G 7G 3G27G 6G11G 8            
 108040508.718    84187416.4904   20559423.570 8  20559422.77246  20559425.54645
     -1450.837       -1130.520  
 112411770.101    87593588.8564   21391246.581 8  21391246.49845  21391251.15745
     -1966.024       -1531.961  
 109354970.875    85211666.5524   20809557.596 8  20809558.00745  20809561.93945
      -718.713        -560.030  
 114740856.431    89408459.8484   21834457.444 7  21834456.78344  21834461.53744
     -2785.520       -2170.535  
 113121469.858    88146599.5544   21526296.545 7  21526296.18045  21526301.29445
       305.652         238.168  
 121449814.507    94636216.0664   23111128.282 7  23111128.05344  23111133.27144
     -2835.293       -2209.319  
 112277402.315    87488892.5924   21365677.300 7  21365676.76245  21365681.10145
      2524.492        1967.135  
 116955459.530    91134135.2584   22255880.975 7  22255879.86444  22255886.12744
      2141.958        1669.068  
 08 11  5  3 59 30.0000000  0  8G19G25G 7G 3G27G 6G11G 8            
 108084071.475    84221361.4994   20567713.095 8  20567712.31546  20567714.93546
     -1453.968       -1132.959  
 112470894.309    87639659.6534   21402497.617 8  21402497.55945  21402502.09245
     -1976.195       -1539.897  
 109376744.429    85228632.9504   20813700.966 8  20813700.89746  20813705.17845
      -733.470        -571.529  
 114824391.868    89473552.3814   21850353.275 7  21850352.72644  21850358.20744
     -2784.105       -2169.433  
 113112473.903    88139589.7044   21524584.748 7  21524584.36445  21524589.56545
       293.458         228.671  
 121534802.023    94702440.0714   23127300.388 6  23127300.05444  23127306.12444
     -2831.185       -2206.118  
 112201762.467    87429952.4594   21351283.632 7  21351282.90845  21351287.61145
      2517.550        1961.726  
 116891351.276    91084180.7874   22243681.534 7  22243680.78044  22243686.96844
      2131.315        1660.766  
 08 11  5  4  0  0.0000000  0  8G19G25G 7G 3G27G 6G11G 8            
 108127733.106    84255383.5534   20576021.774 8  20576021.04345  20576023.63746
     -1456.555       -1134.978  
 112530328.470    87685971.9644   21413807.390 8  21413807.11745  21413812.19745
     -1985.821       -1547.384  
 109398966.147    85245948.5544   20817929.589 7  20817929.57645  20817933.62945
      -747.723        -582.641  
 114907890.189    89538615.9784   21866242.389 7  21866241.71444  21866247.38744
     -2782.186       -2167.935  
 113103849.737    88132869.5634   21522943.803 7  21522943.67245  21522948.81745
       281.728         219.533  
 121619671.504    94768572.0934   23143450.303 6  23143450.57643  23143456.45543
     -2826.525       -2202.482  
 112126337.564    87371179.8194   21336931.189 7  21336930.49845  21336934.71145
      2511.027        1956.641  
 116827568.681    91034480.0614   22231544.780 7  22231544.13244  22231549.34044
      2121.104        1652.813  
 08 11  5  4  0 30.0000000  0  8G19G25G 7G 3G27G 6G11G 8            
 108171483.002    84289474.3784   20584347.097 7  20584346.11546  20584349.25346
     -1459.960       -1137.629  
 112590061.425    87732517.1084   21425174.418 7  21425174.15445  21425178.58845
     -1996.227       -1555.499  
 109421626.175    85263605.7114   20822241.837 8  20822242.24045  20822246.15945
      -762.803        -594.394  
 114991340.903    89603642.4884   21882122.447 7  21882121.91044  21882127.38044
     -2781.060       -2167.054  
 113095588.658    88126432.3504   21521371.938 8  21521371.74945  21521376.67545
       269.134         209.717  
 121704412.866    94834604.2934   23159577.250 6  23159577.08243  23159581.74643
     -2822.755       -2199.552  
 112051120.103    87312568.8194   21322617.298 7  21322616.89245  21322620.89045
      2503.582        1950.843  
 116764104.850    90985027.7394   22219468.500 7  22219468.06844  22219472.65744
      2109.954        1644.125  
 08 11  5  4  1  0.0000000  0  8G19G25G 7G 3G27G 6G11G 8            
 108215330.769    84323641.4694   20592691.062 8  20592690.17345  20592692.69845
     -1463.348       -1140.272  
 112650102.444    87779302.2994   21436599.443 7  21436599.01045  21436604.22845
     -2006.637       -1563.610  
 109444735.001    85281612.5794   20826639.318 8  20826639.30245  20826643.36545
      -777.925        -606.181  
 115074754.158    89668639.8094   21897995.943 7  21897995.38844  21898000.12144
     -2779.947       -2166.194  
 113087702.386    88120287.1934   21519870.913 8  21519870.83945  21519875.69345
       256.459         199.839  
 121789036.346    94900544.6424   23175679.965 6  23175679.54343  23175685.52243
     -2818.918       -2196.565  
 111976123.172    87254129.6684   21308346.021 7  21308345.81245  21308349.29845
      2496.049        1944.970  
 116700973.442    90935834.4414   22207455.069 7  22207454.26444  22207458.93944
      2098.656        1635.316  
 08 11  5  4  1 30.0000000  0  8G19G25G 7G 3G27G 6G11G 8            
 108259280.527    84357888.0334   20601054.589 7  20601053.41846  20601056.30146
     -1466.791       -1142.957  
 112710455.484    87826330.6184   21448084.242 7  21448084.25845  21448088.83445
     -2017.063       -1571.733  
 109468297.941    85299973.2954   20831123.138 7  20831123.46446  20831127.57145
      -793.111        -618.008  
 115158134.521    89733611.5084   21913862.033 7  21913861.51444  21913866.99244
     -2778.895       -2165.376  
 113080197.597    88114439.2974   21518442.828 7  21518442.63945  21518447.55345
       243.697         189.890  
 121873547.056    94966397.1274   23191762.142 7  23191761.78343  23191766.82643
     -2815.265       -2193.710  
 111901354.300    87195868.2164   21294118.113 7  21294117.85945  21294121.32245
      2488.357        1938.984  
 116638182.536    90886906.4714   22195505.774 7  22195505.08944  22195510.15144
      2087.236        1626.414  
 08 11  5  4  2  0.0000000  0  8G19G25G 7G 3G27G 6G11G 8            
 108303337.899    84392218.4454   20609438.370 8  20609437.43246  20609440.29046
     -1471.010       -1146.242  
 112771125.292    87873605.7704   21459629.571 7  21459629.07345  21459633.83445
     -2028.234       -1580.444  
 109492321.150    85318692.6654   20835694.758 8  20835694.93245  20835698.86445
      -809.091        -630.460  
 115241487.472    89798561.8404   21929723.880 7  21929723.77644  21929728.65344
     -2778.613       -2165.144  
 113073081.265    88108894.0904   21517088.810 7  21517088.83345  21517093.23945
       230.089         179.287  
 121957951.057    95032166.4534   23207823.139 6  23207823.26543  23207828.62743
     -2812.333       -2191.431  
 111826822.300    87137791.3474   21279934.976 7  21279934.53445  21279938.09745
      2479.779        1932.294  
 116575741.147    90838250.8594   22183623.155 7  22183622.65144  22183628.36744
      2074.867        1616.780  
 08 11  5  4  2 30.0000000  0  8G19G25G 7G 3G27G 6G11G 8            
 108347515.033    84426642.1754   20617844.845 8  20617844.04646  20617846.64645
     -1474.394       -1148.876  
 112832123.851    87921137.0914   21471237.482 7  21471237.44445  21471241.53445
     -2038.582       -1588.498  
 109516817.528    85337780.7354   20840356.330 8  20840356.46246  20840360.54946
      -824.259        -642.281  
 115324825.611    89863500.6274   21945582.538 7  21945582.33544  21945586.93044
     -2777.510       -2164.291  
 113066367.720    88103662.7444   21515811.000 7  21515810.74645  21515815.58845
       217.235         169.277  
 122042261.318    95097862.7254   23223867.407 6  23223866.85243  23223872.62143
     -2808.621       -2188.528  
 111752542.531    87079911.0194   21265799.785 7  21265799.24145  21265803.47345
      2471.944        1926.196  
 116513665.956    90789880.5834   22171811.070 7  22171810.00844  22171815.70444
      2063.197        1607.687  
 08 11  5  4  3  0.0000000  0  8G19G25G 7G 3G27G 6G11G 8            
 108391795.658    84461146.5594   20626271.186 7  20626270.50245  20626273.22345
     -1478.263       -1151.890  
 112893434.326    87968911.4674   21482904.108 7  21482904.08645  21482908.65845
     -2049.394       -1596.933  
 109541771.937    85357225.7144   20845105.019 7  20845105.91645  20845109.13045
      -839.961        -654.514  
 115408133.003    89928415.4634   21961435.564 7  21961435.61344  21961440.10544
     -2776.924       -2163.834  
 113060042.632    88098734.0984   21514607.662 8  21514607.51845  21514612.26545
       203.839         158.838  
 122126462.201    95163473.7704   23239890.022 6  23239889.96043  23239895.65143
     -2805.375       -2186.022  
 111678502.287    87022217.3404   21251710.353 7  21251710.14345  21251714.14945
      2463.476        1919.586  
 116451944.473    90741785.9274   22160065.654 7  22160064.97344  22160070.57644
      2050.942        1598.134  
 08 11  5  4  3 30.0000000  0  8G19G25G 7G 3G27G 6G11G 8            
 108436191.284    84495740.5434   20634719.409 7  20634718.45946  20634721.32046
     -1481.283       -1154.247  
 112955067.383    88016937.2054   21494632.273 7  21494632.19345  21494636.62845
     -2059.319       -1604.661  
 109567196.355    85377036.9394   20849943.529 8  20849944.07445  20849947.02945
      -854.841        -666.111  
 115491421.247    89993315.3704   21977284.638 7  21977284.07644  21977289.30444
     -2775.468       -2162.698  
 113054119.400    88094118.5814   21513480.717 8  21513480.51645  21513485.35645
       191.216         148.997  
 122210565.701    95229008.9404   23255894.482 6  23255894.43843  23255899.51843
     -2801.360       -2182.894  
 111604716.266    86964721.7494   21237669.386 7  21237668.69745  21237673.00045
      2455.739        1913.557  
 116390591.941    90693978.7644   22148391.089 7  22148390.08244  22148395.37044
      2039.366        1589.114  
 08 11  5  4  4  0.0000000  0  8G19G25G 7G 3G27G 6G11G 8            
 108480703.248    84530425.1804   20643189.482 7  20643189.07646  20643191.92746
     -1485.245       -1157.330  
 113017024.168    88065215.1914   21506422.535 7  21506422.30045  21506427.28145
     -2070.184       -1613.124  
 109593092.950    85397216.0864   20854870.827 8  20854871.93945  20854875.27846
      -870.670        -678.445  
 115574692.417    90058201.9744   21993130.952 7  21993130.28144  21993134.85144
     -2774.979       -2162.320  
 113048601.355    88089818.7894   21512430.709 7  21512430.42445  21512435.25245
       177.592         138.381  
 122294574.128    95294470.0334   23271880.607 6  23271880.51143  23271886.19943
     -2798.283       -2180.479  
 111531188.953    86907427.7544   21223677.701 7  21223677.44845  21223681.40145
      2446.976        1906.736  
 116329613.764    90646463.3174   22136787.048 7  22136786.50844  22136791.35844
      2026.745        1579.278  
 08 11  5  4  4 30.0000000  0  8G19G25G 7G 3G27G 6G11G 8            
 108525341.433    84565208.1694   20651684.236 8  20651683.23845  20651686.05045
     -1489.620       -1160.740  
 113079313.967    88113752.6754   21518275.671 7  21518275.04145  21518280.18945
     -2081.447       -1621.900  
 109619472.319    85417771.4264   20859890.777 7  20859890.92845  20859894.65645
      -886.944        -691.127  
 115657956.301    90123082.9104   22008975.184 7  22008974.88244  22008979.92344
     -2774.915       -2162.265  
 113043500.413    88085844.0174   21511459.739 8  21511459.47645  21511464.75245
       163.480         127.388  
 122378498.026    95359865.2424   23287850.715 6  23287850.51243  23287856.13143
     -2795.656       -2178.426  
 111457933.814    86850345.8354   21209737.284 7  21209736.73445  21209741.00645
      2437.688        1899.492  
 116269024.086    90599250.5854   22125257.045 7  22125256.50344  22125262.15344
      2013.565        1569.012  
 08 11  5  4  5  0.0000000  0  8G19G25G 7G 3G27G 6G11G 8            
 108570086.324    84600074.3034   20660198.910 8  20660198.02345  20660201.17045
     -1492.491       -1162.978  
 113141916.602    88162533.9394   21530188.656 7  21530188.87445  21530193.14545
     -2091.186       -1629.499  
 109646315.511    85438688.1814   20864999.045 8  20864999.22545  20865002.87545
      -901.729        -702.643  
 115741193.795    90187943.2814   22024814.842 7  22024814.64744  22024819.44744
     -2773.351       -2161.061  
 113038798.806    88082180.4174   21510565.063 7  21510564.84545  21510569.74045
       150.816         117.521  
 122462318.603    95425179.9604   23303801.466 6  23303800.98943  23303807.11843
     -2791.530       -2175.221  
 111384934.376    86793463.1694   21195846.801 8  21195846.85245  21195849.83845
      2429.788        1893.342  
 116208807.168    90552328.3184   22113798.298 7  22113797.16344  22113802.91944
      2001.752        1559.808  
 08 11  5  4  5 30.0000000  0  8G19G25G 7G 3G27G 6G11G 8            
 108614943.549    84635027.9684   20668734.721 7  20668733.50545  20668736.94145
     -1497.084       -1166.557  
 113204837.135    88211562.9034   21542162.072 7  21542162.03345  21542166.93245
     -2102.600       -1638.387  
 109673628.958    85459971.3694   20870196.753 8  20870196.71245  20870200.53445
      -918.241        -715.513  
 115824411.011    90252787.8484   22040650.888 7  22040649.96044  22040655.70244
     -2773.527       -2161.190  
 113034503.942    88078833.7644   21509747.621 8  21509747.33345  21509752.33745
       136.398         106.287  
 122546042.256    95490419.1414   23319733.901 6  23319733.26343  23319739.20043
     -2789.099       -2173.320  
 111312199.420    86736786.5934   21182005.468 7  21182005.21845  21182008.63345
      2420.089        1885.783  
 116148972.539    90505703.9334   22102412.454 7  22102411.53744  22102416.38544
      1988.113        1549.178  
 08 11  5  4  6  0.0000000  0  8G19G25G 7G 3G27G 6G11G 8            
 108659924.588    84670078.1074   20677294.432 7  20677293.58345  20677296.57845
     -1500.805       -1169.459  
 113268086.255    88260847.9064   21554198.320 7  21554198.34745  21554202.45945
     -2113.124       -1646.594  
 109701424.317    85481630.0744   20875486.073 8  20875486.27045  20875489.99545
      -933.910        -727.723  
 115907619.634    90317625.7054   22056484.320 7  22056484.05544  22056490.12744
     -2772.856       -2160.658  
 113030629.111    88075814.4054   21509010.383 7  21509010.10645  21509014.84845
       122.769          95.666  
 122629680.903    95555592.0754   23335649.933 6  23335649.77843  23335655.66943
     -2785.919       -2170.851  
 111239743.635    86680327.5534   21168217.418 7  21168217.48045  21168220.91845
      2411.127        1878.801  
 116089535.476    90459389.3514   22091101.080 7  22091100.59944  22091106.24144
      1975.212        1539.124  
 08 11  5  4  6 30.0000000  0  8G19G25G 7G 3G27G 6G11G 8            
 108705030.487    84705225.5394   20685877.961 7  20685876.96245  20685879.87245
     -1505.366       -1173.011  
 113331664.549    88310389.4154   21566296.659 7  21566296.15745  21566301.39645
     -2124.521       -1655.457  
 109729703.356    85503665.6664   20880867.353 8  20880867.56545  20880870.97445
      -950.467        -740.615  
 115990821.218    90382458.0744   22072317.564 7  22072316.91044  22072322.31744
     -2773.036       -2160.811  
 113027176.989    88073124.4314   21508353.812 8  21508353.34145  21508358.09045
       108.237          84.344  
 122713236.523    95620700.2984   23351549.081 6  23351549.07243  23351555.49243
     -2783.564       -2169.006  
 111167571.462    86624089.5114   21154483.556 8  21154483.55645  21154487.21545
      2401.204        1871.070  
 116030500.926    90413388.4094   22079867.176 7  22079866.66844  22079872.09744
      1961.291        1528.280  
 08 11  5  4  7  0.0000000  0  8G19G25G 7G 3G27G 6G11G 8            
 108750260.786    84740469.9114   20694484.952 8  20694483.91745  20694487.16645
     -1509.686       -1176.378  
 113395570.908    88360186.5614   21578457.723 7  21578457.65645  21578461.99845
     -2135.611       -1664.109  
 109758466.291    85526078.3234   20886340.719 8  20886340.83845  20886344.23445
      -966.773        -753.326  
 116074015.485    90447284.7684   22088149.149 7  22088148.24444  22088153.47644
     -2772.952       -2160.735  
 113024148.873    88070764.8494   21507777.333 7  21507777.08945  21507782.32445
        93.917          73.188  
 122796709.383    95685744.0584   23367434.180 6  23367433.59643  23367439.84243
     -2780.968       -2166.987  
 111095685.541    86568074.5224   21140804.208 8  21140803.81245  21140807.66745
      2391.458        1863.474  
 115971872.600    90367703.9924   22068711.023 7  22068710.29244  22068716.11544
      1947.535        1517.568  
 08 11  5  4  7 30.0000000  0  8G19G25G 7G 3G27G 6G11G 8            
 108795609.810    84775806.7864   20703114.492 7  20703113.64645  20703116.70045
     -1512.611       -1178.654  
 113459798.916    88410234.3404   21590679.663 7  21590679.30345  21590684.06645
     -2145.294       -1671.655  
 109787707.954    85548864.0164   20891905.453 8  20891905.53545  20891909.14945
      -981.689        -764.956  
 116157197.234    90512101.6944   22103978.356 7  22103978.18644  22103982.51744
     -2771.519       -2159.628  
 113021540.962    88068732.7014   21507281.116 8  21507280.90245  21507286.00845
        80.907          63.049  
 122880094.451    95750719.4024   23383302.169 6  23383301.76443  23383307.06443
     -2777.065       -2163.938  
 111024083.165    86512280.4774   21127178.845 8  21127178.36845  21127182.57745
      2382.987        1856.872  
 115913648.381    90322334.4734   22057631.215 7  22057630.32044  22057636.28544
      1935.046        1507.838  
 08 11  5  4  8  0.0000000  0  8G19G25G 7G 3G27G 6G11G 8            
 108841094.436    84811249.3364   20711770.102 7  20711769.36545  20711772.00445
     -1518.211       -1183.020  
 113524365.024    88460545.5674   21602966.021 7  21602965.41045  21602970.77645
     -2157.612       -1681.252  
 109817445.842    85572036.3704   20897564.092 8  20897564.31045  20897568.42845
      -999.323        -778.695  
 116240383.554    90576922.1824   22119807.934 7  22119807.97744  22119812.61244
     -2772.751       -2160.586  
 113019372.225    88067042.7664   21506868.649 7  21506868.33745  21506872.92845
        65.163          50.777  
 122963409.617    95815640.2814   23399156.567 6  23399156.56043  23399162.13843
     -2775.802       -2162.955  
 110952784.793    86456723.3164   21113611.500 8  21113611.23845  21113614.80045
      2371.726        1848.101  
 115855849.238    90277296.1794   22046632.444 7  22046631.64144  22046637.31544
      1919.714        1495.888  
 08 11  5  4  8 30.0000000  0  8G19G25G 7G 3G27G 6G11G 8            
 108886705.879    84846790.7084   20720449.775 8  20720448.88845  20720451.45845
     -1522.825       -1186.619  
 113589259.538    88511112.7084   21615315.317 7  21615314.83645  21615320.03145
     -2168.959       -1690.088  
 109847671.375    85595588.7184   20903315.844 8  20903316.22745  20903319.53545
     -1015.982        -791.673  
 116323566.338    90641739.9224   22135636.962 7  22135636.43244  22135641.07144
     -2773.031       -2160.810  
 113017635.323    88065689.3304   21506537.791 7  21506537.52845  21506542.25245
        50.342          39.231  
 123046646.776    95880500.3654   23414995.862 6  23414995.31043  23415001.07943
     -2773.605       -2161.234  
 110881784.574    86401398.4814   21100100.005 7  21100099.19245  21100103.87045
      2361.333        1840.001  
 115798469.992    90232585.0894   22035713.677 7  22035713.35744  22035717.93444
      1905.261        1484.623  
 08 11  5  4  9  0.0000000  0  8G19G25G 7G 3G27G 6G11G 8            
 108932427.703    84882418.0814   20729150.199 7  20729148.91545  20729152.52845
     -1525.926       -1189.029  
 113654464.938    88561922.0844   21627723.953 7  21627723.58045  21627728.25245
     -2178.707       -1697.685  
 109878368.503    85619508.5394   20909157.328 8  20909157.52845  20909161.14945
     -1031.126        -803.474  
 116406729.163    90706542.0824   22151461.920 7  22151461.92144  22151466.92244
     -2771.790       -2159.846  
 113016315.321    88064660.7424   21506286.779 7  21506286.43445  21506291.17745
        37.020          28.850  
 123129789.730    95945287.0524   23430817.614 6  23430817.14543  23430823.04543
     -2769.901       -2158.352  
 110811068.887    86346295.3564   21086643.569 8  21086643.66045  21086646.77845
      2352.385        1833.026  
 115741497.722    90188191.1164   22024871.959 7  22024871.52344  22024876.63844
      1892.233        1474.468  
 08 11  5  4  9 30.0000000  0  8G19G25G 7G 3G27G 6G11G 8            
 108978267.274    84918137.2174   20737873.275 7  20737872.29545  20737875.34545
     -1530.305       -1192.444  
 113719988.218    88612979.1654   21640192.426 7  21640192.26945  21640196.73745
     -2189.745       -1706.299  
 109909545.156    85643802.0174   20915090.071 8  20915090.62945  20915093.80545
     -1047.576        -816.290  
 116489879.696    90771334.6794   22167285.396 7  22167285.06844  22167290.00044
     -2771.849       -2159.881  
 113015421.248    88063964.0574   21506116.342 8  21506116.24245  21506121.04245
        22.333          17.403  
 123212847.067    96010007.0054   23446622.628 6  23446622.84543  23446627.56243
     -2767.517       -2156.507  
 110740648.543    86291422.3744   21073243.000 8  21073242.60845  21073246.26845
      2342.034        1824.963  
 115684943.436    90144122.8524   22014109.976 7  22014109.05444  22014114.93944
      1877.784        1463.201  
 08 11  5  4 10  0.0000000  0  8G19G25G 7G 3G27G 6G11G 8            
 109024226.090    84953949.2664   20746618.882 7  20746617.92645  20746620.96345
     -1534.279       -1195.540  
 113785829.921    88664284.3724   21652721.236 7  21652720.97245  21652726.32045
     -2200.343       -1714.559  
 109941202.924    85668470.3914   20921114.608 8  20921114.79445  20921118.31845
     -1063.599        -828.773  
 116573019.912    90836119.2304   22183106.322 7  22183106.09444  22183111.05144
     -2771.487       -2159.601  
 113014956.253    88063601.7104   21506028.155 8  21506027.99145  21506032.47545
         8.005           6.238  
 123295820.699    96074661.7614   23462411.986 6  23462411.45743  23462416.79143
     -2764.735       -2154.331  
 110670527.945    86236782.9514   21059899.464 7  21059899.24845  21059902.88745
      2332.003        1817.146  
 115628812.541    90100384.4954   22003428.594 7  22003427.73744  22003433.58044
      1863.601        1452.169  
 08 11  5  4 10 30.0000000  0  8G19G25G 7G 3G27G 6G11G 8            
 109070311.489    84989859.9634   20755388.503 7  20755387.14145  20755390.69545
     -1538.168       -1198.578  
 113851996.720    88715842.8854   21665312.996 7  21665312.48445  21665317.62445
     -2210.846       -1722.736  
 109973349.561    85693519.7014   20927231.873 7  20927231.83445  20927235.53345
     -1079.581        -841.233  
 116656157.355    90900901.6284   22198927.149 7  22198926.94344  22198931.41144
     -2771.085       -2159.283  
 113014929.358    88063580.7424   21506022.870 7  21506022.59745  21506027.60345
        -6.289          -4.903  
 123378718.971    96139257.7764   23478186.519 6  23478186.66543  23478192.52043
     -2761.934       -2152.145  
 110600717.399    86182385.1294   21046614.999 8  21046614.76845  21046618.05645
      2321.939        1809.301  
 115573116.371    90056984.8844   21992829.751 7  21992829.04644  21992834.94644
      1849.385        1441.077  
 08 11  5  4 11  0.0000000  0  8G19G25G 7G 3G27G 6G11G 8            
 109116513.511    85025861.5194   20764180.780 8  20764179.91245  20764182.52145
     -1542.272       -1201.764  
 113918477.847    88767646.3444   21677963.733 7  21677963.69745  21677968.68445
     -2221.534       -1731.061  
 110005975.675    85718942.6294   20933440.488 7  20933440.69145  20933444.52745
     -1095.793        -853.857  
 116739282.603    90965674.5194   22214745.247 7  22214744.87844  22214749.93744
     -2770.902       -2159.137  
 113015332.177    88063894.6134   21506099.931 7  21506099.36645  21506104.36545
       -20.853         -16.246  
 123461532.673    96203787.8994   23493946.109 6  23493944.63043  23493952.16943
     -2759.305       -2150.117  
 110531210.413    86128223.8534   21033388.059 8  21033387.86045  21033391.68245
      2311.542        1801.203  
 115517848.530    90013919.0324   21982313.403 7  21982312.92144  21982317.86944
      1834.831        1429.740  
 08 11  5  4 11 30.0000000  0  8G19G25G 7G 3G27G 6G11G 8            
 109162843.333    85061962.6774   20772997.018 8  20772996.07845  20772999.09545
     -1546.141       -1204.788  
 113985283.618    88819702.7644   21690676.596 7  21690675.96045  21690681.64545
     -2231.955       -1739.179  
 110039092.488    85744747.9274   20939742.234 8  20939742.71345  20939746.50245
     -1111.781        -866.323  
 116822407.461    91030447.1024   22230563.190 7  22230563.43744  22230568.60544
     -2770.518       -2158.840  
 113016177.207    88064553.0614   21506260.622 7  21506260.16145  21506265.31145
       -35.238         -27.458  
 123544273.703    96268261.3854   23509691.627 6  23509691.42043  23509696.08543
     -2756.525       -2147.936  
 110462020.975    86074310.0244   21020221.835 8  21020221.69545  21020225.34445
      2301.309        1793.228  
 115463023.560    89971198.2904   21971880.594 7  21971879.73045  21971884.94945
      1820.400        1418.483  
 08 11  5  4 12  0.0000000  0  8G19G25G 7G 3G27G 6G11G 8            
 109209284.642    85098150.7054   20781834.486 8  20781833.40545  20781836.29245
     -1549.860       -1207.688  
 114052396.762    88871998.7014   21703447.579 7  21703447.33145  21703452.77145
     -2242.184       -1747.157  
 110072683.847    85770923.0004   20946134.180 8  20946135.16745  20946138.60445
     -1127.610        -878.652  
 116905515.641    91095206.6964   22246378.671 7  22246378.29244  22246383.12444
     -2769.975       -2158.420  
 113017449.618    88065544.5314   21506502.420 7  21506501.94145  21506507.32645
       -49.522         -38.593  
 123626926.369    96332666.0264   23525419.004 6  23525418.86343  23525424.48643
     -2753.583       -2145.649  
 110393135.525    86020633.0614   21007113.453 8  21007113.51045  21007116.75945
      2291.110        1785.281  
 115408629.121    89928813.0164   21961529.202 7  21961528.66244  21961534.17644
      1805.949        1407.238  
 08 11  5  4 12 30.0000000  0  8G19G25G 7G 3G27G 6G11G 8            
 109255831.412    85134420.9154   20790691.896 7  20790691.01545  20790693.85445
     -1553.721       -1210.683  
 114119810.436    88924528.8094   21716276.034 7  21716275.98145  21716281.12245
     -2252.521       -1755.213  
 110106743.826    85797463.2314   20952615.944 7  20952616.08145  20952620.22345
     -1143.538        -891.068  
 116988601.555    91159948.9374   22262188.944 7  22262188.59844  22262194.27644
     -2769.547       -2158.081  
 113019144.970    88066865.5644   21506825.147 7  21506825.22545  21506830.05745
       -63.969         -49.841  
 123709485.531    96396997.7984   23541129.400 6  23541129.05943  23541134.82443
     -2750.843       -2143.507  
 110324551.181    85967190.7214   20994062.266 8  20994062.26345  20994065.89545
      2280.685        1777.161  
 115354662.647    89886761.2114   21951260.346 7  21951259.71744  21951264.55544
      1791.301        1395.829  
 08 11  5  4 13  0.0000000  0  8G19G25G 7G 3G27G 6G11G 8            
 109302509.489    85170793.4394   20799574.763 7  20799573.83945  20799576.41945
     -1557.578       -1213.698  
 114187549.657    88977312.6014   21729166.715 7  21729166.15345  21729171.60845
     -2262.827       -1763.241  
 110141298.718    85824389.1084   20959191.394 7  20959191.78645  20959195.48545
     -1159.524        -903.523  
 117071691.231    91224694.1104   22278000.500 7  22277999.51544  22278005.38544
     -2769.178       -2157.798  
 113021290.642    88068537.5074   21507233.756 7  21507233.68145  21507238.28845
       -78.478         -61.151  
 123791977.754    96461277.4184   23556827.929 6  23556827.28243  23556832.92043
     -2748.049       -2141.329  
 110256297.165    85914005.7914   20981073.642 8  20981073.56945  20981077.42045
      2270.144        1768.946  
 115301153.713    89845065.9454   21941077.732 7  21941077.00045  21941082.05945
      1776.531        1384.315  
 08 11  5  4 13 30.0000000  0  8G19G25G 7G 3G27G 6G11G 8            
 109349289.135    85207245.1154   20808476.124 7  20808475.30145  20808478.24645
     -1561.222       -1216.538  
 114255583.899    89030326.2744   21742112.897 7  21742112.78245  21742118.01845
     -2272.922       -1771.112  
 110176319.005    85851677.6294   20965855.472 7  20965855.41945  20965859.63745
     -1175.309        -915.827  
 117154755.931    91289419.8224   22293807.575 7  22293807.19844  22293812.13744
     -2768.607       -2157.354  
 113023858.331    88070538.2914   21507722.240 7  21507721.78545  21507727.04845
       -92.845         -72.348  
 123874374.175    96525482.3994   23572506.961 6  23572507.25143  23572512.93443
     -2745.156       -2139.074  
 110188346.540    85861057.2664   20968143.489 8  20968143.25145  20968146.82045
      2259.724        1760.821  
 115248076.420    89803707.0134   21930977.599 7  21930976.86545  21930981.72545
      1761.807        1372.834  
 08 11  5  4 14  0.0000000  0  8G19G25G 7G 3G27G 6G11G 8            
 109396199.303    85243798.4894   20817403.014 8  20817402.24345  20817405.39745
     -1565.175       -1219.622  
 114323940.915    89083591.4564   21755121.170 7  21755121.08545  21755125.61345
     -2283.283       -1779.185  
 110211833.469    85879351.2184   20972613.916 7  20972613.72945  20972617.70945
     -1191.380        -928.348  
 117237824.168    91354148.2864   22309614.883 7  22309614.61044  22309619.72544
     -2768.334       -2157.144  
 113026878.231    88072891.4484   21508296.950 7  21508296.63745  21508301.36045
      -107.547         -83.802  
 123956704.231    96589635.6444   23588173.614 6  23588173.58843  23588180.22143
     -2742.586       -2137.084  
 110120730.617    85808369.5464   20955276.318 8  20955276.11245  20955279.68845
      2248.913        1752.399  
 115195462.398    89762709.0724   21920965.044 7  21920964.84845  21920969.93045
      1746.697        1361.064  
 08 11  5  4 14 30.0000000  0  8G19G25G 7G 3G27G 6G11G 8            
 109443230.367    85280446.0724   20826352.732 7  20826351.88345  20826354.46045
     -1569.880       -1223.285  
 114392610.280    89137100.0284   21768188.421 7  21768188.04945  21768193.28645
     -2294.340       -1787.800  
 110247832.798    85907402.6314   20979464.235 8  20979464.39445  20979467.97945
     -1208.235        -941.482  
 117320887.440    91418872.8944   22325421.123 7  22325421.12244  22325426.32444
     -2768.862       -2157.551  
 113030342.110    88075590.5624   21508956.121 7  21508955.71245  21508960.60245
      -123.038         -95.874  
 124038959.298    96653730.4554   23603826.746 6  23603826.21043  23603831.91043
     -2740.779       -2135.674  
 110053443.341    85755937.9114   20942471.969 7  20942471.76345  20942474.93445
      2237.235        1743.300  
 115143306.258    89722067.9194   21911040.395 7  21911039.75645  21911044.61945
      1730.701        1348.598  
 08 11  5  4 15  0.0000000  0  8G19G25G 7G 3G27G 6G11G 8            
 109490385.999    85317190.7164   20835326.345 7  20835325.48445  20835328.34245
     -1574.035       -1226.513  
 114461594.740    89190854.1274   21781315.482 7  21781315.46245  21781320.33545
     -2304.800       -1795.952  
 110284320.296    85935834.4334   20986407.902 7  20986407.45245  20986411.74245
     -1224.472        -954.132  
 117403949.534    91483596.5714   22341227.244 7  22341226.58244  22341232.42544
     -2768.814       -2157.515  
 113034254.734    88078639.3454   21509700.677 7  21509700.34645  21509705.26545
      -137.999        -107.531  
 124121143.899    96717770.3754   23619465.965 6  23619466.03243  23619471.20843
     -2738.415       -2133.834  
 109986490.824    85703767.1324   20929731.317 7  20929730.63945  20929734.61445
      2226.048        1734.583  
 115091615.062    89681789.0544   21901203.806 7  21901203.35245  21901208.09145
      1715.174        1336.497  
 08 11  5  4 15 30.0000000  0  8G19G25G 7G 3G27G 6G11G 8            
 109537658.863    85354026.7124   20844321.800 7  20844320.75445  20844323.90745
     -1577.878       -1229.519  
 114530885.712    89244847.0684   21794501.021 7  21794501.05045  21794506.01045
     -2314.950       -1803.860  
 110321289.035    85964641.2334   20993442.611 7  20993442.50245  20993446.55545
     -1240.461        -966.593  
 117487003.606    91548314.0114   22357032.244 7  22357031.95944  22357036.83144
     -2768.478       -2157.249  
 113038610.206    88082033.2094   21510529.255 7  21510528.86145  21510533.97845
      -152.728        -119.007  
 124203251.012    96781749.9344   23635090.498 6  23635090.59143  23635095.66743
     -2735.767       -2131.771  
 109919868.849    85651853.9144   20917053.551 7  20917053.07945  20917056.50145
      2215.044        1726.007  
 115040384.706    89641869.2884   21891455.261 7  21891454.21645  21891458.98345
      1699.801        1324.521  
 08 11  5  4 16  0.0000000  0  8G19G25G 7G 3G27G 6G11G 8            
 109585051.282    85390955.8714   20853340.471 8  20853339.68045  20853342.42045
     -1582.010       -1232.735  
 114600484.869    89299080.1524   21807745.091 7  21807744.97145  21807750.47045
     -2325.369       -1811.971  
 110358741.576    85993825.0164   21000569.227 8  21000569.49545  21000573.55445
     -1256.748        -979.286  
 117570052.106    91613027.1004   22372835.729 7  22372835.30544  22372840.45844
     -2768.466       -2157.238  
 113043412.352    88085775.1254   21511443.263 7  21511442.71945  21511448.03345
      -167.790        -130.741  
 124285284.125    96845671.7914   23650700.203 6  23650701.15543  23650706.46643
     -2733.449       -2129.957  
 109853582.755    85600202.4214   20904439.417 7  20904438.93845  20904443.16245
      2203.638        1717.124  
 114989621.154    89602313.2714   21881794.715 7  21881793.98044  21881799.30545
      1684.028        1312.235  
 08 11  5  4 16 30.0000000  0  8G19G25G 7G 3G27G 6G11G 8            
 109632584.720    85427994.9104   20862386.065 8  20862385.13145  20862387.94745
     -1586.907       -1236.549  
 114670412.594    89353569.2624   21821052.299 7  21821051.67145  21821057.00145
     -2336.491       -1820.642  
 110396698.865    86023402.1084   21007792.356 7  21007792.28445  21007796.88945
     -1273.759        -992.538  
 117653116.942    91677752.9134   22388642.751 7  22388641.53344  22388647.00044
     -2769.208       -2157.823  
 113048684.011    88089882.8974   21512446.436 7  21512446.02345  21512451.03645
      -183.659        -143.110  
 124367265.355    96909553.2044   23666302.014 6  23666302.16643  23666307.01643
     -2732.008       -2128.832  
 109787656.885    85548831.6234   20891894.190 7  20891893.76845  20891897.61645
      2191.383        1707.575  
 114939349.668    89563140.6894   21872228.583 7  21872227.46045  21872232.82945
      1667.372        1299.249  
 08 11  5  4 17  0.0000000  0  8G19G25G 7G 3G27G 6G11G 8            
 109680236.865    85465126.4494   20871453.973 8  20871453.21345  20871455.54345
     -1590.272       -1239.176  
 114740645.402    89408296.1044   21834417.150 7  21834416.93945  21834422.09245
     -2346.050       -1828.083  
 110435138.473    86053355.0444   21015107.132 8  21015107.10245  21015111.49645
     -1289.247       -1004.609  
 117736176.268    91742474.4474   22404448.480 6  22404448.04344  22404452.80144
     -2768.430       -2157.220  
 113054403.547    88094339.6734   21513534.898 7  21513534.74545  21513539.67545
      -198.012        -154.299  
 124449173.054    96973377.3634   23681888.578 6  23681888.89543  23681893.20443
     -2728.926       -2126.427  
 109722071.587    85497726.2084   20879414.053 8  20879413.89845  20879417.09845
      2180.580        1699.152  
 114889550.998    89524336.5374   21862752.100 7  21862751.44445  21862756.52645
      1652.154        1287.392  
 08 11  5  4 17 30.0000000  0  8G19G25G 7G 3G27G 6G11G 8            
 109728014.969    85502356.1394   20880545.602 8  20880544.65045  20880547.44845
     -1595.228       -1243.037  
 114811189.794    89463265.7334   21847841.413 7  21847841.60645  21847845.90545
     -2357.192       -1836.778  
 110474068.097    86083689.8044   21022515.380 8  21022515.58745  21022519.55545
     -1306.348       -1017.937  
 117819237.943    91807197.8064   22420254.420 7  22420254.35144  22420259.06844
     -2769.288       -2157.893  
 113060579.966    88099152.4604   21514710.326 8  21514709.95345  21514714.85545
      -214.038        -166.783  
 124531015.864    97037150.9494   23697462.440 6  23697461.85143  23697466.47843
     -2727.560       -2125.383  
 109656837.233    85446894.2454   20866999.998 7  20866999.73745  20867003.64045
      2168.065        1689.403  
 114840236.152    89485909.3824   21853367.506 7  21853366.85845  21853372.43045
      1635.208        1274.191  
 08 11  5  4 18  0.0000000  0  8G19G25G 7G 3G27G 6G11G 8            
 109775931.756    85539693.8954   20889663.923 8  20889663.17845  20889665.66545
     -1599.288       -1246.199  
 114882057.158    89518487.0294   21861327.203 7  21861327.23045  21861332.11745
     -2367.357       -1844.694  
 110513500.395    86114416.2504   21030018.745 8  21030019.12645  21030023.15345
     -1322.526       -1030.536  
 117902314.526    91871932.7744   22436063.709 7  22436063.21644  22436068.29344
     -2769.236       -2157.845  
 113067226.915    88104331.8804   21515974.978 8  21515974.67545  21515979.66745
      -229.166        -178.567  
 124612806.818    97100884.1144   23713026.233 6  23713026.03043  23713032.01443
     -2725.244       -2123.558  
 109591969.086    85396347.6434   20854656.325 8  20854656.16245  20854659.39945
      2156.390        1680.310  
 114791420.685    89447871.3494   21844078.580 7  21844078.19845  21844083.34445
      1619.086        1261.629  
 08 11  5  4 18 30.0000000  0  8G19G25G 7G 3G27G 6G11G 8            
 109823962.461    85577120.4154   20898803.601 7  20898802.76745  20898805.79745
     -1602.898       -1249.017  
 114953221.440    89573939.6844   21874869.080 7  21874868.96145  21874874.20945
     -2377.073       -1852.262  
 110553409.593    86145514.3174   21037613.668 7  21037614.01845  21037617.79245
     -1338.218       -1042.765  
 117985381.936    91936660.6014   22451870.573 7  22451869.63244  22451875.73444
     -2768.741       -2157.469  
 113074320.360    88109859.2284   21517325.014 7  21517324.42845  21517329.50045
      -243.871        -190.031  
 124694521.478    97164557.8414   23728576.568 6  23728576.53943  23728582.20043
     -2722.566       -2121.488  
 109527444.879    85346069.0544   20842377.807 8  20842377.62845  20842381.12945
      2145.065        1671.473  
 114743083.106    89410205.7094   21834879.961 7  21834879.59445  21834884.99045
      1603.270        1249.302  
 08 11  5  4 19  0.0000000  0  8G19G25G 7G 3G27G 6G11G 8            
 109872106.960    85614635.5964   20907965.255 7  20907964.25545  20907967.36645
     -1607.173       -1252.343  
 115024681.546    89629622.8604   21888467.294 7  21888466.93745  21888472.06345
     -2387.356       -1860.281  
 110593795.866    86176984.1314   21045298.570 7  21045298.84245  21045302.64345
     -1354.615       -1055.549  
 118068440.624    92001381.6304   22467675.834 7  22467675.52044  22467680.72644
     -2768.929       -2157.612  
 113081861.739    88115735.6134   21518760.053 7  21518759.58445  21518765.25845
      -259.315        -202.066  
 124776160.998    97228173.0064   23744111.470 6  23744110.93743  23744117.15143
     -2720.538       -2119.908  
 109463267.488    85296060.7034   20830165.339 8  20830165.28245  20830168.59545
      2132.973        1662.051  
 114695226.823    89372915.0994   21825773.952 7  21825773.37245  21825778.38445
      1586.701        1236.391  
 08 11  5  4 19 30.0000000  0  8G19G25G 7G 3G27G 6G11G 8            
 109920388.954    85652257.9224   20917152.935 8  20917152.16645  20917155.11745
     -1611.516       -1255.727  
 115096460.520    89685554.5024   21902126.765 7  21902126.71145  21902131.96045
     -2397.756       -1868.381  
 110634682.963    86208844.1894   21053079.228 7  21053079.68945  21053083.70545
     -1371.072       -1068.366  
 118151515.163    92066115.0124   22483484.992 7  22483484.76944  22483489.39444
     -2769.228       -2157.834  
 113089875.999    88121980.4764   21520285.262 7  21520284.54845  21520290.22745
      -274.852        -214.173  
 124857750.271    97291749.0354   23759637.180 6  23759636.91143  23759642.90043
     -2718.574       -2118.364  
 109399463.592    85246343.3834   20818023.435 8  20818023.30545  20818027.52545
      2120.713        1652.506  
 114647879.263    89336020.8994   21816764.017 7  21816763.78545  21816768.69545
      1569.919        1223.319  
 08 11  5  4 20  0.0000000  0  8G19G25G 7G 3G27G 6G11G 8            
 109968805.019    85689984.7104   20926366.577 8  20926365.97045  20926369.10745
     -1616.485       -1259.599  
 115168553.313    89741730.6714   21915845.750 7  21915845.66945  21915851.08045
     -2408.702       -1876.900  
 110676066.760    86241091.2904   21060954.568 7  21060955.11145  21060958.86145
     -1388.115       -1081.654  
 118234601.578    92130857.6554   22499296.069 7  22499295.46044  22499300.25544
     -2770.142       -2158.560  
 113098360.271    88128591.5774   21521899.491 7  21521898.89345  21521904.12745
      -291.046        -226.790  
 124939285.795    97355283.1864   23775153.101 6  23775153.04943  23775158.96243
     -2717.356       -2117.427  
 109336032.168    85196916.3014   20805953.136 7  20805952.92545  20805956.31045
      2107.763        1642.410  
 114601039.648    89299522.4994   21807849.904 7  21807849.33345  21807855.14745
      1552.446        1209.700  
 08 11  5  4 20 30.0000000  0  8G19G25G 7G 3G27G 6G11G 8            
 110017347.479    85727809.9904   20935603.936 7  20935602.76945  20935605.59245
     -1620.250       -1262.532  
 115240951.236    89798144.6204   21929622.927 7  21929622.95245  21929627.79945
     -2418.395       -1884.460  
 110717939.665    86273719.5104   21068922.640 7  21068922.76545  21068927.06545
     -1403.978       -1094.008  
 118317693.273    92195604.4024   22515107.196 7  22515106.75744  22515112.03644
     -2769.869       -2158.338  
 113107308.143    88135563.9254   21523602.367 7  21523602.05445  21523607.49545
      -306.065        -238.493  
 125020761.188    97418770.4654   23790658.106 6  23790657.38943  23790662.45143
     -2714.931       -2115.531  
 109272968.210    85147775.5614   20793952.325 8  20793951.73645  20793955.91745
      2095.907        1633.178  
 114554704.153    89263416.9164   21799032.649 7  21799031.92345  21799037.66445
      1536.012        1196.887  
 08 11  5  4 21  0.0000000  0  8G19G25G 7G 3G27G 6G11G 8            
 110066012.708    85765730.9414   20944864.952 8  20944864.17945  20944866.36145
     -1623.775       -1265.275  
 115313649.565    89854792.6334   21943456.206 7  21943456.10645  21943461.68245
     -2427.812       -1891.795  
 110760297.556    86306725.6434   21076983.265 7  21076983.29845  21076987.74745
     -1419.575       -1106.153  
 118400786.529    92260352.3574   22530919.409 7  22530919.13944  22530924.56544
     -2769.369       -2157.946  
 113116716.995    88142895.4854   21525392.920 7  21525392.57145  21525397.57545
      -320.876        -250.033  
 125102173.510    97482208.5774   23806149.891 6  23806150.01143  23806155.49043
     -2712.214       -2113.421  
 109210270.982    85098920.5834   20782021.716 8  20782021.32045  20782024.79645
      2084.206        1624.058  
 114508872.033    89227703.5834   21790311.552 7  21790310.75545  21790316.01945
      1519.762        1184.229  
 08 11  5  4 21 30.0000000  0  8G19G25G 7G 3G27G 6G11G 8            
 110114792.516    85803741.1674   20954146.914 7  20954146.01345  20954149.22345
     -1628.080       -1268.628  
 115386638.807    89911667.3494   21957346.257 7  21957345.86945  21957351.06245
     -2437.974       -1899.713  
 110803132.015    86340103.1304   21085134.273 7  21085134.59745  21085138.63245
     -1435.931       -1118.903  
 118483874.201    92325095.9704   22546730.994 7  22546730.50244  22546735.02744
     -2769.656       -2158.170  
 113126579.515    88150580.5484   21527269.655 7  21527269.46345  21527274.33545
      -336.490        -262.193  
 125183515.352    97545591.7774   23821628.457 6  23821628.66943  23821634.87443
     -2710.441       -2112.031  
 109147934.992    85050347.0874   20770159.512 8  20770159.58045  20770162.42145
      2071.649        1614.274  
 114463537.967    89192378.3384   21781684.668 7  21781683.91145  21781688.49145
      1502.623        1170.885  
 08 11  5  4 22  0.0000000  0  8G19G25G 7G 3G27G 6G11G 8            
 110163701.264    85841851.8624   20963453.927 7  20963453.01645  20963455.93545
     -1633.123       -1272.561  
 115459932.010    89968778.9094   21971292.997 7  21971293.03745  21971297.89744
     -2448.833       -1908.185  
 110846456.957    86373862.8044   21093378.986 7  21093379.18645  21093383.51045
     -1453.026       -1132.223  
 118566970.540    92389846.3424   22562543.858 7  22562543.68344  22562548.00644
     -2770.698       -2158.979  
 113136911.021    88158631.0564   21529235.591 7  21529235.57845  21529240.66645
      -352.893        -274.977  
 125264801.787    97608931.8064   23837097.873 6  23837097.51143  23837102.69143
     -2709.303       -2111.142  
 109085976.840    85002068.0084   20758369.302 8  20758369.01845  20758371.96845
      2058.256        1603.842  
 114418719.545    89157454.8924   21773156.117 7  21773155.69445  21773160.10145
      1484.635        1156.864  
 08 11  5  4 22 30.0000000  0  8G19G25G 7G 3G27G 6G11G 8            
 110212740.622    85880064.3424   20972786.073 7  20972785.01045  20972787.98045
     -1636.166       -1274.934  
 115533529.884    90026127.8764   21985298.245 7  21985297.78545  21985303.35345
     -2457.666       -1915.062  
 110890274.173    86408006.0714   21101716.865 7  21101717.30645  21101721.46545
     -1468.100       -1143.968  
 118650077.772    92454605.1934   22578358.419 7  22578358.23044  22578363.17444
     -2769.745       -2158.248  
 113147714.251    88167049.1404   21531291.376 8  21531291.09745  21531296.25845
      -367.313        -286.209  
 125346035.374    97672230.6724   23852555.597 6  23852555.75243  23852560.90443
     -2706.248       -2108.771  
 109024401.161    84954086.9604   20746651.752 8  20746651.14145  20746654.46145
      2046.789        1594.905  
 114374422.076    89122937.3894   21764726.334 7  21764725.41244  21764730.42045
      1468.552        1144.322  
 08 11  5  4 23  0.0000000  0  8G19G25G 7G 3G27G 6G11G 8            
 110261902.194    85918372.0434   20982141.167 7  20982140.15045  20982143.15245
     -1641.029       -1278.719  
 115607422.739    90083706.6964   21999359.658 7  21999359.29145  21999364.32444
     -2468.269       -1923.320  
 110934574.204    86442525.5604   21110147.262 8  21110147.36745  21110151.27945
     -1484.973       -1157.118  
 118733187.920    92519366.3424   22594173.976 7  22594173.79644  22594178.02744
     -2770.675       -2158.966  
 113158981.640    88175828.9104   21533435.371 7  21533435.07645  21533440.72745
      -383.603        -298.906  
 125427208.632    97735482.5174   23868002.488 6  23868002.36943  23868007.39343
     -2705.038       -2107.807  
 108963202.239    84906399.4904   20735006.114 8  20735005.89745  20735008.93545
      2033.388        1584.462  
 114330639.594    89088821.1604   21756395.161 7  21756394.30945  21756399.67545
      1450.519        1130.277  
 08 11  5  4 23 30.0000000  0  8G19G25G 7G 3G27G 6G11G 8            
 110311178.838    85956769.4204   20991518.224 7  20991517.39745  20991520.15445
     -1644.297       -1281.267  
 115681602.190    90141508.8394   22013475.635 7  22013475.46344  22013480.24944
     -2477.233       -1930.306  
 110979349.574    86477415.4414   21118667.599 8  21118668.39545  21118671.46445
     -1500.268       -1169.036  
 118816294.731    92584124.8654   22609988.590 7  22609987.77844  22609992.97144
     -2769.992       -2158.429  
 113170706.808    88184965.3864   21535666.971 8  21535666.71645  21535671.51345
      -398.312        -310.364  
 125508315.370    97798682.5184   23883436.168 6  23883436.91243  23883441.33243
     -2702.215       -2105.617  
 108902375.228    84859001.8254   20723431.192 8  20723431.21045  20723434.20445
      2021.510        1575.198  
 114287368.431    89055103.3714   21748160.698 7  21748160.15445  21748165.47845
      1433.980        1117.385  
 08 11  5  4 24  0.0000000  0  8G19G25G 7G 3G27G 6G11G 8            
 110360585.186    85995267.8634   21000920.037 7  21000919.22945  21000921.99045
     -1649.230       -1285.118  
 115756081.452    90199544.6054   22027648.554 7  22027648.60844  22027653.26144
     -2487.806       -1938.555  
 111024614.621    86512686.8774   21127281.150 8  21127281.54945  21127285.61245
     -1517.186       -1182.219  
 118899412.867    92648892.2214   22625804.489 7  22625804.24744  22625809.57344
     -2770.989       -2159.207  
 113182905.313    88194470.6934   21537988.428 8  21537988.39345  21537993.20945
      -414.701        -323.144  
 125589370.428    97861842.2594   23898860.936 6  23898860.87043  23898866.18843
     -2701.213       -2104.856  
 108841937.566    84811907.5474   20711930.001 8  20711929.57145  20711933.54345
      2007.886        1564.579  
 114244626.468    89021797.9414   21740027.079 7  21740026.66445  21740031.87445
      1415.688        1103.127  
 08 11  5  4 24 30.0000000  0  8G19G25G 7G 3G27G 6G11G 8            
 110410119.843    86033866.2814   21010345.915 7  21010344.95945  21010348.11945
     -1653.440       -1288.394  
 115830857.795    90257811.8574   22041878.576 7  22041878.66445  22041882.97645
     -2497.619       -1946.188  
 111070367.396    86548338.3754   21135987.945 7  21135988.09345  21135992.11945
     -1533.357       -1194.822  
 118982541.009    92713667.3614   22641623.593 7  22641623.47244  22641628.10244
     -2771.238       -2159.405  
 113195576.214    88204344.1104   21540399.557 7  21540398.87345  21540404.28445
      -430.376        -335.354  
 125670373.320    97924961.3444   23914274.990 6  23914274.78043  23914280.95343
     -2699.297       -2103.345  
 108781890.047    84765117.2684   20700503.264 8  20700503.10345  20700507.09445
      1994.905        1554.474  
 114202414.931    88988905.8294   21731994.733 7  21731994.17445  21731999.25145
      1398.036        1089.386  
 08 11  5  4 25  0.0000000  0  8G19G25G 7G 3G27G 6G11G 8            
 110459777.406    86072560.4694   21019795.571 7  21019794.98245  21019797.86845
     -1657.635       -1291.658  
 115905925.033    90316305.7784   22056162.892 7  22056162.83845  22056167.79944
     -2507.396       -1953.810  
 111116602.355    86584365.5934   21144785.797 8  21144786.02845  21144790.44145
     -1549.517       -1207.409  
 119065674.589    92778446.7644   22657443.085 7  22657442.95044  22657448.32344
     -2771.557       -2159.644  
 113208715.448    88214582.4554   21542899.287 7  21542898.93945  21542904.91145
      -446.116        -347.617  
 125751319.894    97988036.5544   23929678.868 6  23929678.97543  23929684.22043
     -2697.627       -2102.050  
 108722230.608    84718629.4014   20689150.658 8  20689150.55445  20689153.90145
      1981.839        1544.292  
 114160732.201    88956425.7784   21724062.668 7  21724062.09345  21724066.88045
      1380.276        1075.538  
 08 11  5  4 25 30.0000000  0  8G19G25G 7G 3G27G 6G11G 8            
 110509559.877    86111351.9934   21029269.006 7  21029268.21145  21029270.52845
     -1661.836       -1294.934  
 115981283.133    90375026.3574   22070502.989 7  22070502.67644  22070507.86244
     -2517.098       -1961.378  
 111163320.263    86620769.1354   21153676.191 7  21153676.57045  21153680.51445
     -1565.645       -1219.982  
 119148815.963    92843232.2204   22673264.434 7  22673264.76944  22673270.02544
     -2771.842       -2159.866  
 113222325.082    88225187.3474   21545489.546 7  21545488.70545  21545494.56145
      -461.843        -359.881  
 125832212.447    98051069.6634   23945072.433 6  23945071.87643  23945077.72943
     -2695.866       -2100.677  
 108662962.525    84672446.4784   20677872.415 8  20677871.91245  20677875.68345
      1968.707        1534.057  
 114119582.526    88924361.0904   21716232.085 7  21716231.58545  21716236.57045
      1362.426        1061.631  
 08 11  5  4 26  0.0000000  0  8G19G25G 7G 3G27G 6G11G 8            
 110559472.422    86150244.8764   21038766.676 7  21038765.80845  21038768.49945
     -1665.344       -1297.673  
 116056936.229    90433976.7844   22084899.460 7  22084899.02044  22084904.22644
     -2526.084       -1968.378  
 111210526.004    86657552.8124   21162659.123 7  21162659.59245  21162663.86646
     -1581.073       -1232.008  
 119231970.848    92908028.2284   22689088.703 7  22689088.08444  22689094.01544
     -2771.477       -2159.599  
 113236411.341    88236163.6444   21548169.913 7  21548169.50345  21548174.66745
      -476.898        -371.610  
 125913057.131    98114065.4734   23960456.609 6  23960456.28743  23960462.89543
     -2693.451       -2098.792  
 108604094.054    84626574.9504   20666670.112 8  20666669.70945  20666673.62145
      1956.177        1524.286  
 114078973.843    88892717.9584   21708504.593 7  21708504.23645  21708508.75345
      1345.168        1048.179  
 08 11  5  4 26 30.0000000  0  8G19G25G 7G 3G27G 6G11G 8            
 110609506.566    86189232.5044   21048288.049 7  21048287.41745  21048290.45945
     -1669.736       -1301.089  
 116132874.304    90493149.2854   22099350.007 7  22099349.97644  22099354.99544
     -2535.903       -1976.020  
 111258210.309    86694709.3914   21171733.264 7  21171733.51345  21171737.52445
     -1597.352       -1244.683  
 119315130.819    92972828.1834   22704913.646 7  22704912.93744  22704918.41344
     -2771.994       -2159.982  
 113250966.276    88247505.1314   21550939.862 7  21550939.82645  21550944.67645
      -492.885        -384.061  
 125993846.044    98177017.8324   23975830.020 6  23975829.26143  23975837.05843
     -2691.943       -2097.613  
 108545619.156    84581010.0914   20655542.341 8  20655542.15145  20655546.00945
      1942.671        1513.784  
 114038900.701    88861492.1234   21700879.228 7  21700878.57845  21700883.42845
      1326.910        1033.963  
 08 11  5  4 27  0.0000000  0  8G19G25G 7G 3G27G 6G11G 8            
 110659667.314    86228318.7844   21057832.949 7  21057832.01445  21057835.30245
     -1674.010       -1304.425  
 116209101.413    90552546.9904   22113855.524 7  22113855.36144  22113860.86144
     -2545.568       -1983.554  
 111306378.027    86732242.6554   21180899.119 8  21180899.62045  21180903.65045
     -1613.512       -1257.282  
 119398301.522    93037636.5004   22720740.941 7  22720740.71844  22720745.94144
     -2772.415       -2160.315  
 113265995.727    88259216.3794   21553799.610 7  21553799.40445  21553804.89545
      -508.770        -396.438  
 126074585.459    98239931.6244   23991194.735 6  23991194.07043  23991200.58443
     -2690.399       -2096.400  
 108487545.435    84535757.8524   20644491.496 8  20644491.08645  20644494.92145
      1929.205        1503.276  
 113999370.801    88830689.6134   21693356.633 7  21693356.22445  21693361.85545
      1308.689        1019.760  
 08 11  5  4 27 30.0000000  0  9G19G25G 7G 3G27G 6G11G 8G28         
 110709957.826    86267506.1894   21067403.586 7  21067402.92545  21067405.46945
     -1678.724       -1308.096  
 116285619.193    90612171.2124   22128416.460 7  22128416.46244  22128421.26644
     -2555.607       -1991.374  
 111355031.417    86770154.3674   21190157.854 7  21190157.80345  21190162.29045
     -1630.075       -1270.186  
 119481486.581    93102456.0034   22736570.294 7  22736569.87144  22736575.34244
     -2773.285       -2160.998  
 113281503.812    88271300.5894   21556750.795 7  21556750.65245  21556756.27145
      -525.131        -409.189  
 126155279.277    98302809.8864   24006549.838 6  24006549.19143  24006555.66843
     -2689.242       -2095.525  
 108429878.351    84490822.4684   20633517.894 8  20633517.50145  20633521.11945
      1915.224        1492.385  
 113960390.638    88800315.4664   21685938.765 7  21685938.07045  21685943.43645
      1289.941        1005.147  
 129108578.949   100604087.2414   24568539.548 6  24568538.93742  24568544.18242
      2957.182        2304.280  
 08 11  5  4 28  0.0000000  0  9G19G25G 7G 3G27G 6G11G 8G28         
 110760366.285    86306785.5034   21076995.791 7  21076994.86145  21076997.83845
     -1682.053       -1310.689  
 116362414.279    90672011.5174   22143030.246 7  22143029.62044  22143034.46744
     -2564.253       -1998.112  
 111404157.766    86808434.6104   21199506.069 7  21199505.97245  21199510.59345
     -1645.228       -1281.991  
 119564675.035    93167278.1564   22752400.557 7  22752399.86944  22752405.41644
     -2772.780       -2160.601  
 113297478.989    88283748.7664   21559790.965 7  21559790.24845  21559795.81845
      -540.089        -420.848  
 126235916.158    98365643.7594   24021894.607 6  24021894.71543  24021900.47543
     -2686.742       -2093.552  
 108372608.314    84446196.4714   20622619.702 8  20622619.17945  20622623.06545
      1902.545        1482.502  
 113921950.983    88770362.4934   21678624.007 7  21678623.26645  21678628.61445
      1272.477         991.542  
 129019798.209   100534907.4864   24551645.113 6  24551645.26542  24551648.66342
      2961.291        2307.508  
 08 11  5  4 28 30.0000000  0  9G19G25G 7G 3G27G 6G11G 8G28         
 110810893.693    86346157.4934   21086610.891 8  21086610.11345  21086612.90145
     -1686.074       -1313.826  
 116439486.261    90732067.5864   22157695.432 7  22157694.30644  22157701.23444
     -2573.528       -2005.341  
 111453757.712    86847083.8974   21208944.743 8  21208944.84645  21208949.10045
     -1661.052       -1294.322  
 119647867.466    93232103.4134   22768232.130 7  22768231.45944  22768236.44844
     -2772.995       -2160.776  
 113313922.699    88296562.0294   21562919.870 8  21562919.51945  21562925.23645
      -555.785        -433.083  
 126316497.895    98428434.6944   24037229.371 6  24037228.00343  24037235.51643
     -2684.979       -2092.194  
 108315738.856    84401882.6124   20611797.839 8  20611797.44445  20611801.08845
      1889.103        1472.032  
 113884055.517    88740833.5634   21671412.843 7  21671412.28645  21671417.49745
      1254.239         977.331  
 128930914.563   100465647.5294   24534730.467 6  24534729.91642  24534734.87342
      2964.639        2310.123  
 08 11  5  4 29  0.0000000  0  9G19G25G 7G 3G27G 6G11G 8G28         
 110861551.236    86385630.8954   21096250.688 7  21096249.85145  21096252.47545
     -1691.530       -1318.077  
 116516844.982    90792347.0664   22172416.688 7  22172416.29444  22172421.95744
     -2584.142       -2013.613  
 111503841.416    86886110.1324   21218475.377 7  21218475.21145  21218479.68645
     -1678.272       -1307.743  
 119731075.937    93296941.1624   22784065.642 6  22784064.92844  22784070.42044
     -2774.631       -2162.054  
 113330846.739    88309749.5724   21566140.332 7  21566140.26645  21566146.05145
      -572.912        -446.420  
 126397036.595    98491192.0734   24052554.817 6  24052554.35743  24052560.90243
     -2684.693       -2091.954  
 108259283.313    84357891.2744   20601054.560 8  20601054.15145  20601058.19045
      1874.145        1460.376  
 113846718.550    88711739.8234   21664307.538 7  21664307.09445  21664311.86445
      1234.455         961.915  
 128841941.447   100396317.8734   24517798.566 6  24517798.88842  24517803.97142
      2966.457        2311.518  
 08 11  5  4 29 30.0000000  0  9G19G25G 7G 3G27G 6G11G 8G28         
 110912336.650    86425203.9344   21105915.102 7  21105914.12245  21105917.19345
     -1695.171       -1320.898  
 116594486.779    90852847.1314   22187192.068 7  22187191.51644  22187197.17044
     -2592.969       -2020.480  
 111554405.957    86925511.0464   21228097.709 7  21228098.01945  21228101.90745
     -1693.665       -1319.739  
 119814298.465    93361789.8444   22799902.284 7  22799902.39044  22799907.60544
     -2774.518       -2161.944  
 113348249.207    88323309.9264   21569452.170 7  21569451.84345  21569457.61045
      -588.243        -458.367  
 126477530.819    98553914.8084   24067872.161 6  24067872.02243  24067877.85843
     -2682.607       -2090.338  
 108203242.118    84314222.8134   20590390.409 8  20590389.88345  20590393.77445
      1860.931        1450.087  
 113809940.116    88683081.2954   21657309.274 7  21657308.60545  21657313.28045
      1216.427         947.861  
 128752878.928   100326918.5504   24500851.527 6  24500851.11142  24500855.57642
      2970.025        2314.311  
 08 11  5  4 30  0.0000000  0  9G19G25G 7G 3G27G 6G11G 8G28         
 110963258.547    86464883.3224   21115604.744 7  21115603.90345  21115607.17045
     -1699.636       -1324.392  
 116672418.674    90913573.2594   22202022.011 7  22202021.86044  22202026.62044
     -2602.507       -2027.926  
 111605459.044    86965292.6464   21237812.625 7  21237812.76145  21237817.04245
     -1709.863       -1332.361  
 119897544.229    93426656.6344   22815743.344 6  22815743.21144  22815748.02244
     -2775.222       -2162.504  
 113366139.189    88337250.1594   21572856.207 7  21572855.75345  21572861.58345
      -604.430        -470.986  
 126557989.957    98616610.2004   24083183.331 6  24083182.45942  24083188.83542
     -2681.350       -2089.362  
 108147625.505    84270885.1964   20579806.573 8  20579805.98445  20579810.25245
      1846.810        1439.073  
 113773731.697    88654866.9414   21650419.143 7  21650418.62745  21650423.29145
      1197.458         933.085  
 128663737.790   100257457.9584   24483888.729 6  24483888.76342  24483891.85942
      2972.698        2316.394  
 08 11  5  4 30 30.0000000  0  9G19G25G 7G 3G27G 6G11G 8G28         
 111014305.419    86504660.1004   21125318.960 8  21125318.44145  21125320.76945
     -1703.572       -1327.458  
 116750627.560    90974515.2234   22216904.927 7  22216904.88444  22216909.73244
     -2611.507       -2034.936  
 111656988.178    87005445.1834   21247618.160 8  21247618.57945  21247622.71245
     -1725.504       -1344.545  
 119980802.167    93491532.9344   22831586.622 7  22831586.73943  22831590.95043
     -2775.384       -2162.643  
 113384505.646    88351561.6644   21576351.466 7  21576350.98645  21576357.05345
      -620.091        -483.184  
 126638403.107    98679269.7484   24098485.274 6  24098485.67743  24098491.20443
     -2679.612       -2088.008  
 108092424.386    84227871.3364   20569302.129 8  20569301.38845  20569305.65145
      1833.150        1428.430  
 113738084.333    88627089.7784   21643635.657 7  21643635.26845  21643640.00345
      1178.913         918.635  
 128574508.557   100187928.7334   24466908.704 6  24466908.58642  24466914.03442
      2975.816        2318.823  
 08 11  5  4 31  0.0000000  0  9G19G25G 7G 3G27G 6G11G 8G28         
 111065482.977    86544538.7094   21135057.905 7  21135057.16645  21135060.04945
     -1708.495       -1331.291  
 116829117.929    91035676.5164   22231841.355 7  22231841.27144  22231845.77444
     -2621.418       -2042.660  
 111708998.628    87045972.7884   21257515.269 8  21257515.85645  21257519.62345
     -1742.083       -1357.465  
 120064078.491    93556423.5524   22847434.013 7  22847433.18744  22847438.79344
     -2776.568       -2163.567  
 113403355.055    88366249.4984   21579938.864 7  21579938.48845  21579943.58345
      -636.758        -496.172  
 126718777.005    98741898.7164   24113780.193 6  24113780.03743  24113785.82343
     -2678.881       -2087.447  
 108037647.188    84185187.8064   20558878.793 8  20558878.21545  20558881.94945
      1818.424        1416.953  
 113703006.801    88599756.6284   21636960.451 7  21636959.91745  21636964.75245
      1159.342         903.378  
 128485199.920   100118337.6374   24449914.145 6  24449912.32742  24449918.97442
      2977.858        2320.414  
 08 11  5  4 31 30.0000000  0  9G19G25G 7G 3G27G 6G11G 8G28         
 111116782.905    86584512.6644   21144819.618 7  21144818.82745  21144822.04746
     -1712.233       -1334.201  
 116907879.797    91097049.3684   22246828.512 7  22246828.46344  22246833.46744
     -2630.105       -2049.427  
 111761481.020    87086868.1364   21267502.915 7  21267502.79745  21267506.93545
     -1757.465       -1369.449  
 120147365.006    93621322.1054   22863282.731 7  22863282.07244  22863288.26544
     -2776.584       -2163.570  
 113422678.963    88381307.0714   21583615.729 7  21583615.16245  21583620.60345
      -652.227        -508.218  
 126799103.921    98804491.0844   24129067.275 6  24129066.74243  24129071.79143
     -2676.996       -2085.959  
 107983287.605    84142829.6834   20548534.386 8  20548534.15845  20548537.79745
      1804.807        1406.352  
 113668492.960    88572862.7234   21630392.768 7  21630392.47245  21630396.83045
      1140.828         888.963  
 128395805.447   100048679.6274   24432902.593 6  24432900.97942  24432907.55542
      2981.014        2322.882  
 08 11  5  4 32  0.0000000  0  9G19G25G 7G 3G27G 6G11G 8G28         
 111168210.689    86624586.2544   21154606.401 8  21154605.55545  21154608.17145
     -1716.996       -1337.915  
 116986917.314    91158637.0164   22261869.916 7  22261869.65044  22261874.04945
     -2639.760       -2056.941  
 111814439.986    87128134.8374   21277580.419 7  21277580.33745  21277584.46745
     -1773.828       -1382.200  
 120230668.129    93686233.5954   22879135.161 7  22879134.98944  22879139.98344
     -2777.619       -2164.383  
 113442483.591    88396739.2354   21587384.663 7  21587384.23145  21587389.32345
      -668.767        -521.111  
 126879390.232    98867051.8234   24144344.730 6  24144344.23543  24144350.30743
     -2676.160       -2085.318  
 107929353.386    84100803.0184   20538271.130 8  20538270.87745  20538274.39545
      1790.089        1394.878  
 113634551.007    88546414.4384   21623933.250 7  21623932.50045  21623938.37745
      1121.246         873.703  
 128306333.244    99978961.0734   24415876.440 6  24415875.90542  24415881.22142
      2983.094        2324.474  
 08 11  5  4 32 30.0000000  0  9G19G25G 7G 3G27G 6G11G 8G28         
 111219774.749    86664766.0404   21164418.500 7  21164417.39045  21164420.51745
     -1720.306       -1340.503  
 117066237.164    91220444.6574   22276963.687 7  22276963.54644  22276968.07544
     -2647.929       -2063.325  
 111867882.899    87169778.6434   21287750.068 7  21287750.06445  21287754.26745
     -1788.727       -1393.816  
 120313996.301    93751164.6034   22894991.725 7  22894991.82044  22894996.62344
     -2777.248       -2164.086  
 113462777.443    88412552.6074   21591246.422 7  21591245.91745  21591251.36645
      -683.844        -532.862  
 126959645.174    98929588.1134   24159616.308 6  24159616.29243  24159621.79443
     -2673.892       -2083.552  
 107875854.829    84059115.8344   20528090.646 8  20528090.29045  20528093.92645
      1776.762        1384.488  
 113601191.428    88520419.9664   21617585.365 7  21617584.95045  21617590.14245
      1103.006         859.480  
 128216793.711    99909190.0374   24398837.911 6  24398837.32243  24398842.40443
      2986.489        2327.138  
 08 11  5  4 33  0.0000000  0  9G19G25G 7G 3G27G 6G11G 8G28         
 111271463.045    86705042.6104   21174254.526 7  21174253.51546  21174256.54445
     -1725.645       -1344.654  
 117145825.988    91282461.8914   22292108.806 7  22292108.74244  22292113.25144
     -2658.060       -2071.212  
 111921797.108    87211789.6884   21298009.293 7  21298009.76745  21298013.74245
     -1805.595       -1406.956  
 120397337.974    93816106.1314   22910851.238 7  22910851.46244  22910856.69744
     -2778.928       -2165.388  
 113483549.018    88428738.2344   21595199.316 7  21595199.02645  21595203.78945
      -700.969        -546.207  
 127039857.756    98992091.3684   24174880.438 6  24174880.70643  24174885.37143
     -2673.669       -2083.380  
 107822782.592    84017760.8444   20517991.576 8  20517991.09046  20517994.66145
      1761.321        1372.464  
 113568405.280    88494872.3144   21611346.485 7  21611345.76845  21611351.07545
      1082.671         843.641  
 128127177.772    99839359.4554   24381784.309 6  24381783.60543  24381788.55443
      2987.816        2328.159  
 08 11  5  4 33 30.0000000  0  9G19G25G 7G 3G27G 6G11G 8G28         
 111323291.653    86745428.5394   21184117.014 7  21184116.18145  21184118.59845
     -1730.258       -1348.253  
 117225698.111    91344699.8794   22307307.126 7  22307307.16144  22307312.41844
     -2667.391       -2078.494  
 111976197.172    87254179.3264   21308361.728 7  21308362.21345  21308365.87045
     -1821.714       -1419.516  
 120480709.896    93881071.2354   22926716.105 7  22926715.62944  22926721.83244
     -2779.868       -2166.132  
 113504814.626    88445308.8264   21599245.930 7  21599245.71845  21599250.75645
      -717.386        -559.002  
 127120044.344    99054574.3684   24190139.426 6  24190139.31443  24190144.91543
     -2672.744       -2082.646  
 107770154.456    83976751.9094   20507976.792 8  20507976.52446  20507979.74846
      1746.546        1360.946  
 113536210.661    88469785.6004   21605220.291 7  21605219.70345  21605224.89145
      1062.966         828.290  
 128037503.371    99769483.3454   24364720.218 6  24364719.54743  24364724.40343
      2989.806        2329.696  
 08 11  5  4 34  0.0000000  0  9G19G25G 7G 3G27G 6G11G 8G28         
 111375252.848    86785917.7704   21194004.879 7  21194003.87145  21194007.22145
     -1734.224       -1351.334  
 117305844.087    91407151.2474   22322559.081 7  22322559.17744  22322564.62044
     -2676.033       -2085.220  
 112031074.262    87296940.6634   21318804.486 7  21318804.64045  21318808.84945
     -1837.157       -1431.543  
 120564104.331    93946053.8864   22942586.021 7  22942585.75444  22942590.76044
     -2780.169       -2166.364  
 113526566.514    88462258.3254   21603385.091 7  21603384.79845  21603389.92645
      -733.133        -571.265  
 127200198.016    99117031.7414   24205391.804 6  24205391.87743  24205397.25243
     -2671.219       -2081.457  
 107717964.703    83936084.5724   20498045.384 8  20498045.30146  20498048.12246
      1732.367        1349.899  
 113504602.348    88445155.7474   21599205.325 7  21599204.94045  21599209.98045
      1043.834         813.378  
 127947765.109    99699557.4654   24347643.744 6  24347642.99943  24347648.00743
      2992.338        2331.697  
 08 11  5  4 34 30.0000000  0  9G19G25G 7G 3G27G 6G11G 8G28         
 111427340.782    86826505.7644   21203917.213 7  21203916.27645  21203919.10245
     -1738.169       -1354.415  
 117386256.879    91469810.5414   22337861.347 7  22337860.92044  22337866.39544
     -2684.655       -2091.936  
 112086422.154    87340068.8724   21329336.645 7  21329337.17245  21329341.25145
     -1852.547       -1443.542  
 120647516.254    94011050.1684   22958458.702 7  22958458.21944  22958463.53244
     -2780.477       -2166.615  
 113548799.395    88479582.6424   21607615.898 7  21607615.43445  21607620.70045
      -748.908        -583.570  
 127280314.082    99179459.8004   24220637.866 6  24220638.03743  24220643.39443
     -2669.751       -2080.320  
 107666210.029    83895756.2554   20488196.895 8  20488196.64746  20488199.54846
      1718.081        1338.763  
 113473577.512    88420980.5514   21593301.121 7  21593300.51445  21593306.28545
      1024.612         798.401  
 127857959.920    99629579.4334   24330553.978 6  24330553.08043  24330558.80143
      2994.802        2333.606  
 08 11  5  4 35  0.0000000  0  9G19G25G 7G 3G27G 6G11G 8G28         
 111479553.029    86867190.6164   21213852.566 7  21213851.46945  21213854.69245
     -1742.638       -1357.893  
 117466932.030    91532674.2564   22353213.483 7  22353213.64844  22353218.49444
     -2693.672       -2098.960  
 112142236.836    87383560.8084   21339957.932 7  21339958.57945  21339962.85445
     -1868.428       -1455.912  
 120730943.534    94076058.3974   22974334.264 6  22974333.94944  22974339.49444
     -2781.310       -2167.248  
 113571510.668    88497279.7124   21611937.498 7  21611936.72745  21611942.66245
      -765.164        -596.231  
 127360390.761    99241857.1674   24235876.046 6  24235875.28743  24235880.85343
     -2668.710       -2079.503  
 107614889.782    83855766.4564   20478430.731 8  20478430.74146  20478433.96445
      1703.263        1327.221  
 113443135.573    88397259.5514   21587507.974 7  21587507.86445  21587513.01945
      1004.842         783.000  
 127768087.302    99559548.8714   24313451.591 6  24313451.15643  24313456.23143
      2996.686        2335.080  
 08 11  5  4 35 30.0000000  0  8G19G25G 7G 3G27G11G 8G28            
 111531889.418    86907972.2154   21223811.827 7  21223810.98245  21223813.89345
     -1746.507       -1360.912  
 117547868.054    91595741.2584   22368614.979 7  22368614.67244  22368620.64744
     -2702.108       -2105.539  
 112198517.685    87427415.9974   21350667.843 7  21350668.08645  21350672.27845
     -1883.656       -1467.783  
 120814386.755    94141079.0534   22990212.431 6  22990212.40644  22990218.37644
     -2781.596       -2167.474  
 113594700.511    88515349.7104   21616350.738 8  21616350.33145  21616355.58645
      -780.864        -608.468  
 107564005.790    83816116.6004   20468747.949 8  20468747.41946  20468750.53245
      1688.949        1316.070  
 113413279.016    88373994.7014   21581827.076 7  21581826.33445  21581831.32445
       985.569         767.978  
 127678149.526    99489467.5514   24296336.579 6  24296335.88343  24296341.47343
      2999.095        2336.959  
 08 11  5  4 36  0.0000000  0  8G19G25G 7G 3G27G11G 8G28            
 111584374.117    86948869.3764   21233799.779 7  21233798.89645  21233801.46645
     -1752.082       -1365.252  
 117629087.466    91659029.0674   22384070.245 7  22384069.78544  22384075.97744
     -2712.123       -2113.335  
 112255287.224    87471651.9714   21361470.875 7  21361471.09745  21361475.10045
     -1900.572       -1480.965  
 120897870.101    94206130.9714   23006099.138 6  23006099.02743  23006104.75243
     -2783.583       -2169.025  
 113618393.227    88533811.5444   21620859.114 7  21620858.82445  21620864.27445
      -798.251        -622.013  
 107513584.316    83776827.1474   20459152.853 8  20459152.33445  20459155.95845
      1672.864        1303.534  
 113384033.871    88351206.2814   21576262.145 7  21576261.66945  21576266.46045
       964.489         751.549  
 127588173.344    99419356.2614   24279215.703 6  24279214.56643  24279219.31543
      2999.710        2337.431  
 08 11  5  4 36 30.0000000  0  8G19G25G 7G 3G27G11G 8G28            
 111636985.580    86989865.3204   21243811.152 7  21243809.99945  21243813.09545
     -1755.583       -1367.993  
 117710567.060    91722519.6314   22399575.728 7  22399575.61344  22399580.74744
     -2720.073       -2119.541  
 112312523.139    87516251.3684   21372362.554 7  21372362.37345  21372366.42245
     -1915.380       -1492.506  
 120981372.971    94271198.0944   23021989.362 6  23021988.81043  23021995.01644
     -2783.514       -2168.972  
 113642567.586    88552648.6904   21625459.505 7  21625458.95045  21625463.96045
      -813.607        -633.982  
 107463606.030    83737883.0394   20449642.323 8  20449641.81845  20449645.51045
      1658.768        1292.542  
 113355381.407    88328879.6824   21570810.033 7  21570809.14445  21570813.99945
       945.427         736.695  
 127498139.504    99349200.0744   24262082.335 6  24262082.36243  24262087.80743
      3002.295        2339.433  
 08 11  5  4 37  0.0000000  0  8G19G25G 7G 3G27G11G 8G28            
 111689711.297    87030950.2864   21253844.476 7  21253843.53845  21253846.63245
     -1759.491       -1371.030  
 117792292.819    91786202.0074   22415127.589 7  22415127.17044  22415132.92544
     -2728.312       -2125.941  
 112370211.422    87561203.2534   21383340.004 7  21383339.88745  21383344.29245
     -1930.523       -1504.306  
 121064883.067    94336270.8524   23037881.539 7  23037881.38044  23037886.41444
     -2783.804       -2169.198  
 113667210.984    88571851.3144   21630148.831 7  21630148.31545  21630153.37345
      -829.313        -646.209  
 107414060.252    83699275.9484   20440214.015 8  20440213.67546  20440217.42045
      1644.235        1281.224  
 113327310.641    88307006.3534   21565467.612 7  21565466.94545  21565472.75145
       925.914         721.491  
 127408037.899    99278991.0674   24244937.075 6  24244936.31543  24244941.67443
      3004.423        2341.125  
 08 11  5  4 37 30.0000000  0  8G19G25G 7G 3G27G11G 8G28            
 111742549.806    87072123.1524   21263899.361 7  21263898.49645  21263901.27345
     -1763.017       -1373.772  
 117874261.269    91850073.4894   22430725.926 7  22430726.02144  22430730.65544
     -2736.173       -2132.074  
 112428349.205    87606505.4044   21394403.340 7  21394402.97945  21394407.44845
     -1945.247       -1515.776  
 121148398.508    94401347.8024   23053774.082 7  23053772.87143  23053778.26343
     -2783.819       -2169.208  
 113692321.834    88591418.1914   21634927.224 7  21634926.99945  21634932.21745
      -844.675        -658.184  
 107364947.167    83661006.0274   20430868.217 8  20430867.89646  20430871.37745
      1630.031        1270.157  
 113299822.605    88285587.0944   21560237.081 7  21560236.46045  21560241.51745
       906.693         706.518  
 127317869.151    99208729.7444   24227777.376 6  24227777.23843  24227782.68143
      3006.883        2343.015  
 08 11  5  4 38  0.0000000  0  8G19G25G 7G 3G27G11G 8G28            
 111795515.202    87113394.8824   21273978.259 7  21273977.44445  21273980.40945
     -1767.657       -1377.391  
 117956484.747    91914143.6864   22446372.923 7  22446372.99844  22446377.05644
     -2745.044       -2138.979  
 112486949.641    87652168.0614   21405555.024 7  21405555.12445  21405559.26145
     -1961.068       -1528.108  
 121231934.646    94466440.8604   23069669.751 6  23069669.17543  23069675.67043
     -2784.932       -2170.069  
 113717914.177    88611360.2554   21639797.400 7  21639796.92445  21639802.41545
      -861.136        -671.011  
 107316283.189    83623086.0604   20421607.711 8  20421607.80246  20421610.80846
      1614.599        1258.133  
 113272933.506    88264634.5474   21555120.746 7  21555119.90845  21555124.53145
       886.257         690.588  
 127227649.656    99138428.8684   24210609.699 6  24210608.99543  24210614.67943
      3008.104        2343.987  
 08 11  5  4 38 30.0000000  0  8G19G25G 7G 3G27G11G 8G28            
 111848607.069    87154765.1614   21284081.127 7  21284080.18145  21284083.18845
     -1771.145       -1380.105  
 118038961.444    91978411.2074   22462067.054 7  22462066.73544  22462072.09244
     -2752.713       -2144.966  
 112546011.094    87698189.9524   21416793.963 7  21416793.86045  21416797.88045
     -1975.695       -1539.492  
 121315491.509    94531550.0624   23085569.876 6  23085569.78243  23085575.81643
     -2784.894       -2170.038  
 113743987.813    88631677.3584   21644759.246 8  21644758.95945  21644763.91945
      -876.434        -682.935  
 107268069.503    83585516.9634   20412433.092 8  20412433.02745  20412435.86745
      1600.283        1246.982  
 113246645.416    88244150.3194   21550118.087 7  21550117.67845  21550122.20445
       866.943         675.536  
 127137381.529    99068090.1054   24193431.760 6  24193431.53643  24193436.20143
      3010.428        2345.781  
 08 11  5  4 39  0.0000000  0  8G19G25G 7G 3G27G11G 8G28            
 111901824.769    87196233.4894   21294208.607 7  21294207.90345  21294210.39045
     -1775.973       -1383.868  
 118121688.875    92042874.1044   22477810.097 7  22477809.80644  22477815.12744
     -2761.710       -2151.975  
 112605531.745    87744569.6624   21428120.544 7  21428120.90945  21428124.48945
     -1991.606       -1551.897  
 121399068.828    94596675.2244   23101474.288 6  23101473.85643  23101480.08243
     -2786.199       -2171.048  
 113770541.831    88652368.7834   21649812.093 7  21649811.86745  21649817.05645
      -893.081        -695.908  
 107220307.421    83548299.7724   20403343.988 8  20403343.83346  20403347.32646
      1584.576        1234.739  
 113220959.578    88224135.3774   21545230.325 8  21545229.44045  21545234.56945
       846.188         659.371  
 127047066.832    98997715.0364   24176246.587 6  24176245.59243  24176249.29643
      3011.309        2346.489  
 08 11  5  4 39 30.0000000  0  8G19G25G 7G 3G27G11G 8G28            
 111955162.202    87237795.1224   21304358.208 7  21304357.00245  21304359.99645
     -1780.387       -1387.304  
 118204659.166    92107526.2354   22493599.182 7  22493598.83744  22493603.43844
     -2770.189       -2158.589  
 112665504.010    87791301.2694   21439532.818 7  21439533.21945  21439537.18445
     -2007.067       -1563.944  
 121482660.815    94661811.8054   23117381.438 6  23117380.55843  23117386.82243
     -2787.151       -2171.801  
 113797570.018    88673429.6984   21654955.962 8  21654955.44945  21654960.46245
      -909.313        -708.554  
 107172992.700    83511431.1704   20394340.266 8  20394339.98346  20394343.48946
      1569.197        1222.754  
 113195871.832    88204586.4824   21540456.122 8  21540455.65345  21540460.29145
       825.777         643.469  
 126956701.609    98927300.6114   24159050.207 6  24159050.06443  24159054.04043
      3012.518        2347.411  
 08 11  5  4 40  0.0000000  0  8G19G25G 7G 3G27G11G 8G28            
 112008634.136    87279461.5554   21314533.587 7  21314532.63445  21314535.43845
     -1784.183       -1390.268  
 118287885.555    92172377.9264   22509435.600 7  22509435.61244  22509441.08444
     -2777.987       -2164.663  
 112725941.451    87838395.3604   21451033.690 7  21451033.45745  21451037.73745
     -2021.866       -1575.468  
 121566283.034    94726971.9364   23133294.543 6  23133293.88343  23133298.67843
     -2787.429       -2172.026  
 113825087.140    88694871.5974   21660191.555 7  21660191.22745  21660197.15445
      -924.933        -720.719  
 107126142.043    83474924.1754   20385425.053 8  20385425.10446  20385428.50046
      1554.412        1211.231  
 113171399.113    88185516.8244   21535799.166 7  21535798.62945  21535803.91245
       805.948         628.011  
 126866303.148    98856860.2794   24141848.414 6  24141847.70443  24141853.31043
      3014.293        2348.799  
 08 11  5  4 40 30.0000000  0  8G19G25G 7G 3G27G11G 8G28            
 112062215.571    87321213.3144   21324729.661 8  21324728.66145  21324731.83045
     -1788.776       -1393.852  
 118371341.321    92237408.3574   22525317.275 7  22525317.03744  22525322.01944
     -2786.574       -2171.353  
 112786818.002    87885831.6054   21462617.514 7  21462617.97245  21462622.17545
     -2037.422       -1587.597  
 121649910.352    94792136.0414   23149207.942 6  23149207.34343  23149212.51343
     -2788.601       -2172.930  
 113853068.409    88716675.1644   21665516.189 7  21665516.11145  21665521.61545
      -941.352        -733.526  
 107079732.441    83438760.8634   20376593.389 8  20376593.16546  20376596.67446
      1538.717        1199.001  
 113147518.853    88166908.8244   21531255.185 8  21531254.87745  21531259.30545
       785.232         611.866  
 126775848.879    98786376.4634   24124635.146 6  24124635.55143  24124640.04043
      3015.130        2349.451  
 08 11  5  4 41  0.0000000  0  8G19G25G 7G 3G27G11G 8G28            
 112115928.622    87363067.6334   21334951.068 7  21334950.14245  21334953.03645
     -1792.185       -1396.507  
 118455046.438    92302633.0724   22541245.587 6  22541244.81744  22541250.69444
     -2793.860       -2177.033  
 112848153.790    87933625.7114   21474290.124 7  21474290.62845  21474293.95545
     -2051.735       -1598.753  
 121733565.419    94857321.7714   23165127.347 6  23165127.16743  23165132.26143
     -2788.535       -2172.877  
 113881535.243    88738857.0974   21670933.556 7  21670933.08545  21670938.43245
      -956.549        -745.358  
 107033787.295    83402959.4574   20367850.515 8  20367850.48846  20367853.79846
      1524.184        1187.679  
 113124254.316    88148780.6044   21526827.527 7  21526826.96045  21526832.19145
       765.634         596.603  
 126685362.891    98715867.9284   24107416.066 6  24107415.91143  24107419.53743
      3017.139        2351.025  
 08 11  5  4 41 30.0000000  0  8G19G25G 7G 3G27G11G 8G28            
 112169765.379    87405018.3414   21345195.704 7  21345194.91545  21345197.99545
     -1796.525       -1399.891  
 118538991.359    92368044.6624   22557219.884 7  22557219.56844  22557225.34544
     -2802.039       -2183.405  
 112909939.968    87981770.7644   21486046.878 7  21486047.34545  21486051.77145
     -2066.926       -1610.599  
 121817240.901    94922523.4134   23181050.555 6  23181050.18543  23181055.54943
     -2789.426       -2173.579  
 113910479.786    88761411.2764   21676441.246 7  21676441.20545  21676446.67745
      -972.682        -757.937  
 106988300.358    83367515.0954   20359194.707 8  20359194.66746  20359197.64746
      1508.675        1175.589  
 113101599.710    88131127.6564   21522516.773 7  21522515.95245  21522521.33145
       745.048         580.562  
 126594839.990    98645330.6384   24090189.894 6  24090189.54343  24090193.31043
      3018.126        2351.771  
 08 11  5  4 42  0.0000000  0  8G19G25G 7G 3G27G11G 8G28            
 112223714.943    87447056.9484   21355462.039 7  21355460.87545  21355464.36945
     -1800.966       -1403.358  
 118623163.631    92433633.4104   22573237.616 7  22573237.27944  22573242.55444
     -2810.274       -2189.827  
 112972164.102    88030257.0784   21497888.199 7  21497888.35945  21497892.32045
     -2082.190       -1622.489  
 121900926.552    94987732.9634   23196975.047 6  23196974.51543  23196980.95243
     -2790.469       -2174.394  
 113939891.225    88784329.2564   21682038.353 7  21682037.95245  21682043.67845
      -988.923        -770.592  
 106943262.976    83332421.0394   20350624.356 8  20350624.01546  20350627.53346
      1492.968        1163.346  
 113079546.432    88113943.2764   21518320.088 7  21518319.58145  21518324.68045
       724.296         564.375  
 126504271.560    98574757.8654   24072955.789 6  24072955.47043  24072958.68243
      3018.915        2352.397  
 08 11  5  4 42 30.0000000  0  8G19G25G 7G 3G27G11G 8G28            
 112277785.854    87489190.1144   21365751.283 7  21365750.44345  21365753.23845
     -1804.047       -1405.747  
 118707569.783    92499404.3944   22589299.470 7  22589299.38144  22589304.66844
     -2817.062       -2195.115  
 113034833.404    88079090.2764   21509813.413 7  21509814.04945  21509818.16545
     -2096.038       -1633.274  
 121984630.768    95052957.0014   23212903.372 6  23212903.49343  23212909.23543
     -2790.113       -2174.114  
 113969777.355    88807617.1314   21687725.675 7  21687725.52245  21687730.35945
     -1003.774        -782.153  
 106898685.485    83297685.3354   20342141.558 8  20342141.13446  20342144.73045
      1478.582        1152.144  
 113058104.556    88097235.3154   21514239.924 7  21514239.08545  21514243.99745
       704.858         549.241  
 126413668.733    98504158.2874   24055714.351 6  24055714.34243  24055717.73843
      3020.978        2354.016  
 08 11  5  4 43  0.0000000  0  8G19G25G 7G 3G27G11G 8G28            
 112331970.470    87531411.8864   21376062.779 7  21376061.73245  21376064.62145
     -1808.076       -1408.889  
 118792200.495    92565350.3574   22605404.162 7  22605404.40744  22605409.13144
     -2824.757       -2201.105  
 113097938.585    88128263.1184   21521822.159 7  21521822.42245  21521826.38145
     -2110.775       -1644.757  
 122068346.612    95118190.1004   23228834.144 6  23228833.86643  23228839.62843
     -2790.742       -2174.613  
 114000130.409    88831268.8394   21693501.458 7  21693501.00445  21693506.49145
     -1019.578        -794.471  
 106854561.504    83263303.0144   20333744.882 8  20333744.60446  20333748.18046
      1463.193        1140.152  
 113037268.261    88080999.2344   21510274.634 7  21510274.17045  21510279.58645
       684.425         533.321  
 126323026.460    98433527.9984   24038465.527 6  24038464.95643  24038469.59543
      3022.029        2354.819  
 08 11  5  4 43 30.0000000  0  8G19G25G 7G 3G27G11G 8G28            
 112386278.647    87573729.9354   21386396.533 7  21386395.71545  21386398.87345
     -1811.922       -1411.885  
 118877063.885    92631477.6354   22621553.638 7  22621553.42844  22621558.59444
     -2832.221       -2206.932  
 113161488.291    88177782.3414   21533915.243 7  21533915.74745  21533919.68145
     -2125.304       -1656.082  
 122152084.483    95183440.3464   23244768.762 7  23244768.04543  23244773.98343
     -2791.214       -2174.966  
 114030960.256    88855292.0794   21699368.258 7  21699368.28845  21699373.34245
     -1035.177        -806.627  
 106810902.744    83229283.2034   20325436.886 8  20325436.65546  20325440.13746
      1447.934        1128.258  
 113017049.176    88065244.1024   21506427.092 7  21506426.52145  21506431.52745
       664.068         517.455  
 126232356.750    98362876.3084   24021211.803 6  24021211.50343  24021214.91343
      3023.165        2355.722  
 08 11  5  4 44  0.0000000  0  8G19G25G 7G 3G27G11G 8G28            
 112440702.786    87616138.3434   21396753.182 7  21396752.13845  21396755.53145
     -1816.754       -1415.644  
 118962150.338    92697778.7194   22637744.787 7  22637744.60344  22637750.02744
     -2840.618       -2213.456  
 113225473.196    88227640.6864   21546091.228 7  21546091.40845  21546095.43045
     -2140.740       -1668.106  
 122235836.948    95248701.9804   23260707.165 7  23260706.42443  23260710.65843
     -2792.690       -2176.120  
 114062258.439    88879680.2534   21705323.817 7  21705323.18445  21705329.10945
     -1051.767        -819.549  
 106767703.146    83195621.1874   20317216.342 8  20317216.00745  20317219.82346
      1431.627        1115.559  
 112997441.361    88049965.2784   21502695.895 7  21502695.46345  21502700.30045
       642.704         500.806  
 126141654.063    98292198.9144   24003952.271 7  24003952.25443  24003955.19143
      3023.261        2355.780  
 08 11  5  4 44 30.0000000  0  8G19G25G 7G 3G27G11G 8G28            
 112495252.774    87658644.8124   21407133.893 7  21407132.82845  21407135.99045
     -1819.532       -1417.813  
 119047467.880    92764259.8794   22653980.446 7  22653980.55444  22653985.24244
     -2846.850       -2218.320  
 113289901.633    88277844.6384   21558351.839 7  21558351.99545  21558355.99945
     -2154.092       -1678.514  
 122319614.738    95313983.3414   23276649.434 7  23276649.52243  23276653.62243
     -2792.100       -2175.659  
 114094034.811    88904441.0454   21711370.898 7  21711370.14745  21711375.64745
     -1066.275        -830.865  
 106724974.235    83162325.9434   20309085.394 8  20309085.02646  20309088.77146
      1417.329        1104.412  
 112978456.831    88035172.1374   21499083.984 8  21499083.50945  21499087.65545
       623.314         485.703  
 126050931.042    98221505.6924   23986687.709 6  23986687.01643  23986691.49343
      3025.307        2357.376  
 08 11  5  4 45  0.0000000  0  8G19G25G 7G 3G27G11G 8G28            
 112549913.190    87701237.3344   21417535.379 7  21417534.85045  21417537.30445
     -1823.603       -1420.990  
 119132999.108    92830907.5554   22670256.460 7  22670256.46744  22670261.44244
     -2854.336       -2224.151  
 113354756.996    88328381.2564   21570693.238 7  21570693.71245  21570697.75745
     -2168.685       -1689.882  
 122403402.277    95379272.2984   23292593.791 6  23292593.42943  23292598.61743
     -2792.854       -2176.257  
 114126273.370    88929561.9794   21717505.933 7  21717505.45345  21717510.71745
     -1082.072        -843.167  
 106682702.119    83129386.6404   20301041.300 7  20301041.04646  20301044.74646
      1401.668        1092.214  
 112960081.526    88020853.7134   21495587.018 7  21495586.47845  21495590.98145
       602.579         469.543  
 125960174.685    98150786.4914   23969417.345 6  23969416.79643  23969421.29643
      3025.977        2357.908  
 08 11  5  4 45 30.0000000  0  8G19G25G 7G 3G27G11G 8G28            
 112604682.110    87743914.4074   21427957.645 7  21427956.69845  21427959.80345
     -1827.555       -1424.069  
 119218740.514    92897718.9964   22686571.621 7  22686571.86244  22686576.95544
     -2861.626       -2229.841  
 113420035.418    88379247.5374   21583115.441 7  21583115.44845  21583119.98445
     -2183.083       -1701.103  
 122487198.859    95444568.2984   23308539.377 6  23308538.98043  23308544.14443
     -2793.458       -2176.726  
 114158971.846    88955041.2944   21723728.003 7  21723727.37145  21723733.48845
     -1097.709        -855.363  
 106640886.537    83096803.0864   20293083.639 8  20293083.40046  20293087.32346
      1386.119        1080.093  
 112942315.035    88007009.6944   21492205.642 7  21492205.13045  21492210.13945
       581.940         453.461  
 125869385.479    98080041.6924   23952140.465 6  23952140.02243  23952145.36743
      3026.721        2358.483  
 08 11  5  4 46  0.0000000  0  8G19G25G 7G 3G27G11G 8G28            
 112659562.092    87786678.0204   21438401.046 8  21438400.08845  21438402.79745
     -1830.525       -1426.384  
 119304692.753    92964694.7264   22702928.672 7  22702928.21044  22702933.43544
     -2867.895       -2234.726  
 113485738.073    88430444.3804   21595617.992 7  21595618.15145  21595623.00445
     -2196.498       -1711.550  
 122571006.799    95509873.1414   23324487.113 6  23324486.72243  23324492.57843
     -2793.130       -2176.465  
 114192132.435    88980880.6954   21730038.050 7  21730037.52345  21730043.56245
     -1112.386        -866.792  
 106599531.523    83064578.4124   20285214.418 8  20285214.20046  20285217.56646
      1371.467        1068.675  
 112925161.800    87993643.5334   21488941.463 7  21488940.68445  21488946.04645
       562.195         438.076  
 125778568.597    98009275.3284   23934858.711 6  23934858.55043  23934862.27843
      3028.346        2359.743  
 08 11  5  4 46 30.0000000  0  8G19G25G 7G 3G27G11G 8G28            
 112714549.036    87829524.9814   21448864.897 7  21448863.90445  21448866.83845
     -1834.852       -1429.757  
 119390849.755    93031830.0174   22719323.617 7  22719323.80144  22719328.68644
     -2875.453       -2240.610  
 113551859.241    88481967.3424   21608200.825 7  21608201.26945  21608205.50245
     -2211.158       -1722.984  
 122654822.732    95575184.2194   23340436.421 6  23340435.42243  23340442.04043
     -2794.173       -2177.275  
 114225750.735    89007076.7614   21736435.326 7  21736435.09745  21736440.74845
     -1128.394        -879.275  
 106558634.571    83032710.6724   20277432.218 8  20277432.05546  20277435.33246
      1355.412        1056.163  
 112908619.257    87980753.2314   21485793.581 7  21485793.25345  21485798.01045
       541.061         421.607  
 125687722.038    97938485.8354   23917571.261 6  23917571.18843  23917574.55543
      3028.500        2359.863  
 08 11  5  4 47  0.0000000  0  8G19G25G 7G 3G27G11G 8G28            
 112769644.904    87872456.8074   21459348.976 7  21459347.97745  21459351.55845
     -1838.312       -1432.447  
 119477211.430    93099124.7924   22735757.523 7  22735757.23244  22735762.96444
     -2882.050       -2245.748  
 113618398.987    88533816.4664   21620862.617 7  21620863.26245  21620867.56945
     -2224.908       -1733.696  
 122738648.885    95640503.2454   23356388.298 6  23356387.99443  23356393.82743
     -2794.311       -2177.379  
 114259828.090    89033630.5274   21742920.239 7  21742919.42045  21742925.09545
     -1143.510        -891.050  
 106518198.762    83001202.2624   20269737.095 8  20269736.33946  20269740.30446
      1340.192        1044.307  
 112892690.660    87968341.3304   21482762.677 7  21482762.12645  21482767.09645
       520.760         405.785  
 125596850.142    97867676.6004   23900278.471 6  23900277.80443  23900282.45343
      3029.499        2360.646  
 08 11  5  4 47 30.0000000  0  8G19G25G 7G 3G27G11G 8G28            
 112824854.301    87915477.1034   21469855.177 7  21469854.28445  21469857.19845
     -1842.863       -1435.997  
 119563780.888    93166581.4694   22752231.045 7  22752230.55944  22752236.33444
     -2889.738       -2251.737  
 113685360.597    88585994.3184   21633605.244 7  21633605.64045  21633609.97345
     -2239.722       -1745.241  
 122822490.303    95705834.1934   23372343.530 7  23372342.78243  23372348.74943
     -2795.646       -2178.428  
 114294368.714    89060545.2794   21749492.967 7  21749492.51245  21749498.17045
     -1159.711        -903.677  
 106478230.753    82970058.3794   20262131.408 8  20262130.98046  20262134.79646
      1323.793        1031.521  
 112877382.494    87956412.8774   21479850.160 7  21479849.53845  21479854.29745
       499.248         389.019  
 125505960.391    97796853.4574   23882982.839 6  23882981.72143  23882986.64043
      3029.276        2360.458  
 08 11  5  4 48  0.0000000  0  8G19G25G 7G 3G27G11G 8G28            
 112880181.028    87958588.8304   21480383.306 7  21480382.34145  21480385.47445
     -1846.712       -1438.992  
 119650559.858    93234201.4024   22768744.781 7  22768744.26244  22768750.30344
     -2896.620       -2257.105  
 113752746.198    88638502.5584   21646428.399 7  21646428.55645  21646432.96245
     -2253.765       -1756.181  
 122906351.167    95771180.2894   23388301.532 7  23388300.97543  23388306.13043
     -2796.208       -2178.859  
 114329375.671    89087823.4064   21756154.643 7  21756154.48345  21756159.76745
     -1175.188        -915.732  
 106438735.571    82939282.9314   20254615.832 8  20254615.67446  20254619.04546
      1308.083        1019.282  
 112862699.979    87944971.9534   21477056.158 7  21477055.82845  21477060.49745
       478.436         372.809  
 125415058.913    97726021.1724   23865684.750 6  23865684.01543  23865688.76143
      3029.683        2360.790  
 08 11  5  4 48 30.0000000  0  8G19G25G 7G 3G27G11G 8G28            
 112935626.976    88001793.4574   21490934.708 7  21490933.96245  21490936.01345
     -1849.528       -1441.191  
 119737548.062    93301984.3774   22785298.024 7  22785297.58844  22785303.04744
     -2902.410       -2261.613  
 113820555.808    88691341.1864   21659332.160 7  21659332.35745  21659336.88845
     -2266.703       -1766.260  
 122990233.612    95836543.2064   23404263.584 6  23404262.61743  23404268.27043
     -2795.782       -2178.533  
 114364850.138    89115465.8304   21762905.163 7  21762904.35145  21762910.75745
     -1189.598        -926.963  
 106399716.452    82908878.4394   20247190.905 8  20247190.65946  20247194.03746
      1293.358        1007.811  
 112848646.041    87934020.8244   21474381.285 8  21474380.47345  21474385.60345
       458.646         357.389  
 125324149.806    97655182.9454   23848386.038 6  23848385.49043  23848389.41943
      3031.072        2361.876  
 08 11  5  4 49  0.0000000  0  8G19G25G 7G 3G27G11G 8G28            
 112991167.274    88045071.6014   21501503.585 7  21501502.47245  21501505.59045
     -1854.521       -1445.081  
 119824718.489    93369909.3334   22801885.640 7  22801885.83644  22801890.88444
     -2910.309       -2267.771  
 113888762.524    88744489.2474   21672311.114 7  21672311.47445  21672315.98445
     -2281.768       -1777.998  
 123074113.174    95901903.8774   23420225.836 6  23420225.59943  23420229.69543
     -2797.540       -2179.898  
 114400766.321    89143452.4484   21769739.873 7  21769739.32845  21769744.99845
     -1206.177        -939.874  
 106361149.285    82878826.1204   20239851.398 8  20239851.24046  20239854.77646
      1276.400         994.599  
 112835197.197    87923541.2004   21471821.592 7  21471821.05545  21471826.23345
       436.590         340.202  
 125233210.439    97584321.1304   23831080.471 7  23831080.31243  23831083.96443
      3030.172        2361.175  
 08 11  5  4 49 30.0000000  0  8G19G25G 7G 3G27G11G 8G28            
 113046832.489    88088447.0784   21512096.236 7  21512095.07745  21512098.17845
     -1857.428       -1447.340  
 119912100.185    93437998.9324   22818514.391 7  22818514.48244  22818519.31744
     -2916.053       -2272.247  
 113957395.655    88797969.5774   21685372.233 7  21685372.46445  21685376.29145
     -2294.698       -1788.078  
 123158021.118    95967286.6634   23436192.716 6  23436191.77243  23436197.11043
     -2797.252       -2179.691  
 114437154.809    89171807.0994   21776664.215 7  21776663.77145  21776669.87545
     -1220.646        -951.154  
 106323066.976    82849151.6064   20232604.869 8  20232604.49046  20232607.94446
      1261.478         982.974  
 112822385.802    87913558.2844   21469384.258 7  21469383.51245  21469388.76345
       416.585         324.620  
 125142274.322    97513461.8524   23813775.659 6  23813775.27343  23813779.76643
      3031.281        2362.044  
 08 11  5  4 50  0.0000000  0  8G19G25G 7G 3G27G11G 8G28            
 113102605.546    88131906.5944   21522709.989 7  21522708.93945  21522711.24645
     -1860.861       -1450.027  
 119999673.955    93506238.1844   22835178.798 7  22835179.11844  22835184.63344
     -2922.266       -2277.084  
 114026436.484    88851767.5954   21698510.150 7  21698510.15145  21698514.29245
     -2308.070       -1798.503  
 123241940.742    96032678.5334   23452162.038 6  23452161.37543  23452167.07643
     -2797.451       -2179.833  
 114473997.381    89200515.5794   21783675.697 7  21783674.90645  21783680.41245
     -1235.607        -962.810  
 106285453.276    82819842.2464   20225447.241 8  20225446.81046  20225450.29646
      1246.005         970.912  
 112810195.736    87904059.5294   21467064.271 7  21467063.49245  21467069.42945
       396.017         308.585  
 125051326.501    97442593.4574   23796468.846 7  23796469.39343  23796472.62843
      3031.793        2362.421  
 08 11  5  4 50 30.0000000  0  8G19G25G 7G 3G27G11G 8G28            
 113158487.328    88175450.8324   21533343.473 7  21533342.49745  21533345.26845
     -1865.506       -1453.642  
 120087438.689    93574626.2384   22851881.028 7  22851880.92644  22851885.40344
     -2929.615       -2282.810  
 114095883.552    88905882.1654   21711725.224 7  21711725.94645  21711729.88845
     -2322.617       -1809.832  
 123325873.171    96098080.3834   23468134.110 6  23468133.89343  23468139.20543
     -2798.924       -2180.974  
 114511294.550    89229578.2884   21790772.850 7  21790772.26845  21790777.94845
     -1251.767        -975.407  
 106248310.470    82790899.8164   20218379.232 8  20218378.90646  20218382.11545
      1229.265         957.871  
 112798629.158    87895046.6064   21464863.566 8  21464863.01545  21464868.09645
       374.181         291.568  
 124960370.358    97371718.5644   23779160.754 6  23779160.18043  23779163.81743
      3031.004        2361.819  
 08 11  5  4 51  0.0000000  0  8G19G25G 7G 3G27G11G 8G28            
 113214486.651    88219086.6544   21543999.897 7  21543998.71345  21544001.86345
     -1868.169       -1455.709  
 120175401.232    93643168.4404   22868619.144 7  22868618.99144  22868623.54644
     -2934.923       -2286.943  
 114165743.987    88960318.8444   21725019.439 7  21725019.58145  21725024.22545
     -2335.117       -1819.569  
 123409827.647    96163499.3964   23484110.393 6  23484109.51843  23484114.83843
     -2798.432       -2180.577  
 114549054.187    89259001.3594   21797958.359 7  21797958.01145  21797963.65945
     -1265.936        -986.443  
 106211648.428    82762331.9974   20211402.536 8  20211402.34146  20211405.83946
      1214.473         946.345  
 112787696.404    87886527.5654   21462783.180 8  21462782.68445  21462787.36545
       354.283         276.068  
 124869417.178    97300845.9734   23761852.278 6  23761851.61643  23761856.50443
      3032.128        2362.699  
 08 11  5  4 51 30.0000000  0  8G19G25G 7G 3G27G11G 8G28            
 113270607.147    88262816.9074   21554679.300 7  21554678.24845  21554681.39345
     -1873.384       -1459.782  
 120263563.413    93711866.2024   22885395.862 7  22885396.03244  22885401.87844
     -2942.730       -2293.034  
 114236020.037    89015079.3734   21738392.682 7  21738392.51945  21738397.35645
     -2350.132       -1831.264  
 123493808.306    96228938.8224   23500091.267 6  23500090.80943  23500096.69943
     -2800.479       -2182.184  
 114587279.494    89288787.2974   21805231.998 7  21805231.72845  21805237.59545
     -1282.597        -999.432  
 106175472.381    82734142.8814   20204518.452 8  20204518.19046  20204521.51946
      1197.073         932.789  
 112777402.142    87878506.0584   21460824.131 8  21460823.62445  21460828.46045
       331.805         258.554  
 124778473.208    97229980.5784   23744546.216 6  23744545.58843  23744550.28443
      3030.584        2361.500  
 08 11  5  4 52  0.0000000  0  8G19G25G 7G 3G27G11G 8G28            
 113326840.393    88306635.0034   21565379.921 7  21565379.23045  21565382.15045
     -1876.187       -1461.966  
 120351914.625    93780711.2434   22902208.652 7  22902208.08944  22902213.57244
     -2948.031       -2297.159  
 114306701.303    89070155.6614   21751842.770 7  21751842.91345  21751847.46445
     -2362.640       -1841.021  
 123577807.268    96294392.5154   23516075.833 6  23516075.73243  23516079.95743
     -2800.145       -2181.937  
 114625961.154    89318928.8284   21812593.498 7  21812593.31245  21812598.31545
     -1296.854       -1010.531  
 106139775.089    82706326.8184   20197725.623 8  20197725.42746  20197728.16445
      1182.042         921.070  
 112767738.973    87870976.3144   21458985.571 7  21458984.90345  21458989.55045
       311.712         242.901  
 124687532.468    97159117.6874   23727241.503 6  23727240.93943  23727244.59543
      3031.410        2362.138  
 08 11  5  4 52 30.0000000  0  8G19G25G 7G 3G27G11G 8G28            
 113383179.828    88350535.8574   21576101.169 7  21576100.21845  21576103.14445
     -1880.075       -1464.992  
 120440446.540    93849697.1004   22919055.798 7  22919055.76644  22919060.24544
     -2954.381       -2302.114  
 114377779.288    89125541.0764   21765368.287 7  21765368.22545  21765372.80545
     -2376.171       -1851.562  
 123661818.609    96359855.8804   23532062.279 6  23532062.08943  23532066.61643
     -2800.930       -2182.548  
 114665091.862    89349420.2754   21820039.997 7  21820039.16045  21820044.55645
     -1312.161       -1022.460  
 106104551.454    82678879.8384   20191022.677 8  20191022.39746  20191025.54146
      1165.881         908.483  
 112758701.903    87863934.4264   21457265.475 7  21457264.61145  21457269.63745
       290.462         226.338  
 124596590.938    97088254.1854   23709935.082 7  23709934.80343  23709939.88443
      3031.042        2361.855  
 08 11  5  4 53  0.0000000  0  8G19G25G 7G 3G27G11G 8G28            
 113439647.929    88394536.9734   21586846.508 7  21586845.71045  21586849.02045
     -1883.603       -1467.738  
 120529179.190    93918839.3794   22935941.409 7  22935941.72744  22935945.43044
     -2960.260       -2306.695  
 114449274.351    89181251.4874   21778973.345 7  21778973.88145  21778978.16845
     -2389.289       -1861.781  
 123745864.665    96425346.2804   23548055.380 6  23548055.25043  23548061.15643
     -2801.285       -2182.822  
 114704693.060    89380278.3394   21827576.079 7  21827575.75045  21827580.94945
     -1327.047       -1034.064  
 106069824.702    82651820.0374   20184414.599 8  20184414.22646  20184417.10545
      1150.088         896.169  
 112750313.878    87857398.2974   21455669.225 7  21455668.72545  21455673.43645
       269.599         210.077  
 124505673.244    97017409.2634   23692634.245 7  23692633.94943  23692638.44543
      3030.992        2361.808  
 08 11  5  4 53 30.0000000  0  8G19G25G 7G 3G27G11G 8G28            
 113496220.668    88438619.6084   21597612.132 7  21597610.94845  21597614.07445
     -1887.043       -1470.419  
 120618086.558    93988117.7924   22952859.404 6  22952858.92444  22952863.95844
     -2966.007       -2311.169  
 114521160.743    89237266.8364   21792653.156 7  21792653.49045  21792657.40645
     -2402.252       -1871.884  
 123829921.393    96490844.9674   23564051.101 6  23564050.71643  23564057.54843
     -2801.617       -2183.078  
 114744739.812    89411483.5754   21835196.388 7  21835195.95545  21835201.43745
     -1341.859       -1045.603  
 106035571.851    82625129.5084   20177896.516 8  20177896.22645  20177899.16445
      1134.302         883.872  
 112742552.001    87851350.0794   21454192.992 8  21454192.49345  21454196.66145
       248.743         193.829  
 124414757.836    96946566.1104   23675333.488 6  23675333.36643  23675337.58443
      3030.930        2361.748  
 08 11  5  4 54  0.0000000  0  8G19G25G 7G 3G27G11G 8G28            
 113552894.626    88482781.1294   21608396.700 7  21608395.85745  21608398.65445
     -1890.715       -1473.288  
 120707163.542    94057528.3764   22969810.304 7  22969810.34944  22969815.45044
     -2971.940       -2315.796  
 114593433.294    89293583.0834   21806406.315 7  21806405.99645  21806410.82545
     -2415.386       -1882.121  
 123913986.577    96556350.2674   23580048.632 6  23580048.57543  23580054.28643
     -2802.226       -2183.552  
 114785228.183    89443032.9424   21842900.834 7  21842899.93345  21842906.08945
     -1356.870       -1057.298  
 106001791.063    82598806.8204   20171468.014 8  20171467.75445  20171470.76946
      1118.236         871.354  
 112735414.162    87845788.1244   21452834.657 8  21452834.07645  21452837.93545
       227.619         177.370  
 124323844.141    96875724.2954   23658033.449 6  23658032.41543  23658037.64543
      3030.500        2361.424  
 08 11  5  4 54 30.0000000  0  8G19G25G 7G 3G27G11G 8G28            
 113609676.898    88527027.0484   21619201.971 7  21619200.97445  21619204.07745
     -1894.210       -1476.006  
 120796415.028    94127074.9254   22986794.298 6  22986794.06944  22986799.62444
     -2977.612       -2320.218  
 114666096.966    89350204.1044   21820233.554 7  21820233.38545  21820238.09045
     -2428.305       -1892.185  
 123998067.502    96621867.8214   23596048.987 6  23596048.38743  23596053.86143
     -2802.624       -2183.872  
 114826164.266    89474931.1634   21850691.013 7  21850690.81945  21850695.80745
     -1371.664       -1068.830  
 105968490.350    82572858.2234   20165131.321 8  20165131.08345  20165134.06645
      1102.345         858.967  
 112728908.254    87840718.5864   21451596.430 8  21451596.07445  21451600.22445
       206.643         161.020  
 124232941.483    96804891.0874   23640735.016 7  23640734.58943  23640738.91243
      3030.184        2361.183  
 08 11  5  4 55  0.0000000  0  8G19G25G 7G 3G27G11G 8G28            
 113666564.608    88571355.1274   21630027.591 7  21630026.78745  21630029.71145
     -1897.810       -1478.805  
 120885836.074    94196753.6014   23003809.998 7  23003810.44944  23003816.08644
     -2983.281       -2324.637  
 114739147.030    89407126.2104   21834134.496 7  21834134.57445  21834138.90745
     -2441.192       -1902.224  
 124082161.283    96687395.3994   23612051.093 6  23612050.53243  23612056.56743
     -2803.135       -2184.252  
 114867544.120    89507175.1904   21858564.981 7  21858564.68945  21858570.36445
     -1386.496       -1080.381  
 105935667.937    82547282.3144   20158885.110 8  20158885.13445  20158888.13145
      1086.320         846.484  
 112723032.532    87836140.0944   21450478.177 7  21450477.69445  21450482.04545
       185.569         144.605  
 124142049.243    96734065.9964   23623438.814 7  23623437.93943  23623442.43743
      3029.754        2360.848  
 08 11  5  4 55 30.0000000  0  9G19G25G 7G 3G27G11G 8G28G32         
 113723568.112    88615773.4384   21640874.624 7  21640873.71245  21640877.12545
     -1901.118       -1481.384  
 120975434.765    94266570.7074   23020860.765 7  23020861.11844  23020866.39844
     -2988.645       -2328.804  
 114812591.559    89464355.6834   21848110.283 7  21848110.57145  21848115.47245
     -2453.790       -1912.044  
 124166278.871    96752941.5364   23628057.947 6  23628058.03443  23628063.48443
     -2803.405       -2184.472  
 114909376.943    89539772.1724   21866525.676 7  21866525.16345  21866531.03645
     -1401.046       -1091.720  
 105903334.585    82522087.5064   20152732.015 8  20152731.88945  20152735.44945
      1070.528         834.178  
 112717797.583    87832060.9104   21449481.887 7  21449481.02845  21449486.37245
       164.729         128.363  
 124051180.148    96663258.9474   23606146.626 7  23606146.78143  23606150.36543
      3029.487        2360.634  
 125312169.464    97645852.9284   23846104.525 6  23846104.49643  23846112.18343
      2809.435        2189.168  
 08 11  5  4 56  0.0000000  0  9G19G25G 7G 3G27G11G 8G28G32         
 113780669.879    88660268.3094   21651741.290 7  21651740.52945  21651743.38545
     -1905.797       -1485.040  
 121065191.806    94336511.2114   23037940.199 6  23037940.24344  23037946.30344
     -2995.282       -2333.983  
 114886411.402    89521877.6124   21862158.041 7  21862158.42945  21862162.53045
     -2467.650       -1922.840  
 124250403.749    96818493.3494   23644066.542 6  23644066.18743  23644072.53943
     -2805.024       -2185.725  
 114951644.673    89572708.0584   21874568.786 7  21874568.08745  21874574.34645
     -1416.901       -1104.074  
 105871474.636    82497261.5784   20146669.810 8  20146669.23845  20146672.56945
      1053.338         820.785  
 112713187.471    87828468.6074   21448604.324 7  21448603.68345  21448609.07145
       142.501         111.036  
 123960319.861    96592458.7464   23588857.248 7  23588856.50443  23588860.72843
      3027.732        2359.278  
 125227930.230    97580212.0184   23830075.070 6  23830073.58243  23830081.07243
      2806.382        2186.788  
 08 11  5  4 56 30.0000000  0  9G19G25G 7G 3G27G11G 8G28G32         
 113837876.690    88704845.0284   21662626.841 7  21662625.61345  21662629.34245
     -1908.819       -1487.387  
 121155111.810    94406578.6854   23055051.190 6  23055050.79844  23055057.24544
     -3000.183       -2337.794  
 114960611.473    89579695.8244   21876277.816 7  21876278.10145  21876282.68545
     -2479.815       -1932.317  
 124334542.314    96884055.8374   23660077.391 6  23660077.33543  23660083.48243
     -2805.035       -2185.729  
 114994352.938    89605987.1944   21882696.269 7  21882695.77445  21882701.77045
     -1431.092       -1115.132  
 105840095.837    82472810.5754   20140698.524 8  20140698.26246  20140701.40345
      1037.774         808.653  
 112709210.090    87825369.3414   21447847.823 7  21447847.19845  21447852.10845
       121.873          94.966  
 123869477.747    96521672.7054   23571570.125 7  23571569.48843  23571573.92443
      3027.594        2359.156  
 125143750.469    97514617.4564   23814055.971 6  23814055.20143  23814061.17343
      2804.816        2185.583  
 08 11  5  4 57  0.0000000  0  9G19G25G 7G 3G27G11G 8G28G32         
 113895186.284    88749501.8434   21673532.690 7  21673532.05745  21673534.82345
     -1912.416       -1490.196  
 121245190.223    94476769.5904   23072193.080 6  23072193.44444  23072198.99644
     -3005.609       -2342.033  
 115035187.037    89637806.6294   21890469.130 7  21890469.82645  21890473.69745
     -2492.467       -1942.187  
 124418692.942    96949627.7154   23676090.745 6  23676090.10443  23676095.79943
     -2805.603       -2186.185  
 115037498.322    89639606.9604   21890906.589 7  21890906.12745  21890911.43745
     -1445.831       -1126.617  
 105809196.676    82448733.3164   20134818.362 8  20134817.95845  20134821.57245
      1021.590         796.047  
 112705863.249    87822761.4064   21447210.985 7  21447210.32345  21447214.90445
       100.667          78.445  
 123778653.082    96450900.2654   23554286.814 7  23554286.47243  23554290.86144
      3026.788        2358.544  
 125059631.522    97449070.2924   23798047.981 6  23798048.33743  23798055.35043
      2802.541        2183.790  
 08 11  5  4 57 30.0000000  0  9G19G25G 7G 3G27G11G 8G28G32         
 113952613.933    88794250.6494   21684460.826 7  21684460.00945  21684463.18445
     -1916.730       -1493.556  
 121335440.369    94547094.3344   23089367.836 6  23089367.60044  23089373.42244
     -3011.684       -2346.769  
 115110151.449    89696220.4284   21904734.184 7  21904734.35145  21904738.87445
     -2505.809       -1952.572  
 124502871.209    97015221.1324   23692109.447 6  23692108.33643  23692115.13243
     -2806.907       -2187.191  
 115081095.128    89673578.4794   21899202.523 7  21899202.45545  21899208.05945
     -1461.247       -1138.631  
 105778793.472    82425042.5244   20129032.977 8  20129032.67146  20129035.93245
      1004.643         782.833  
 112703162.796    87820657.1554   21446696.635 7  21446696.16945  21446701.36045
        78.720          61.346  
 123687864.041    96380155.5934   23537010.423 7  23537009.35343  23537013.93243
      3025.157        2357.257  
 124975592.577    97383585.4604   23782056.025 6  23782055.52143  23782063.05043
      2799.427        2181.359  
 08 11  5  4 58  0.0000000  0  9G19G25G 7G 3G27G11G 8G28G32         
 114010158.899    88839090.8684   21695411.537 7  21695410.76945  21695413.34345
     -1919.431       -1495.657  
 121425859.491    94617550.7324   23106573.858 6  23106574.33044  23106579.75944
     -3016.058       -2350.169  
 115185502.129    89754935.2074   21919073.317 7  21919073.76145  21919078.09245
     -2517.401       -1961.610  
 124587077.013    97080836.0034   23708134.047 6  23708133.91043  23708139.29943
     -2806.621       -2186.981  
 115125141.868    89707900.5944   21907584.047 7  21907583.58545  21907589.46245
     -1475.007       -1149.356  
 105748886.503    82401738.4054   20123341.797 8  20123341.57545  20123344.66645
       989.320         770.899  
 112701109.286    87819057.0164   21446306.136 8  21446305.85645  21446310.57545
        58.362          45.481  
 123597112.207    96309439.8724   23519740.548 6  23519739.83543  23519744.05043
      3025.120        2357.235  
 124891636.879    97318165.4794   23766080.236 6  23766079.40043  23766085.82943
      2797.785        2180.094  
 08 11  5  4 58 30.0000000  0  9G19G25G 7G 3G27G11G 8G28G32         
 114067803.550    88884008.7794   21706380.595 7  21706379.63045  21706382.48745
     -1923.328       -1498.712  
 121516427.954    94688123.5184   23123808.781 6  23123808.50444  23123814.17944
     -3021.572       -2354.479  
 115261219.254    89813935.5484   21933481.366 7  21933481.52745  21933486.12145
     -2530.167       -1971.566  
 124671292.900    97146458.7224   23724159.864 6  23724159.06943  23724164.80143
     -2807.540       -2187.693  
 115169619.632    89742558.5754   21916047.969 7  21916047.61445  21916053.52145
     -1489.935       -1160.986  
 105719459.037    82378807.9294   20117741.782 7  20117741.51445  20117744.61745
       972.739         757.974  
 112699685.942    87817947.9094   21446035.143 8  21446034.77045  21446039.90745
        36.762          28.635  
 123506383.035    96238741.8434   23502474.886 7  23502474.28043  23502479.73043
      3023.714        2356.133  
 124807750.686    97252799.6944   23750117.138 6  23750116.82343  23750123.45243
      2794.843        2177.793  
 08 11  5  4 59  0.0000000  0  9G19G25G 7G 3G27G11G 8G28G32         
 114125524.844    88928986.3984   21717364.358 7  21717363.08945  21717366.81045
     -1925.861       -1500.667  
 121607120.088    94758792.6524   23141066.955 6  23141066.84544  23141072.65444
     -3025.663       -2357.660  
 115337277.288    89873201.5154   21947954.521 7  21947954.40745  21947960.30045
     -2541.476       -1980.370  
 124755495.654    97212071.2304   23740183.112 6  23740182.15643  23740188.12743
     -2807.089       -2187.336  
 115214503.858    89777533.2824   21924589.588 7  21924589.27245  21924594.56945
     -1503.447       -1171.516  
 105690488.439    82356233.4574   20112229.081 8  20112228.77545  20112231.70545
       957.502         746.106  
 112698869.586    87817311.7774   21445880.186 8  21445879.50345  21445884.49845
        16.546          12.889  
 123415655.404    96168045.0154   23485210.745 7  23485210.20543  23485214.96543
      3023.632        2356.084  
 124723914.288    97187472.7004   23734164.118 6  23734163.86543  23734169.26943
      2793.126        2176.467  
 08 11  5  4 59 30.0000000  0  9G19G25G 7G 3G27G11G 8G28G32         
 114183352.514    88974046.9034   21728368.810 7  21728367.75945  21728371.46545
     -1929.509       -1503.510  
 121697963.687    94829579.8154   23158353.704 7  23158354.32944  23158359.09844
     -3030.781       -2361.643  
 115413703.973    89932754.7534   21962498.520 7  21962498.94045  21962503.26145
     -2553.823       -1989.995  
 124839715.855    97277697.3304   23756208.783 6  23756208.75443  23756214.29143
     -2807.793       -2187.891  
 115259823.376    89812847.1724   21933213.030 7  21933212.94345  21933218.58145
     -1518.041       -1182.891  
 105662005.732    82334039.1504   20106808.906 8  20106808.47045  20106811.77145
       941.137         733.352  
 112698690.794    87817172.4464   21445846.085 8  21445845.33145  21445849.98245
        -4.817          -3.753  
 123324961.679    96097374.6074   23467952.096 6  23467951.45143  23467956.25343
      3022.393        2355.120  
 124640161.460    97122210.8334   23718226.081 6  23718225.90543  23718232.16043
      2790.175        2174.164  
 08 11  5  5  0  0.0000000  0  9G19G25G 7G 3G27G11G 8G28G32         
 114241284.139    89019188.4124   21739393.088 7  21739391.87645  21739395.08345
     -1932.606       -1505.932  
 121788954.474    94900481.6764   23175669.326 7  23175668.97744  23175674.14944
     -3035.285       -2365.153  
 115490495.087    89992591.9494   21977111.348 7  21977111.49945  21977116.33145
     -2565.567       -1999.145  
 124923951.669    97343335.5774   23772238.524 6  23772238.76543  23772243.88043
     -2807.946       -2188.008  
 115305574.648    89848497.4904   21941920.184 7  21941920.00245  21941924.70645
     -1532.048       -1193.803  
 105634009.171    82312223.6674   20101481.425 8  20101480.99845  20101484.16645
       925.284         721.000  
 112699147.953    87817528.6644   21445932.844 7  21445932.26345  21445936.89745
       -25.680         -20.012  
 123234302.228    96026730.8934   23450700.027 6  23450699.54243  23450704.28444
      3021.571        2354.470  
 124556493.815    97057015.3494   23702304.686 6  23702303.78343  23702310.67743
      2787.660        2172.198  
 08 11  5  5  0 30.0000000  0  9G19G25G 7G 3G27G11G 8G28G32         
 114299303.118    89064397.9914   21750433.746 7  21750432.57745  21750435.45845
     -1935.471       -1508.156  
 121880073.435    94971483.3984   23193007.961 7  23193008.28644  23193013.49344
     -3039.473       -2368.424  
 115567631.783    90052698.4414   21991790.406 7  21991790.70845  21991794.68645
     -2577.020       -2008.060  
 125008186.930    97408973.4054   23788268.400 6  23788268.09243  23788273.05043
     -2807.890       -2187.971  
 115351739.701    89884470.2404   21950705.360 7  21950704.65145  21950709.17345
     -1545.772       -1204.500  
 105606483.024    82290774.7404   20096243.166 7  20096242.60645  20096246.28646
       909.629         708.803  
 112700224.853    87818367.7924   21446138.375 8  21446137.62045  21446141.91245
       -46.282         -36.063  
 123143662.596    95956102.6294   23433452.131 6  23433451.65344  23433455.77044
      3020.905        2353.955  
 124472898.370    96991876.1174   23686396.253 6  23686395.05043  23686403.32143
      2785.203        2170.287  
 08 11  5  5  1  0.0000000  0  9G19G25G 7G 3G27G11G 8G28G32         
 114357430.368    89109691.9474   21761495.337 7  21761494.51645  21761496.47245
     -1939.024       -1510.926  
 121971339.255    95042599.5704   23210375.513 7  23210375.77844  23210380.97744
     -3044.273       -2372.150  
 115645132.654    90113088.7044   22006538.226 7  22006537.89745  22006542.96745
     -2589.052       -2017.443  
 125092442.127    97474626.7744   23804301.463 6  23804300.93243  23804306.48343
     -2808.486       -2188.419  
 115398338.287    89920780.8004   21959571.806 7  21959571.21745  21959577.13945
     -1560.137       -1215.684  
 105579448.727    82269709.0704   20091098.644 7  20091098.32445  20091101.92846
       893.299         696.075  
 112701942.803    87819706.4474   21446464.904 8  21446464.37645  21446469.37145
       -67.591         -52.672  
 123053066.078    95885507.9644   23416211.600 7  23416211.10944  23416215.84844
      3019.491        2352.846  
 124389399.778    96926812.3624   23670506.318 6  23670505.37043  23670513.53043
      2782.004        2167.796  
 08 11  5  5  1 30.0000000  0  9G19G25G 7G 3G27G11G 8G28G32         
 114415657.438    89155063.6854   21772575.576 7  21772574.72045  21772577.04145
     -1942.956       -1513.995  
 122062741.565    95113822.0984   23227769.514 7  23227769.79844  23227775.13644
     -3049.389       -2376.151  
 115722987.188    90173754.5464   22021352.948 7  22021352.94945  22021358.01445
     -2601.412       -2027.082  
 125176710.058    97540290.0694   23820336.833 6  23820336.88343  23820342.91643
     -2809.512       -2189.233  
 115445360.994    89957421.8604   21968520.070 7  21968519.49645  21968525.11145
     -1574.860       -1227.173  
 105552898.983    82249020.9784   20086046.961 8  20086046.55946  20086049.76645
       876.520         682.998  
 112704293.846    87821538.4224   21446912.228 8  21446911.55745  21446916.57645
       -89.329         -69.609  
 122962507.340    95814942.7234   23398978.927 7  23398978.55243  23398983.81443
      3017.570        2351.358  
 124305993.562    96861820.5964   23654634.875 6  23654634.53143  23654641.74843
      2778.223        2164.871  
 08 11  5  5  2  0.0000000  0  9G19G25G 7G 3G27G11G 8G28G32         
 114473986.719    89200515.0664   21783674.980 7  21783674.32945  21783676.69245
     -1945.884       -1516.271  
 122154280.554    95185151.1124   23245188.214 6  23245187.34244  23245193.86444
     -3053.408       -2379.276  
 115801195.629    90234696.1634   22036235.772 7  22036235.57845  22036240.23745
     -2612.669       -2035.847  
 125260993.153    97605965.1574   23836376.105 7  23836376.34443  23836380.52543
     -2809.531       -2189.234  
 115492808.728    89994394.1034   21977549.117 7  21977548.73345  21977554.33045
     -1588.507       -1237.803  
 105526837.076    82228713.0124   20081087.139 8  20081087.01445  20081090.16546
       860.741         670.705  
 112707280.896    87823865.9814   21447480.736 8  21447480.24245  21447485.12145
      -110.021         -85.730  
 122871990.749    95744410.3324   23381754.737 7  23381754.29444  23381758.65144
      3016.641        2350.634  
 124222685.997    96796905.7264   23638782.483 6  23638782.59143  23638788.80443
      2775.399        2162.650  
 08 11  5  5  2 30.0000000  0  9G19G25G 7G 3G27G11G 8G28G32         
 114532418.388    89246046.2204   21794793.842 7  21794793.20445  21794796.32445
     -1949.673       -1519.222  
 122245954.278    95256585.1304   23262632.873 6  23262632.97044  23262638.59744
     -3058.255       -2383.056  
 115879755.858    90295911.9004   22051185.173 7  22051185.50445  22051189.37745
     -2624.761       -2045.260  
 125345291.874    97671652.4514   23852417.050 6  23852416.59143  23852422.38043
     -2810.475       -2189.982  
 115540680.579    90031696.8224   21986658.824 7  21986658.23945  21986664.08845
     -1603.032       -1249.112  
 105501263.691    82208785.7134   20076220.742 8  20076220.40345  20076223.46446
       844.041         657.698  
 112710904.608    87826689.6414   21448169.855 7  21448169.49245  21448174.52045
      -131.653        -102.580  
 122781519.330    95673913.1394   23364538.612 7  23364538.60244  23364542.24444
      3014.677        2349.113  
 124139480.964    96732070.7604   23622949.140 6  23622948.76943  23622954.96443
      2771.516        2159.618  
 08 11  5  5  3  0.0000000  0  9G19G25G 7G 3G27G11G 8G28G32         
 114590952.425    89291657.1504   21805933.293 8  21805932.36045  21805934.92245
     -1953.160       -1521.947  
 122337760.539    95328122.4144   23280102.746 6  23280103.16244  23280108.57444
     -3062.719       -2386.530  
 115958665.672    90357400.0494   22066201.462 7  22066201.20445  22066205.72645
     -2636.446       -2054.374  
 125429606.392    97737352.0484   23868460.827 6  23868461.09342  23868467.81742
     -2811.082       -2190.458  
 115588974.922    90069328.7594   21995848.932 7  21995848.49745  21995853.94245
     -1617.160       -1260.126  
 105476179.707    82189239.7704   20071447.276 8  20071446.67946  20071450.07346
       827.652         644.923  
 112715165.092    87830009.4794   21448980.896 7  21448980.09545  21448985.56945
      -152.945        -119.168  
 122691095.358    95603452.9254   23347331.292 7  23347330.89444  23347335.60244
      3012.986        2347.787  
 124056382.245    96667318.6514   23607135.934 6  23607135.33443  23607142.06743
      2767.834        2156.760  
 08 11  5  5  3 30.0000000  0  9G19G25G 7G 3G27G11G 8G28G32         
 114649595.718    89337353.2174   21817092.321 7  21817091.30245  21817094.59245
     -1956.422       -1524.485  
 122429703.864    95399766.4924   23297599.364 6  23297599.33244  23297605.06844
     -3066.848       -2389.746  
 116037929.585    90419164.1054   22081284.889 7  22081285.07045  22081289.57145
     -2647.840       -2063.257  
 125513943.690    97803069.3694   23884510.803 6  23884510.11843  23884516.28143
     -2811.470       -2190.746  
 115637697.294    90107294.2234   22005120.546 7  22005120.05945  22005125.38945
     -1631.020       -1270.922  
 105451592.022    82170080.5484   20066768.459 8  20066767.83745  20066771.49945
       811.481         632.318  
 112720069.466    87833831.0564   21449914.270 7  21449913.70945  21449918.43245
      -174.044        -135.619  
 122600728.433    95533037.1624   23330135.343 7  23330134.49944  23330139.09744
      3011.424        2346.558  
 123973400.334    96602657.5484   23591344.938 6  23591344.28843  23591350.69243
      2764.236        2153.953  
 08 11  5  5  4  0.0000000  0  9G19G25G 7G 3G27G11G 8G28G32         
 114708338.146    89383126.5234   21828270.702 7  21828269.68445  21828272.32245
     -1960.156       -1527.391  
 122521772.012    95471507.8354   23315119.381 6  23315119.07444  23315125.78944
     -3071.410       -2393.306  
 116117535.546    90481194.6984   22096432.882 7  22096433.38645  22096437.61745
     -2659.615       -2072.421  
 125598294.707    97868797.4224   23900562.508 6  23900562.02443  23900568.20643
     -2812.349       -2191.444  
 115686836.164    90145584.2414   22014471.440 7  22014471.18845  22014476.18445
     -1645.299       -1282.048  
 105427491.607    82151301.0174   20062181.836 8  20062181.71246  20062185.23646
       794.811         619.335  
 112725607.800    87838146.6234   21450968.355 8  21450967.62045  21450972.44845
      -195.607        -152.421  
 122510410.875    95462659.8714   23312948.258 7  23312947.51344  23312952.18244
      3009.329        2344.921  
 123890529.010    96538082.6184   23575575.248 6  23575573.81943  23575580.75043
      2760.092        2150.721  
 08 11  5  5  4 30.0000000  0  9G19G25G 7G 3G27G11G 8G28G32         
 114767180.237    89428977.4924   21839467.759 7  21839467.05345  21839469.86345
     -1962.392       -1529.135  
 122613963.265    95543345.0984   23332663.264 6  23332662.59344  23332668.85744
     -3074.382       -2395.616  
 116197481.636    90543490.3414   22111647.029 7  22111647.13745  22111651.68345
     -2669.829       -2080.385  
 125682660.201    97934536.7444   23916616.282 6  23916615.99743  23916622.36243
     -2811.754       -2190.965  
 115736390.629    90184198.0874   22023901.169 7  22023900.86845  22023906.51745
     -1658.049       -1291.988  
 105403879.550    82132902.0294   20057689.037 8  20057688.64546  20057692.08045
       779.605         607.486  
 112731781.218    87842957.0714   21452142.748 7  21452141.89245  21452147.16145
      -215.695        -168.074  
 122420145.490    95392323.2234   23295771.151 7  23295770.21344  23295774.41044
      3008.620        2344.384  
 123807772.531    96473597.1564   23559826.217 6  23559825.73443  23559832.92443
      2757.272        2148.520  
 08 11  5  5  5  0.0000000  0  9G19G25G 7G 3G27G11G 8G28G32         
 114826126.494    89474909.6394   21850684.757 7  21850683.77545  21850686.82445
     -1966.767       -1532.550  
 122706279.905    95615280.0804   23350230.779 6  23350230.51844  23350235.85544
     -3079.437       -2399.558  
 116277769.455    90606052.2634   22126924.971 7  22126924.91845  22126929.56745
     -2682.087       -2089.941  
 125767044.688    98000290.8504   23932674.444 6  23932674.34643  23932679.47643
     -2813.289       -2192.170  
 115786363.655    90223138.0844   22033411.065 7  22033410.59645  22033416.15545
     -1672.888       -1303.549  
 105380760.841    82114887.4654   20053289.780 8  20053289.49446  20053292.82946
       762.244         593.951  
 112738593.913    87848265.6594   21453439.980 7  21453439.13045  21453443.86445
      -237.899        -185.379  
 122329939.489    95322032.8614   23278605.248 7  23278604.53344  23278609.27044
      3005.707        2342.097  
 123725138.933    96409207.4434   23544101.202 6  23544100.27143  23544108.74343
      2752.226        2144.588  
 08 11  5  5  5 30.0000000  0  9G19G25G 7G 3G27G11G 8G28G32         
 114885170.451    89520917.9014   21861920.107 7  21861919.24345  21861922.47745
     -1969.177       -1534.428  
 122798713.201    95687305.9564   23367820.758 7  23367820.28744  23367826.07444
     -3082.442       -2401.901  
 116358390.910    90668874.1534   22142266.851 7  22142266.81745  22142271.69345
     -2692.318       -2097.909  
 125851442.085    98066055.0394   23948735.100 6  23948734.85443  23948739.88743
     -2812.882       -2191.863  
 115836747.835    90262398.4584   22042998.497 7  22042998.01345  22043003.75845
     -1685.731       -1313.557  
 105358129.216    82097252.4494   20048982.971 8  20048982.68546  20048986.10246
       746.850         581.961  
 112746039.882    87854067.6884   21454856.122 7  21454855.39045  21454860.49245
      -258.171        -201.166  
 122239788.867    95251785.6464   23261449.920 7  23261449.67544  23261454.46744
      3004.652        2341.280  
 123642625.668    96344911.4944   23528400.170 6  23528399.02943  23528405.57943
      2748.990        2142.061  
 08 11  5  5  6  0.0000000  0  9G19G25G 7G 3G27G11G 8G28G32         
 114944321.280    89567009.4494   21873176.328 7  21873175.37645  21873178.54845
     -1972.812       -1537.249  
 122891270.094    95759428.1374   23385432.331 6  23385432.41943  23385439.33743
     -3086.591       -2405.124  
 116439352.578    90731961.1434   22157673.452 7  22157673.32245  22157677.94145
     -2703.706       -2106.781  
 125935861.812    98131836.6244   23964799.109 6  23964798.75743  23964805.20843
     -2813.691       -2192.500  
 115887550.688    90301985.0834   22052666.448 7  22052665.79045  22052671.38145
     -1699.707       -1324.438  
 105335994.950    82080004.9814   20044770.919 8  20044770.58846  20044773.77745
       730.181         568.978  
 112754128.340    87860370.3744   21456395.939 7  21456395.24345  21456400.09545
      -279.645        -217.902  
 122149705.400    95181590.7554   23244308.267 7  23244307.85244  23244312.30944
      3002.313        2339.459  
 123560245.631    96280719.3284   23512723.118 6  23512722.36443  23512729.38043
      2744.404        2138.491  
 08 11  5  5  6 30.0000000  0  9G19G25G 7G 3G27G11G 8G28G32         
 115003558.798    89613168.5374   21884448.919 7  21884448.05045  21884451.34245
     -1976.631       -1540.227  
 122983928.158    95831629.1484   23403065.425 6  23403065.45944  23403071.65844
     -3090.880       -2408.476  
 116520631.981    90795295.7244   22173140.210 7  22173140.63545  22173144.71545
     -2715.178       -2115.729  
 126020284.102    98197620.1874   23980864.008 6  23980864.17743  23980869.98443
     -2814.714       -2193.294  
 115938750.464    90341880.9954   22062409.541 7  22062408.84545  22062414.69045
     -1713.873       -1335.479  
 105314338.098    82063129.5254   20040649.985 8  20040649.70346  20040652.97946
       713.326         555.836  
 112762838.749    87867157.6884   21458053.184 8  21458052.86645  21458057.47745
      -301.332        -234.803  
 122059671.224    95111434.2764   23227174.892 7  23227174.46544  23227179.26844
      2999.684        2337.411  
 123477982.340    96216618.1074   23497068.969 6  23497068.18043  23497075.13343
      2739.531        2134.699  
 08 11  5  5  7  0.0000000  0  9G19G25G 7G 3G27G11G 8G28G32         
 115062907.905    89659414.5854   21895742.920 7  21895741.86245  21895744.98645
     -1979.553       -1542.501  
 123076710.421    95903926.9604   23420721.046 7  23420720.88443  23420726.37844
     -3094.148       -2411.022  
 116602251.782    90858895.5474   22188672.009 7  22188671.77045  22188676.63245
     -2725.696       -2123.920  
 126104734.097    98263425.3474   23996934.741 6  23996933.71643  23996940.39243
     -2814.880       -2193.415  
 115990370.928    90382104.7224   22072232.579 7  22072232.02445  22072237.21545
     -1727.049       -1345.749  
 105293184.361    82046646.1114   20036624.540 8  20036624.30946  20036627.84946
       697.351         543.392  
 112772196.880    87874449.7304   21459833.970 8  21459833.50745  21459838.62845
      -322.097        -250.984  
 121969714.148    95041337.8704   23210056.969 7  23210056.33444  23210061.16744
      2997.872        2336.009  
 123395864.674    96152630.3914   23481442.913 6  23481442.48243  23481449.59443
      2735.405        2131.492  
 08 11  5  5  7 30.0000000  0  9G19G25G 7G 3G27G11G 8G28G32         
 115122354.130    89705736.3084   21907055.001 7  21907054.02445  21907057.18845
     -1982.933       -1545.139  
 123169599.863    95976308.2924   23438397.380 6  23438397.75844  23438403.38644
     -3097.839       -2413.903  
 116684195.407    90922747.6974   22204265.368 7  22204265.96645  22204270.21145
     -2736.583       -2132.405  
 126189198.160    98329241.4504   24013007.306 6  24013007.13743  24013013.27643
     -2815.460       -2193.855  
 116042395.693    90422643.4814   22082132.588 7  22082132.48345  22082137.10845
     -1740.637       -1356.344  
 105272519.347    82030543.5154   20032692.243 8  20032691.95746  20032695.18346
       680.915         530.582  
 112782187.957    87882234.9734   21461735.262 8  21461734.65645  21461739.66045
      -343.338        -267.538  
 121879822.343    94971292.3194   23192951.807 7  23192951.46144  23192955.47844
      2995.509        2334.167  
 123313881.677    96088747.5714   23465842.024 6  23465841.93143  23465847.74243
      2730.701        2127.817  
 08 11  5  5  8  0.0000000  0  9G19G25G 7G 3G27G11G 8G28G32         
 115181891.013    89752128.6754   21918385.107 7  21918384.05945  21918386.88845
     -1986.542       -1547.953  
 123262587.740    96048766.2934   23456092.797 6  23456092.92843  23456097.97643
     -3101.674       -2416.891  
 116766453.517    90986844.9004   22219918.666 7  22219918.83245  22219923.24945
     -2747.629       -2141.007  
 126273669.438    98395063.1994   24029081.787 6  24029081.65942  24029086.52842
     -2816.292       -2194.502  
 116094816.436    90463490.7924   22092108.063 7  22092107.99445  22092112.55945
     -1754.411       -1367.073  
 105252337.250    82014817.2154   20028851.571 8  20028850.89946  20028854.26246
       664.220         517.577  
 112792804.720    87890507.7574   21463755.515 8  21463754.89445  21463760.29745
      -364.792        -284.247  
 121789991.465    94901294.2434   23175856.819 7  23175856.25544  23175861.09744
      2992.858        2332.106  
 123232030.658    96024967.6094   23450266.674 6  23450266.58843  23450272.56543
      2725.687        2123.902  
 08 11  5  5  8 30.0000000  0  9G19G25G 7G 3G27G11G 8G28G32         
 115241535.073    89798604.5504   21929734.607 7  21929733.80345  21929736.71345
     -1990.215       -1550.820  
 123355688.507    96121312.2984   23473809.709 7  23473808.42643  23473814.37843
     -3105.504       -2419.865  
 116849040.467    91051198.3414   22235634.047 7  22235634.92745  22235639.89545
     -2758.646       -2149.589  
 126358165.000    98460903.8934   24045160.358 6  24045159.98742  24045166.29842
     -2817.210       -2195.220  
 116147648.623    90504658.7104   22102161.171 7  22102161.31645  22102166.55045
     -1768.186       -1377.808  
 105232654.820    81999480.2634   20025106.195 8  20025105.85346  20025109.10346
       647.460         504.515  
 112804064.229    87899281.3964   21465898.259 8  21465897.73245  21465902.89745
      -386.312        -301.019  
 121700240.691    94831358.5974   23158777.579 7  23158777.26644  23158782.15244
      2990.028        2329.892  
 123150331.940    95961306.2984   23434719.343 6  23434718.65043  23434724.71543
      2720.402        2119.803  
 08 11  5  5  9  0.0000000  0  9G19G25G 7G 3G27G11G 8G28G32         
 115301282.765    89845161.1774   21941103.614 7  21941102.56145  21941106.45745
     -1994.094       -1553.838  
 123448895.999    96193941.4564   23491546.107 6  23491545.69043  23491551.03443
     -3109.449       -2422.947  
 116931949.985    91115803.1424   22251411.409 7  22251411.39245  22251416.20745
     -2769.773       -2158.269  
 126442681.708    98526761.0454   24061243.867 6  24061243.85142  24061249.03442
     -2818.348       -2196.125  
 116200886.837    90546143.0194   22112292.351 7  22112291.67245  22112297.36145
     -1782.124       -1388.672  
 105213468.682    81984530.0324   20021455.308 8  20021454.90646  20021458.09145
       630.497         491.291  
 112815962.581    87908552.8294   21468162.303 8  21468161.91645  21468166.85445
      -408.024        -317.944  
 121610568.826    94761484.4404   23141714.094 7  23141713.65544  23141717.85244
      2986.936        2327.476  
 123068785.380    95897763.5594   23419201.740 6  23419201.02043  23419208.09343
      2714.855        2115.475  
 08 11  5  5  9 30.0000000  0  9G19G25G 7G 3G27G11G 8G28G32         
 115361143.641    89891805.9964   21952494.973 7  21952494.62345  21952497.53645
     -1996.198       -1555.482  
 123542217.891    96266659.7324   23509304.607 6  23509303.87843  23509310.37243
     -3111.556       -2424.587  
 117015189.479    91180665.0584   22267251.628 7  22267251.33345  22267256.79645
     -2779.063       -2165.511  
 126527229.404    98592642.3324   24077333.558 6  24077333.89443  24077338.62543
     -2817.706       -2195.619  
 116254539.326    90587950.1344   22122502.342 7  22122502.10945  22122507.55545
     -1794.255       -1398.124  
 105194789.314    81969974.6844   20017900.605 7  20017900.11546  20017903.28145
       615.231         479.398  
 112828509.310    87918329.4784   21470549.979 8  21470549.42045  21470554.28345
      -427.966        -333.482  
 121520988.380    94691681.5134   23124667.710 7  23124667.23944  23124671.08944
      2985.519        2326.376  
 122987404.519    95834349.9314   23403715.924 6  23403715.11143  23403721.25843
      2710.946        2112.413  
 08 11  5  5 10  0.0000000  0  9G19G25G 7G 3G27G11G 8G28G32         
 115421080.468    89938510.0054   21963901.098 7  21963900.21245  21963903.06445
     -1998.368       -1557.169  
 123635614.417    96339436.1824   23527077.426 6  23527076.80043  23527082.43743
     -3113.657       -2426.216  
 117098719.230    91245753.1504   22283146.585 7  22283146.45245  22283151.50745
     -2788.342       -2172.736  
 126611771.418    98658519.1884   24093420.657 6  24093420.39442  24093426.63742
     -2817.168       -2195.193  
 116308567.047    90630049.6414   22132783.348 7  22132783.23345  22132788.78645
     -1806.370       -1407.561  
 105176579.838    81955785.4834   20014435.407 8  20014435.33046  20014438.45646
       599.947         467.491  
 112841667.207    87928582.3794   21473053.332 7  21473052.34845  21473057.75545
      -447.988        -349.080  
 121431464.373    94621922.5564   23107631.253 7  23107630.83544  23107634.88344
      2983.956        2325.167  
 122906155.807    95771039.2634   23388254.104 6  23388253.42043  23388259.90643
      2706.845        2109.231  
 08 11  5  5 10 30.0000000  0  9G19G25G 7G 3G27G11G 8G28G32         
 115481110.909    89985286.9654   21975324.381 7  21975323.28945  21975326.25545
     -2003.058       -1560.825  
 123729101.117    96412282.9184   23544867.642 6  23544866.82043  23544872.66643
     -3118.157       -2429.739  
 117182554.648    91311079.4174   22299100.123 7  22299100.09245  22299104.77445
     -2800.037       -2181.849  
 126696325.729    98724405.6454   24109510.962 6  24109510.62542  24109516.45442
     -2819.146       -2196.738  
 116362986.032    90672454.0334   22143138.745 7  22143138.03045  22143144.02445
     -1820.924       -1418.899  
 105158857.817    81941976.1114   20011062.969 7  20011062.83646  20011065.89946
       582.125         453.607  
 112855453.439    87939324.8774   21475676.766 7  21475676.04245  21475681.82245
      -470.483        -366.609  
 121342017.061    94552223.3744   23090610.212 7  23090609.79644  23090613.62944
      2979.818        2321.940  
 122825060.555    95707848.1644   23372821.697 6  23372821.57543  23372827.36043
      2700.118        2103.993  
 08 11  5  5 11  0.0000000  0  9G19G25G 7G 3G27G11G 8G28G32         
 115541236.821    90032138.3074   21986765.679 7  21986764.71145  21986768.48045
     -2005.313       -1562.574  
 123822677.491    96485199.5234   23562674.544 7  23562674.68643  23562680.36143
     -3120.202       -2431.324  
 117266694.713    91376643.0824   22315111.140 7  22315111.20845  22315115.59345
     -2809.240       -2189.013  
 126780893.797    98790302.8094   24125603.597 6  24125603.36342  24125609.19542
     -2818.690       -2196.369  
 116417796.324    90715163.3374   22153568.660 7  22153568.59145  22153574.01845
     -1833.027       -1428.333  
 105141625.255    81928548.1384   20007783.766 8  20007783.21846  20007786.70146
       566.744         441.622  
 112869869.682    87950558.3034   21478420.277 8  21478419.83445  21478425.10545
      -490.549        -382.250  
 121252650.737    94482587.2984   23073604.196 7  23073603.96444  23073607.52544
      2977.987        2320.515  
 122744124.183    95644780.8594   23357419.794 6  23357419.15743  23357427.04543
      2695.695        2100.542  
 08 11  5  5 11 30.0000000  0  9G19G25G 7G 3G27G11G 8G28G32         
 115601457.655    90079063.6184   21998225.489 7  21998224.46645  21998227.51745
     -2008.700       -1565.219  
 123916340.916    96558183.9334   23580498.523 6  23580497.82643  23580503.53343
     -3123.284       -2433.715  
 117351137.018    91442442.2424   22331180.056 7  22331180.06144  22331184.57244
     -2819.499       -2197.005  
 126865476.201    98856211.1514   24141698.890 6  24141698.88542  24141705.47442
     -2819.403       -2196.922  
 116472996.006    90758176.0494   22164072.914 7  22164072.08944  22164077.89244
     -1846.208       -1438.601  
 105124882.578    81915501.8904   20004597.713 8  20004597.30046  20004600.76346
       550.171         428.704  
 112884915.162    87962282.0424   21481283.490 7  21481282.96245  21481287.82645
      -511.749        -398.766  
 121163367.795    94413016.1844   23056614.315 7  23056614.14544  23056617.50344
      2974.928        2318.140  
 122663350.183    95581840.0864   23342049.781 7  23342049.39643  23342055.69043
      2689.972        2096.097  
 08 11  5  5 12  0.0000000  0  8G19G25G 7G27G11G 8G28G32            
 115661779.069    90126067.3014   22009704.286 7  22009703.32745  22009706.69245
     -2012.062       -1567.837  
 124010094.722    96631238.7924   23598338.690 6  23598339.08843  23598344.38443
     -3126.266       -2436.049  
 117435884.358    91508479.0994   22347307.461 7  22347307.12145  22347311.95945
     -2829.637       -2204.909  
 116528588.912    90801495.1914   22174652.087 7  22174651.60845  22174656.93645
     -1859.293       -1448.797  
 105108635.436    81902841.7794   20001506.060 8  20001505.52446  20001509.05046
       533.652         415.831  
 112900595.195    87974500.2334   21484267.304 7  21484266.73945  21484271.66445
      -532.911        -415.250  
 121074176.213    94343516.2734   23039641.650 7  23039641.68344  23039645.15144
      2971.822        2315.706  
 122582747.630    95519032.9164   23326711.992 6  23326711.74943  23326717.53543
      2684.181        2091.581  
 08 11  5  5 12 30.0000000  0  8G19G25G 7G27G11G 8G28G32            
 115722205.878    90173153.1074   22021203.108 7  22021202.31645  22021205.31545
     -2015.653       -1570.636  
 124103941.267    96704365.9064   23616196.708 6  23616197.17843  23616203.22543
     -3129.413       -2438.501  
 117520939.052    91574755.4554   22363492.922 7  22363492.78145  22363497.61545
     -2839.938       -2212.933  
 116584577.853    90845122.9104   22185306.423 7  22185305.83645  22185311.55345
     -1872.555       -1459.137  
 105092888.642    81890571.5524   19998509.249 8  19998509.04146  19998512.65146
       516.878         402.763  
 112916914.218    87987216.3404   21487372.964 8  21487372.54045  21487377.13245
      -554.278        -431.908  
 120985083.556    94274093.4444   23022688.027 7  23022687.66944  23022691.31844
      2968.387        2313.021  
 122502324.902    95456365.8684   23311407.508 6  23311407.37543  23311413.46243
      2678.035        2086.788  
 08 11  5  5 13  0.0000000  0  8G19G25G 7G27G11G 8G28G32            
 115782734.331    90220318.1224   22032721.667 7  22032720.65245  22032723.63045
     -2019.519       -1573.649  
 124197874.527    96777560.5824   23634072.241 6  23634072.51243  23634078.30443
     -3132.731       -2441.079  
 117606294.960    91641266.5144   22379735.173 7  22379735.14745  22379740.51645
     -2850.383       -2221.070  
 116640957.237    90889054.8684   22196035.144 7  22196034.57445  22196040.47045
     -1886.008       -1469.610  
 105077638.751    81878688.5174   19995607.646 8  19995607.47346  19995610.72345
       499.838         389.485  
 112933867.719    88000426.8484   21490598.828 7  21490598.17145  21490604.01745
      -575.902        -448.753  
 120896088.477    94204746.6464   23005752.767 7  23005752.19144  23005756.46744
      2964.662        2310.110  
 122422081.990    95393838.9294   23296137.883 6  23296137.12843  23296143.90843
      2671.509        2081.689  
 08 11  5  5 13 30.0000000  0  9G19G25G 7G27G11G 8G28G32G20         
 115843378.232    90267573.1004   22044261.339 7  22044260.69445  22044263.42745
     -2022.003       -1575.586  
 124291905.988    96850831.7744   23651965.702 6  23651965.69743  23651971.41643
     -3134.623       -2442.552  
 117691963.176    91708020.9284   22396037.906 7  22396037.23645  22396042.50945
     -2859.414       -2228.111  
 116697739.307    90933300.6114   22206840.060 7  22206840.11045  22206845.57544
     -1898.050       -1478.996  
 105062899.634    81867203.4924   19992802.898 8  19992802.46046  19992805.79146
       484.167         377.273  
 112951469.553    88014142.5404   21493948.126 7  21493947.84945  21493953.03245
      -596.124        -464.513  
 120807207.108    94135488.4564   22988839.378 7  22988838.79444  22988843.35544
      2962.155        2308.176  
 122342036.248    95331465.6384   23280906.181 7  23280905.45143  23280912.35643
      2666.239        2077.586  
 126971143.574    98938563.7154   24161796.599 6  24161795.24243  24161801.14243
      3379.343        2633.256  
 08 11  5  5 14  0.0000000  0  9G19G25G 7G27G11G 8G28G32G20         
 115904136.227    90314916.9824   22055823.608 7  22055822.55445  22055825.95645
     -2026.810       -1579.332  
 124386031.927    96924176.5834   23669877.620 6  23669877.20343  23669883.68143
     -3138.736       -2445.752  
 117777939.860    91775015.7184   22412398.354 7  22412398.12745  22412403.56045
     -2870.664       -2236.873  
 116754920.900    90977857.6694   22217721.731 7  22217721.03444  22217726.68744
     -1912.351       -1490.144  
 105048670.126    81856115.5694   19990095.209 8  19990094.77746  19990097.82546
       466.158         363.238  
 112969717.045    88028361.3464   21497421.045 7  21497420.47545  21497425.90745
      -618.667        -482.088  
 120718440.828    94066319.9394   22971947.473 7  22971947.27944  22971951.28444
      2957.263        2304.355  
 122262190.062    95269247.8444   23265711.785 6  23265711.47343  23265716.82743
      2658.516        2071.567  
 126869803.441    98859597.4334   24142511.961 6  24142511.64543  24142516.70843
      3378.356        2632.481  
 08 11  5  5 14 30.0000000  0  9G19G25G 7G27G11G 8G28G32G20         
 115964985.801    90362332.2174   22067403.092 7  22067402.15145  22067405.20645
     -2029.901       -1581.741  
 124480227.916    96997575.9804   23687802.065 6  23687801.29443  23687808.18443
     -3141.037       -2447.549  
 117864200.119    91842231.4744   22428812.651 7  22428813.32645  22428817.74845
     -2880.087       -2244.220  
 116812478.030    91022707.3474   22228673.750 7  22228673.20944  22228679.63544
     -1924.861       -1499.889  
 105034928.345    81845407.6974   19987479.915 8  19987479.65046  19987482.81346
       449.875         350.558  
 112988587.974    88043065.9504   21501011.671 7  21501011.01545  21501016.61645
      -639.469        -498.288  
 120629769.869    93997225.7104   22955073.947 7  22955073.74344  22955077.76444
      2954.029        2301.846  
 122182524.779    95207171.0224   23250551.987 6  23250550.91643  23250557.56843
      2652.388        2066.792  
 126768442.184    98780614.7004   24123223.145 6  24123221.81442  24123228.25342
      3378.968        2632.958  
 08 11  5  5 15  0.0000000  0  9G19G25G 7G27G11G 8G28G32G20         
 116025941.027    90409829.7884   22079002.275 7  22079001.60945  22079004.47445
     -2033.368       -1584.447  
 124574505.188    97071038.7164   23705743.663 6  23705743.46643  23705749.31943
     -3143.667       -2449.620  
 117950755.053    91909676.8364   22445284.131 7  22445284.26345  22445288.72545
     -2889.803       -2251.796  
 116870422.319    91067858.7264   22239700.741 7  22239700.59144  22239705.64644
     -1937.675       -1509.884  
 105021687.511    81835090.1714   19984960.471 8  19984960.17246  19984963.26346
       433.238         337.586  
 113008095.558    88058266.6514   21504724.100 7  21504723.80545  21504728.66045
      -660.620        -514.771  
 120541210.497    93928218.4274   22938221.571 7  22938220.66244  22938225.22744
      2950.334        2298.950  
 122103057.668    95145248.6444   23235429.118 6  23235428.75443  23235435.25243
      2645.801        2061.652  
 126667077.019    98701628.9314   24103933.765 6  24103932.46542  24103939.76742
      3379.087        2633.061  
 08 11  5  5 15 30.0000000  0  9G19G25G 7G27G11G 8G28G32G20         
 116086993.618    90457403.2054   22090620.145 7  22090619.23645  22090622.49645
     -2036.650       -1586.998  
 124668853.424    97144556.7464   23723696.814 6  23723696.62743  23723703.02343
     -3146.050       -2451.459  
 118037594.164    91977343.6434   22461808.954 7  22461808.94245  22461813.58945
     -2899.300       -2259.192  
 116928743.906    91113304.0834   22250798.819 7  22250798.35844  22250804.44244
     -1950.266       -1519.681  
 105008940.105    81825157.1444   19982534.613 7  19982534.33446  19982537.64946
       416.736         324.728  
 113028231.046    88073956.6364   21508555.747 7  21508555.52545  21508559.95545
      -681.577        -531.105  
 120452757.156    93859293.7674   22921389.535 7  22921388.94144  22921392.81944
      2946.694        2296.124  
 122023784.338    95083477.2624   23220344.427 6  23220343.74043  23220350.44443
      2639.230        2056.537  
 126565703.259    98622636.4774   24084642.743 6  24084641.17942  24084649.01142
      3379.295        2633.229  
 08 11  5  5 16  0.0000000  0  9G19G25G 7G27G11G 8G28G32G20         
 116148147.614    90505055.6534   22102257.568 7  22102256.75045  22102259.21345
     -2040.324       -1589.862  
 124763274.268    97218131.3604   23741664.878 6  23741664.83543  23741670.55643
     -3148.725       -2453.547  
 118124718.932    92045233.0434   22478388.316 7  22478388.58745  22478392.59745
     -2909.058       -2266.803  
 116987444.898    91159045.0794   22261968.833 7  22261968.20244  22261974.53144
     -1963.180       -1529.744  
 104996690.045    81815611.6604   19980203.630 8  19980203.25046  19980206.87546
       399.879         311.590  
 113048997.610    88090138.3644   21512507.158 8  21512506.74445  21512511.72845
      -702.898        -547.716  
 120364416.507    93790456.9094   22904578.784 7  22904577.98244  22904582.25544
      2942.614        2292.949  
 121944712.237    95021862.6694   23205296.814 6  23205296.43143  23205303.44043
      2632.167        2051.056  
 126464328.269    98543643.0564   24065351.090 6  24065350.08542  24065357.29742
      3378.958        2632.937  
 08 11  5  5 16 30.0000000  0  9G19G25G 7G27G11G 8G28G32G20         
 116209388.776    90552776.0344   22113911.692 7  22113910.71845  22113912.88345
     -2042.878       -1591.850  
 124857751.166    97291749.6564   23759643.145 6  23759642.97543  23759649.89243
     -3150.162       -2454.661  
 118212112.404    92113331.8164   22495018.867 7  22495019.30445  22495023.78745
     -2917.619       -2273.465  
 117046509.089    91205069.0894   22273208.223 7  22273207.37444  22273214.56244
     -1974.896       -1538.869  
 104984923.129    81806442.6464   19977964.505 8  19977963.97046  19977967.41046
       384.130         299.328  
 113070380.532    88106800.3644   21516576.203 7  21516575.71145  21516580.88645
      -723.083        -563.435  
 120276176.805    93721698.7114   22887786.928 7  22887786.39944  22887790.74744
      2939.557        2290.569  
 121865830.781    94960396.6654   23190286.325 6  23190285.40743  23190292.67943
      2626.117        2046.314  
 126362941.094    98464640.1174   24046057.588 6  24046057.23642  24046063.74342
      3379.687        2633.531  
 08 11  5  5 17  0.0000000  0  9G19G25G 7G27G11G 8G28G32G20         
 116270726.331    90600571.5234   22125584.099 7  22125583.01545  22125585.50345
     -2046.923       -1595.001  
 124952290.833    97365416.8434   23777633.781 6  23777633.55843  23777639.22443
     -3153.064       -2456.925  
 118299780.976    92181644.9544   22511701.662 7  22511701.81445  22511706.30145
     -2927.578       -2281.229  
 117105943.741    91251381.7724   22284518.952 7  22284518.41544  22284524.87144
     -1988.032       -1549.108  
 104973648.408    81797657.1614   19975818.989 8  19975818.60846  19975821.91046
       366.897         285.894  
 113092388.245    88123949.2214   21520764.254 7  21520763.72745  21520768.82245
      -744.711        -580.295  
 120188049.843    93653028.3784   22871017.041 7  22871016.25944  22871021.08944
      2934.943        2286.964  
 121787152.704    94899089.1144   23175315.075 6  23175314.05143  23175320.06843
      2618.468        2040.351  
 126261554.456    98385637.6084   24026765.034 6  24026764.39742  24026769.88642
      3378.785        2632.826  
 08 11  5  5 17 30.0000000  0  9G19G25G 7G27G11G 8G28G32G20         
 116332172.996    90648452.0344   22137276.535 7  22137275.70045  22137278.18545
     -2049.614       -1597.102  
 125046903.895    97439141.2434   23795637.499 6  23795637.43443  23795644.45743
     -3154.545       -2458.084  
 118387735.357    92250180.8084   22528439.301 7  22528439.69645  22528443.59545
     -2936.107       -2287.874  
 117165759.797    91297991.6534   22295901.782 7  22295901.83044  22295907.51344
     -1999.774       -1558.270  
 104962879.009    81789265.4394   19973769.656 8  19973769.20246  19973772.35846
       350.986         273.499  
 113115032.873    88141594.3744   21525073.067 7  21525072.24545  21525078.23945
      -765.002        -596.103  
 120100051.062    93584457.9214   22854270.841 7  22854270.05944  22854275.41244
      2931.557        2284.339  
 121708694.445    94837952.8524   23160384.480 6  23160383.52043  23160391.21143
      2612.021        2035.333  
 126160184.364    98306647.9904   24007475.198 6  24007474.17842  24007479.42842
      3379.115        2633.057  
 08 11  5  5 18  0.0000000  0  9G19G25G 7G27G11G 8G28G32G20         
 116393704.916    90696398.9584   22148985.366 7  22148984.50945  22148987.64645
     -2052.702       -1599.501  
 125141564.293    97512902.5134   23813651.233 7  23813651.43243  23813656.90643
     -3156.315       -2459.454  
 118475948.759    92318918.4834   22545225.330 7  22545225.70145  22545230.01345
     -2944.954       -2294.768  
 117225931.647    91344878.7774   22307352.221 7  22307352.72844  22307357.33244
     -2011.849       -1567.673  
 104952590.983    81781248.8054   19971811.690 8  19971811.23046  19971814.57946
       334.702         260.803  
 113138289.710    88159716.5664   21529498.845 7  21529498.11445  21529503.98845
      -785.643        -612.184  
 120012159.251    93515970.8134   22837545.795 7  22837545.46744  22837550.01444
      2927.703        2281.328  
 121630435.871    94776972.2254   23145492.013 6  23145491.39243  23145497.64343
      2605.036        2029.895  
 126058810.783    98227655.6564   23988184.524 7  23988183.60843  23988189.30043
      3378.946        2632.954  
 08 11  5  5 18 30.0000000  0  9G19G25G 7G27G11G 8G28G32G20         
 116455328.017    90744416.9454   22160711.968 7  22160710.78645  22160714.33245
     -2056.145       -1602.194  
 125236275.315    97586703.2354   23831674.490 7  23831674.23244  23831680.25644
     -3158.368       -2461.060  
 118564424.455    92387860.5524   22562061.792 7  22562062.06845  22562066.37745
     -2954.052       -2301.857  
 117286462.931    91392045.9794   22318870.682 7  22318870.34144  22318876.40144
     -2024.208       -1577.301  
 104942789.720    81773611.4714   19969946.344 8  19969946.06946  19969949.36946
       318.059         247.836  
 113162163.758    88178319.7104   21534041.802 7  21534041.02945  21534047.08245
      -806.598        -628.522  
 119924382.501    93447573.3724   22820842.404 7  22820842.63644  22820846.21744
      2923.416        2277.971  
 121552386.171    94716154.3194   23130639.702 6  23130639.70543  23130645.89543
      2597.611        2024.107  
 125957442.920    98148667.7794   23968894.918 7  23968895.41943  23968899.59843
      3378.259        2632.401  
 08 11  5  5 19  0.0000000  0  9G19G25G 7G27G11G 8G28G32G20         
 116517052.803    90792514.1654   22172458.277 7  22172457.12845  22172459.89345
     -2059.240       -1604.602  
 125331045.118    97660549.7614   23849707.481 7  23849707.66143  23849713.99843
     -3159.974       -2462.312  
 118653169.892    92457012.8004   22578949.357 7  22578950.37645  22578954.42445
     -2962.716       -2308.613  
 117347362.026    91439499.7844   22330459.418 7  22330458.87544  22330464.65344
     -2036.138       -1586.602  
 104933485.745    81766361.6294   19968175.976 7  19968175.40446  19968179.13146
       301.784         235.156  
 113186664.617    88197411.2734   21538704.272 7  21538703.95345  21538709.64045
      -827.192        -644.564  
 119836734.048    93379275.8974   22804163.659 7  22804163.54244  22804167.39244
      2919.406        2274.862  
 121474559.301    94655510.0584   23115829.798 6  23115829.39743  23115836.07543
      2590.423        2018.514  
 125856094.461    98069694.9794   23949609.164 7  23949609.05243  23949613.59243
      3377.870        2632.106  
 08 11  5  5 19 30.0000000  0  9G19G25G 7G27G11G 8G28G32G20         
 116578878.723    90840690.1954   22184222.952 7  22184221.95045  22184225.05145
     -2062.793       -1607.370  
 125425871.187    97734440.1164   23867753.039 6  23867753.40343  23867758.65143
     -3162.020       -2463.908  
 118742182.837    92526373.5034   22595888.633 7  22595888.83245  22595893.08845
     -2971.764       -2315.659  
 117408626.880    91487238.5994   22342118.067 7  22342117.32544  22342123.49544
     -2048.492       -1596.219  
 104924678.767    81759499.0524   19966500.141 7  19966499.85746  19966503.11446
       285.040         222.113  
 113211791.340    88216990.5194   21543485.682 7  21543485.57145  21543491.10045
      -848.211        -660.939  
 119749216.382    93311080.3284   22787509.507 7  22787509.34944  22787512.79444
      2914.794        2271.275  
 121396958.683    94595042.0904   23101062.320 6  23101061.89743  23101069.96243
      2582.650        2012.446  
 125754768.631    97990739.8474   23930327.230 7  23930326.62243  23930332.57643
      3376.883        2631.341  
 08 11  5  5 20  0.0000000  0  9G19G25G 7G27G11G 8G28G32G20         
 116640806.385    90888945.4884   22196007.198 7  22196006.25345  22196009.32745
     -2065.635       -1609.581  
 125520751.406    97808372.6984   23885808.215 6  23885808.75043  23885814.27143
     -3163.239       -2464.859  
 118831460.683    92595940.6204   22612876.602 7  22612877.34244  22612881.89044
     -2979.997       -2322.079  
 117470255.674    91535260.9924   22353845.331 7  22353844.52644  22353850.79644
     -2060.024       -1605.210  
 104916369.282    81753024.1344   19964918.848 8  19964918.71846  19964921.83446
       269.006         209.614  
 113237543.184    88237056.8824   21548386.058 7  21548385.60245  21548390.84245
      -868.491        -676.745  
 119661832.315    93242988.8684   22770881.305 7  22770880.48744  22770884.38744
      2910.854        2268.195  
 121319588.171    94534753.4204   23086339.978 6  23086339.28843  23086345.96443
      2575.439        2006.845  
 125653469.092    97911805.2034   23911050.586 6  23911050.19143  23911056.67043
      3376.480        2631.033  
 08 11  5  5 20 30.0000000  0  9G19G25G 7G27G11G 8G28G32G20         
 116702826.735    90937273.0084   22207809.330 7  22207808.18945  22207811.55245
     -2069.029       -1612.229  
 125615674.527    97882338.6954   23903872.103 6  23903871.50043  23903878.62243
     -3164.929       -2466.167  
 118920991.844    92665705.1274   22629914.678 7  22629914.90045  22629919.36545
     -2988.688       -2328.847  
 117532237.431    91583558.4384   22365640.242 7  22365640.00544  22365645.68644
     -2072.045       -1614.576  
 104908547.901    81746929.5484   19963430.566 8  19963430.50046  19963433.52746
       252.444         196.707  
 113263910.380    88257602.7364   21553404.191 7  21553403.78445  21553409.08445
      -889.273        -692.941  
 119574575.466    93174996.5284   22754276.576 7  22754276.10344  22754280.06144
      2906.273        2264.624  
 121242442.318    94474639.8064   23071659.778 6  23071658.56843  23071664.57043
      2567.610        2000.743  
 125552190.301    97832886.7324   23891777.186 7  23891776.37443  23891783.81943
      3375.444        2630.217  
 08 11  5  5 21  0.0000000  0  9G19G25G 7G27G11G 8G28G32G20         
 116764954.622    90985684.3244   22219632.092 7  22219631.28545  22219634.87345
     -2072.847       -1615.205  
 125710653.014    97956347.8204   23921945.418 6  23921945.24343  23921951.43043
     -3166.977       -2467.777  
 119010788.205    92735676.2714   22647002.021 7  22647002.24144  22647006.94144
     -2997.750       -2335.900  
 117594585.049    91632140.9664   22377505.028 7  22377504.79944  22377510.01244
     -2084.446       -1624.247  
 104901229.361    81741226.7884   19962037.859 8  19962037.57946  19962041.02246
       235.444         183.460  
 113290906.562    88278638.7124   21558540.927 7  21558540.32745  21558546.08545
      -910.477        -709.470  
 119487462.867    93107116.6074   22737699.594 7  22737698.84044  22737703.35944
      2901.193        2260.665  
 121165539.448    94414715.5534   23057025.230 6  23057024.52543  23057031.33143
      2559.195        1994.180  
 125450950.450    97753998.5904   23872512.110 7  23872510.62843  23872518.30443
      3373.838        2628.959  
 08 11  5  5 21 30.0000000  0  9G19G25G 7G27G11G 8G28G32G20         
 116827182.599    91034173.6394   22231473.065 7  22231471.89745  22231475.71945
     -2075.988       -1617.659  
 125805677.069    98030392.4654   23940028.500 6  23940028.00243  23940033.95643
     -3168.260       -2468.760  
 119100839.916    92805846.4004   22664137.803 7  22664137.93344  22664143.03044
     -3005.991       -2342.337  
 117657289.022    91681001.1834   22389436.703 7  22389436.17544  22389442.32144
     -2096.077       -1633.313  
 104894406.144    81735909.9904   19960739.620 8  19960739.28646  19960742.48645
       219.155         170.767  
 113318523.315    88300158.2484   21563796.620 7  21563796.07845  21563801.28245
      -930.937        -725.406  
 119400490.258    93039345.7644   22721149.151 7  22721148.68244  22721152.86344
      2896.689        2257.147  
 121088875.789    94354977.6934   23042436.969 7  23042436.65044  23042442.08044
      2551.404        1988.108  
 125349745.672    97675137.7954   23853253.885 7  23853252.85443  23853259.21743
      3372.836        2628.161  
 08 11  5  5 22  0.0000000  0  9G19G25G 7G27G11G 8G28G32G20         
 116889497.044    91082730.3214   22243331.490 7  22243330.82045  22243333.78445
     -2078.418       -1619.543  
 125900730.649    98104460.1104   23958115.738 6  23958115.61143  23958122.55043
     -3168.733       -2469.143  
 119191130.597    92876202.7304   22681320.671 7  22681320.28944  22681325.02844
     -3013.468       -2348.160  
 117720333.383    91730126.6144   22401433.828 7  22401432.59344  22401438.95744
     -2106.937       -1641.766  
 104888064.018    81730968.0704   19959532.588 8  19959532.28746  19959535.26846
       203.558         158.614  
 113346745.822    88322149.7954   21569167.217 7  21569166.60945  21569172.07845
      -950.661        -740.774  
 119313646.108    92971675.0114   22704624.061 7  22704623.15144  22704627.09444
      2892.792        2254.124  
 121012440.840    94295418.0494   23027891.952 7  23027891.85344  23027897.92544
      2544.164        1982.460  
 125248565.538    97596296.1954   23833999.728 7  23833998.86343  23834004.76743
      3372.394        2627.830  
 08 11  5  5 22 30.0000000  0  9G19G25G 7G27G11G 8G28G32G20         
 116951905.150    91131359.9944   22255207.673 7  22255206.05745  22255209.42045
     -2081.571       -1622.000  
 125995818.555    98178554.4924   23976210.581 6  23976209.73843  23976217.26443
     -3169.886       -2470.026  
 119281664.448    92946748.5464   22698548.223 7  22698548.52644  22698553.27044
     -3021.559       -2354.450  
 117783723.032    91779521.1244   22413496.354 7  22413495.15644  22413502.24844
     -2118.453       -1650.738  
 104882210.051    81726406.5294   19958418.554 7  19958418.35546  19958421.64145
       187.251         145.915  
 113375580.057    88344618.0144   21574654.046 7  21574653.37245  21574659.18145
      -971.068        -756.667  
 119226940.338    92904112.0794   22688123.519 7  22688123.25744  22688126.94144
      2888.122        2250.490  
 120936245.534    94236045.1574   23013391.889 7  23013391.59643  23013397.70743
      2536.097        1976.191  
 125147420.862    97517482.2294   23814752.538 7  23814751.69743  23814758.30943
      3371.135        2626.844  
 08 11  5  5 23  0.0000000  0  9G19G25G 7G27G11G 8G28G32G20         
 117014399.759    91180057.0754   22267099.768 7  22267098.85845  22267102.14045
     -2084.633       -1624.395  
 126090931.055    98252668.0584   23994309.629 6  23994310.16943  23994316.19243
     -3170.832       -2470.781  
 119372431.625    93017476.1934   22715820.909 7  22715820.97344  22715825.88144
     -3029.476       -2360.634  
 117847448.955    91829177.6564   22425623.344 7  22425622.66044  22425628.54944
     -2129.817       -1659.599  
 104876836.716    81722219.5174   19957396.109 8  19957395.94446  19957398.94246
       171.059         133.288  
 113405017.959    88367556.6254   21580255.670 7  21580255.10145  21580260.68845
      -991.365        -772.493  
 119140368.273    92836653.3484   22671649.680 7  22671649.19544  22671653.87644
      2883.424        2246.818  
 120860285.756    94176855.8154   22998937.759 7  22998936.93244  22998943.34944
      2527.982        1969.853  
 125046307.513    97438692.6544   23795511.890 7  23795510.55543  23795517.22343
      3369.846        2625.851  
 08 11  5  5 23 30.0000000  0  9G19G25G 7G27G11G 8G28G32G20         
 117076994.536    91228832.2014   22279011.705 7  22279010.61545  22279014.00945
     -2088.427       -1627.348  
 126186079.924    98326809.9304   24012416.524 6  24012416.43443  24012422.72843
     -3172.460       -2472.049  
 119463443.511    93088394.5054   22733139.822 7  22733139.66044  22733144.56244
     -3038.028       -2367.289  
 117911522.998    91879105.4584   22437816.278 7  22437815.96044  22437821.54544
     -2141.829       -1668.950  
 104871957.925    81718417.8544   19956467.577 7  19956467.55346  19956470.68546
       154.139         120.105  
 113435072.314    88390975.5874   21585975.147 7  21585974.46145  21585979.82045
     -1012.310        -788.813  
 119053946.685    92769311.8594   22655203.987 7  22655203.64244  22655208.50844
      2877.938        2242.543  
 120784579.298    94117863.8604   22984530.951 7  22984531.29144  22984536.46244
      2519.025        1962.885  
 124945243.103    97359941.2204   23776279.289 7  23776278.71643  23776284.43043
      3367.702        2624.181  
 08 11  5  5 24  0.0000000  0  9G19G25G 7G27G11G 8G28G32G20         
 117139686.813    91277683.3104   22290941.644 7  22290941.06045  22290943.99845
     -2091.689       -1629.894  
 126281259.971    98400976.1124   24030529.256 6  24030528.99743  24030534.73143
     -3173.505       -2472.854  
 119554694.605    93159499.2204   22750503.909 7  22750504.39344  22750508.76544
     -3045.986       -2373.488  
 117975939.933    91929300.4234   22450074.696 7  22450074.60744  22450079.69244
     -2153.260       -1677.859  
 104867570.361    81714998.9614   19955632.904 8  19955632.91346  19955635.96646
       137.742         107.335  
 113465738.817    88414871.5494   21591810.413 7  21591809.82345  21591815.78245
     -1032.742        -804.732  
 118967675.159    92702087.3174   22638787.891 7  22638787.19144  22638791.02644
      2872.867        2238.587  
 120709126.635    94059069.6804   22970173.320 7  22970172.80044  22970178.36344
      2510.490        1956.225  
 124844227.971    97281228.1874   23757056.343 6  23757055.93943  23757061.72743
      3365.987        2622.855  
 08 11  5  5 24 30.0000000  0  9G19G25G 7G27G11G 8G28G32G20         
 117202480.473    91326613.4164   22302890.101 7  22302889.34745  22302892.53145
     -2095.229       -1632.644  
 126376472.947    98475167.9714   24048647.723 6  24048646.54643  24048653.38343
     -3174.688       -2473.786  
 119646186.061    93230791.2374   22767914.805 7  22767914.54244  22767919.32544
     -3054.090       -2379.808  
 118040701.705    91979764.1104   22462398.135 7  22462397.99144  22462403.32844
     -2164.858       -1686.892  
 104863677.872    81711965.8494   19954892.149 8  19954892.03146  19954895.23246
       121.098          94.363  
 113497020.545    88439246.9134   21597763.757 7  21597763.06545  21597767.93645
     -1053.377        -820.811  
 118881560.348    92634984.8764   22622400.204 7  22622399.81844  22622404.01844
      2867.445        2234.370  
 120633935.364    94000479.1994   22955863.588 6  22955862.87344  22955869.38044
      2501.561        1949.266  
 124743269.901    97202559.6014   23737844.966 7  23737844.56943  23737850.21743
      3363.884        2621.207  
 08 11  5  5 25  0.0000000  0  9G19G25G 7G27G11G 8G28G32G20         
 117265366.420    91375615.4254   22314857.304 7  22314856.41045  22314859.35345
     -2097.765       -1634.612  
 126471707.055    98549376.2634   24066770.250 6  24066769.59743  24066776.02143
     -3174.821       -2473.867  
 119737906.146    93302261.3814   22785368.328 7  22785369.17744  22785372.90644
     -3061.135       -2385.302  
 118105796.705    92030487.4604   22474785.284 7  22474784.57944  22474790.77644
     -2175.384       -1695.104  
 104860270.929    81709311.0834   19954243.857 7  19954243.25046  19954246.69946
       105.451          82.172  
 113528907.386    88464093.7904   21603831.029 7  21603830.61345  21603835.75545
     -1072.995        -836.094  
 118795595.574    92567999.3444   22606041.950 7  22606041.23244  22606045.31544
      2862.937        2230.862  
 120558999.534    93942087.7434   22941604.266 7  22941603.52844  22941609.74644
      2493.546        1943.021  
 124642362.826    97123930.7724   23718642.202 6  23718641.66743  23718648.02943
      3362.640        2620.239  
 08 11  5  5 25 30.0000000  0  9G19G25G 7G27G11G 8G28G32G20         
 117328337.559    91424683.8414   22326840.490 7  22326839.48245  22326842.50145
     -2100.155       -1636.490  
 126566952.668    98623593.5474   24084894.244 6  24084894.27143  24084900.10043
     -3174.687       -2473.771  
 119829844.793    93373901.8454   22802863.817 7  22802863.96844  22802868.82344
     -3067.916       -2390.573  
 118171215.503    92081463.0974   22487233.800 6  22487233.08644  22487239.43044
     -2185.679       -1703.124  
 104857341.785    81707028.6344   19953686.603 8  19953686.35046  19953689.40746
        90.007          70.133  
 113561390.047    88489404.9404   21610012.322 7  21610011.52045  21610016.90145
     -1092.349        -851.186  
 118709776.207    92501127.1244   22589711.034 7  22589710.57044  22589714.87044
      2858.508        2227.405  
 120484315.280    93883892.3194   22927391.897 7  22927391.57844  22927397.22044
      2485.573        1936.812  
 124541502.882    97045338.6514   23699449.620 6  23699448.33543  23699454.83943
      3361.489        2619.338  
 08 11  5  5 26  0.0000000  0  9G19G25G 7G27G11G 8G28G32G20         
 117391401.400    91473824.4774   22338840.795 7  22338840.22344  22338842.87944
     -2104.335       -1639.749  
 126662215.128    98697823.9514   24103022.821 6  24103022.64643  24103028.18443
     -3176.324       -2475.051  
 119922006.561    93445716.1724   22820401.728 7  22820401.89544  22820406.74744
     -3076.402       -2397.199  
 118236963.557    92132695.3164   22499745.662 6  22499744.84944  22499750.93144
     -2197.718       -1712.507  
 104854897.722    81705124.1664   19953221.143 7  19953220.82446  19953224.37046
        72.718          56.663  
 113594475.078    88515185.4654   21616308.836 8  21616308.47345  21616313.79245
     -1113.527        -867.687  
 118624112.403    92434376.1184   22573409.664 7  22573409.26044  22573413.44144
      2852.168        2222.472  
 120409893.669    93825901.5414   22913230.079 7  22913229.82744  22913235.67544
      2475.635        1929.071  
 124440701.307    96966791.9984   23680267.616 6  23680266.32143  23680273.29443
      3358.373        2616.919  
 08 11  5  5 26 30.0000000  0  8G19G 7G27G11G 8G28G32G20            
 117454553.230    91523033.6724   22350858.825 7  22350858.29245  22350860.06345
     -2106.430       -1641.372  
 120014384.283    93517698.7674   22837980.130 7  22837980.48244  22837986.04044
     -3082.722       -2402.127  
 118303033.977    92184178.7304   22512318.083 7  22512317.55944  22512323.94444
     -2207.596       -1720.207  
 104852933.950    81703593.9594   19952847.718 8  19952847.33246  19952850.52645
        57.577          44.861  
 113628156.679    88541430.8614   21622718.060 7  21622717.60245  21622723.18945
     -1132.541        -882.497  
 118538602.254    92367744.8544   22557137.429 7  22557136.86644  22557141.31144
      2847.857        2219.103  
 120335733.597    93768114.5654   22899117.736 7  22899117.54644  22899123.49144
      2467.691        1922.863  
 124339956.820    96888289.8344   23661095.826 6  23661094.90643  23661102.33043
      3357.260        2616.055  
 08 11  5  5 27  0.0000000  0  8G19G 7G27G11G 8G28G32G20            
 117517799.891    91572316.7664   22362894.268 7  22362893.62445  22362895.13445
     -2110.070       -1644.209  
 120106982.086    93589852.8414   22855600.814 7  22855601.13644  22855606.16344
     -3090.490       -2408.171  
 118369431.531    92235917.0414   22524953.125 6  22524953.30044  22524959.40844
     -2218.937       -1729.035  
 104851456.376    81702442.6074   19952566.389 8  19952566.14546  19952569.34246
        40.889          31.856  
 113662440.332    88568145.3734   21629242.108 7  21629241.58245  21629246.98045
     -1153.070        -898.495  
 118453255.250    92301240.7064   22540896.388 7  22540896.07544  22540900.39244
      2841.899        2214.480  
 120261845.317    93710539.3484   22885057.466 7  22885056.67743  22885063.25344
      2458.088        1915.393  
 124239279.752    96809840.2114   23641938.046 6  23641936.97743  23641943.43043
      3354.482        2613.866  
 08 11  5  5 27 30.0000000  0  8G19G 7G27G11G 8G28G32G20            
 117581131.581    91621666.1144   22374945.861 7  22374944.91245  22374947.07845
     -2112.521       -1646.115  
 120199787.070    93662168.3804   22873260.992 7  22873261.31044  22873266.59644
     -3096.977       -2413.219  
 118436143.951    92287900.7064   22537647.690 6  22537646.95544  22537654.59844
     -2229.013       -1736.901  
 104850454.965    81701662.2894   19952375.870 7  19952375.61846  19952378.54146
        25.385          19.785  
 113697314.322    88595319.9054   21635878.753 7  21635878.15845  21635883.16445
     -1172.331        -913.505  
 118368063.745    92234857.7444   22524685.023 7  22524684.23044  22524688.95044
      2837.032        2210.668  
 120188221.999    93653170.5994   22871047.300 7  22871046.20343  22871052.51943
      2449.610        1908.785  
 124138663.276    96731437.7854   23622791.458 6  23622790.70243  23622796.93343
      3352.745        2612.536  
 08 11  5  5 28  0.0000000  0  8G19G 7G27G11G 8G28G32G20            
 117644553.643    91671085.8834   22387014.493 7  22387013.37944  22387015.82544
     -2115.329       -1648.308  
 120292801.882    93734647.3964   22890961.433 7  22890961.43244  22890966.70144
     -3103.728       -2418.483  
 118503174.252    92340132.0724   22550403.619 7  22550403.16644  22550409.75744
     -2239.375       -1744.965  
 104849934.523    81701256.7564   19952276.909 8  19952276.82946  19952279.78746
         9.578           7.463  
 113732782.673    88622957.5584   21642627.641 7  21642627.25745  21642632.34345
     -1191.932        -928.776  
 118283036.068    92168602.4274   22508504.658 7  22508504.36544  22508508.76244
      2831.743        2206.551  
 120114872.531    93596015.2114   22857089.402 7  22857088.95944  22857094.84044
      2440.646        1901.798  
 124038116.517    96653089.7054   23603658.536 7  23603657.69743  23603663.18843
      3350.620        2610.865  
 08 11  5  5 28 30.0000000  0  8G19G 7G27G11G 8G28G32G20            
 117708068.185    91720577.7234   22399100.492 7  22399099.99144  22399102.26444
     -2119.119       -1651.260  
 120386025.838    93807289.3924   22908701.628 7  22908701.75444  22908706.82244
     -3111.354       -2424.421  
 118570522.199    92392610.9614   22563219.410 7  22563219.38444  22563225.58844
     -2250.597       -1753.715  
 104849896.681    81701227.2804   19952269.433 7  19952269.30846  19952272.69946
        -7.188          -5.603  
 113768846.341    88651059.1064   21649490.159 7  21649489.63145  21649494.90945
     -1212.452        -944.772  
 118198176.656    92102478.2234   22492356.915 7  22492356.31744  22492360.20844
      2825.399        2201.619  
 120041802.333    93539077.4524   22843184.791 7  22843184.60544  22843189.85044
      2430.565        1893.944  
 123937644.457    96574799.8324   23584539.563 6  23584538.90643  23584543.84443
      3347.350        2608.323  
 08 11  5  5 29  0.0000000  0  8G19G 7G27G11G 8G28G32G20            
 117771677.168    91770143.1484   22411204.972 7  22411203.82744  22411207.27744
     -2121.796       -1653.338  
 120479458.285    93880093.8534   22926480.974 7  22926481.49144  22926486.08044
     -3117.797       -2429.458  
 118638187.550    92445337.1724   22576095.803 7  22576094.97844  22576101.72744
     -2260.713       -1761.585  
 104850342.909    81701575.0014   19952354.659 8  19952354.54446  19952357.55746
       -22.867         -17.816  
 113805505.494    88679624.6564   21656466.311 7  21656465.61345  21656471.49245
     -1231.828        -959.858  
 118113490.143    92036488.7454   22476241.381 7  22476241.08744  22476244.87644
      2820.025        2197.434  
 119969016.833    93482361.5204   22829334.388 7  22829334.20644  22829339.02144
      2421.459        1886.855  
 123837252.824    96496572.6554   23565435.134 7  23565434.33243  23565440.66943
      3345.068        2606.550  
 08 11  5  5 29 30.0000000  0  8G19G 7G27G11G 8G28G32G20            
 117835366.589    91819771.2524   22423324.890 7  22423323.85645  22423327.38145
     -2124.752       -1655.651  
 120573082.239    93953047.5364   22944296.355 7  22944296.49644  22944302.72844
     -3124.359       -2434.569  
 118706154.076    92498298.0784   22589029.334 7  22589029.38944  22589034.39844
     -2270.949       -1769.571  
 104851258.974    81702288.8294   19952528.863 7  19952528.51146  19952531.83346
       -38.767         -30.212  
 113842744.619    88708642.1464   21663553.146 7  21663552.67945  21663557.63545
     -1251.367        -975.094  
 118028965.373    91970625.3074   22460156.835 7  22460156.65944  22460160.38744
      2814.359        2193.014  
 119896505.372    93425859.1194   22815535.519 7  22815535.43444  22815541.16344
      2412.028        1879.496  
 123736931.232    96418400.0634   23546344.378 7  23546343.05743  23546349.74443
      3342.430        2604.484  
 08 11  5  5 30  0.0000000  0  8G19G 7G27G11G 8G28G32G20            
 117899160.502    91869480.7744   22435464.474 7  22435463.72145  22435466.92545
     -2127.350       -1657.670  
 120666919.066    94026167.0794   22962153.890 6  22962153.37444  22962158.91244
     -3130.561       -2439.393  
 118774443.300    92551510.4324   22602024.306 7  22602024.51344  22602029.48344
     -2280.807       -1777.252  
 104852668.057    81703386.8304   19952796.908 7  19952796.59746  19952800.00046
       -54.325         -42.331  
 113880586.232    88738129.0884   21670754.201 7  21670753.62945  21670759.04945
     -1270.562        -990.042  
 117944628.840    91904908.5454   22444108.341 7  22444107.68744  22444111.89145
      2808.904        2188.750  
 119824295.256    93369591.5294   22801794.472 7  22801793.92444  22801800.34944
      2402.788        1872.305  
 123636706.892    96340303.2614   23527272.474 7  23527271.56743  23527277.37543
      3339.992        2602.595  
 08 11  5  5 30 30.0000000  0  8G19G 7G27G11G 8G28G32G20            
 117963034.980    91919253.0844   22447619.234 7  22447618.09944  22447621.02644
     -2130.819       -1660.375  
 120760942.586    94099432.1054   22980045.341 6  22980044.41944  22980050.52344
     -3137.521       -2444.819  
 118843029.140    92604953.9074   22615075.755 6  22615075.03244  22615081.64744
     -2291.419       -1785.520  
 104854545.751    81704849.9854   19953154.398 8  19953154.17246  19953157.41546
       -70.715         -55.103  
 113919004.907    88768065.7004   21678065.132 8  21678064.97045  21678070.09145
     -1290.555       -1005.628  
 117860459.387    91839321.9694   22428091.208 7  22428090.65844  22428095.09844
      2802.506        2183.769  
 119752365.961    93313542.7604   22788106.355 7  22788106.10244  22788112.60544
      2392.603        1864.371  
 123536559.350    96262266.2864   23508214.876 7  23508214.46443  23508218.77843
      3336.615        2599.965  
 08 11  5  5 31  0.0000000  0  8G19G 7G27G11G 8G28G32G20            
 118026997.290    91969093.8344   22459790.949 7  22459789.84745  22459793.09945
     -2132.955       -1662.031  
 120855156.306    94172845.3404   22997973.994 7  22997973.46144  22997979.05744
     -3143.010       -2449.094  
 118911916.156    92658632.0724   22628184.539 7  22628184.27544  22628190.75044
     -2300.629       -1792.693  
 104856898.624    81706683.4024   19953602.245 7  19953601.90446  19953604.97946
       -85.753         -66.820  
 113958006.413    88798456.4714   21685486.626 7  21685485.86545  21685491.47045
     -1309.169       -1020.121  
 117776466.736    91773873.1634   22412107.773 7  22412106.59144  22412111.84244
      2797.365        2179.772  
 119680727.963    93257720.9714   22774474.484 7  22774473.99544  22774479.51044
      2383.643        1857.380  
 123436499.353    96184297.5764   23489173.936 6  23489172.42943  23489178.79343
      3334.417        2598.241  
 08 11  5  5 31 30.0000000  0  8G19G 7G27G11G 8G28G32G20            
 118091034.127    92018992.6464   22471976.685 7  22471975.97945  22471979.20245
     -2135.787       -1664.255  
 120949544.380    94246394.4484   23015936.051 7  23015935.88844  23015940.66944
     -3149.156       -2453.887  
 118981088.797    92712532.8074   22641347.936 7  22641347.66144  22641353.45544
     -2310.477       -1800.372  
 104859712.915    81708876.3654   19954137.440 8  19954137.24846  19954140.71946
      -101.489         -79.090  
 113997575.890    88829289.8134   21693016.035 7  21693015.23945  21693021.17045
     -1328.402       -1035.116  
 117692640.303    91708553.8764   22396155.909 7  22396155.33945  22396160.55045
      2791.416        2175.133  
 119609371.363    93202118.4464   22760895.263 7  22760894.83444  22760901.29444
      2373.819        1849.730  
 123336516.987    96106389.3614   23470147.497 7  23470146.54243  23470152.77843
      3331.410        2595.895  
 08 11  5  5 32  0.0000000  0  8G19G 7G27G11G 8G28G32G20            
 118155157.084    92068958.5674   22484179.095 7  22484178.54745  22484181.51145
     -2138.872       -1666.656  
 121044115.776    94320086.3924   23033932.128 7  23033932.25744  23033937.66744
     -3155.370       -2458.731  
 119050556.247    92766663.2644   22654567.084 7  22654566.93544  22654572.97244
     -2320.422       -1808.124  
 104862999.753    81711437.5514   19954763.237 8  19954763.01746  19954766.23446
      -117.403         -91.487  
 114037722.518    88860572.8824   21700655.922 7  21700655.32745  21700661.14645
     -1347.789       -1050.225  
 117608994.032    91643374.9824   22380238.794 7  22380238.59945  22380243.12145
      2785.204        2170.291  
 119538310.764    93146746.5874   22747373.285 7  22747373.12044  22747378.42044
      2363.745        1841.875  
 123236626.805    96028552.9554   23451138.830 7  23451137.99143  23451143.78943
      3328.128        2593.340  
 08 11  5  5 32 30.0000000  0  8G19G 7G27G11G 8G28G32G20            
 118219364.152    92118990.0284   22496396.999 7  22496396.16945  22496399.66145
     -2141.667       -1668.839  
 121138865.394    94393917.1964   23051962.583 7  23051963.31244  23051967.59644
     -3161.316       -2463.362  
 119120313.790    92821019.7554   22667841.893 6  22667841.10044  22667847.41844
     -2330.134       -1815.686  
 104866755.859    81714364.3974   19955477.634 8  19955477.04246  19955480.74746
      -133.079        -103.696  
 114078442.605    88892302.8074   21708404.696 7  21708403.80645  21708409.54745
     -1366.934       -1065.148  
 117525528.545    91578336.9654   22364355.883 7  22364355.29345  22364359.40345
      2779.087        2165.517  
 119467547.364    93091606.2824   22733907.413 7  22733907.28944  22733912.03944
      2353.747        1834.086  
 123136830.393    95950789.6184   23432148.407 6  23432147.85543  23432153.79943
      3324.886        2590.814  
 08 11  5  5 33  0.0000000  0  8G19G 7G27G11G 8G28G32G20            
 118283654.559    92169086.4294   22508631.623 7  22508630.85745  22508633.04645
     -2144.960       -1671.396  
 121233790.023    94467884.4084   23070025.840 7  23070026.26544  23070030.57344
     -3167.594       -2468.250  
 119190358.695    92875600.1694   22681170.668 7  22681170.07544  22681176.00944
     -2340.142       -1823.472  
 104870980.575    81717656.3864   19956281.659 7  19956281.46646  19956284.66646
      -149.195        -116.254  
 114119734.351    88924478.1734   21716262.586 7  21716261.90745  21716266.99745
     -1386.440       -1080.343  
 117442246.171    91513441.6144   22348507.897 7  22348507.69345  22348511.24345
      2772.445        2160.344  
 119397084.138    93036699.8974   22720498.727 7  22720497.82744  22720503.85844
      2343.191        1825.859  
 123037130.857    95873101.7924   23413176.651 7  23413175.27943  23413181.34843
      3321.118        2587.874  
 08 11  5  5 33 30.0000000  0  9G19G 7G27G11G 8G28G17G32G20         
 118348041.572    92219258.1104   22520884.236 7  22520883.60745  22520886.33745
     -2147.509       -1673.376  
 121328899.705    94541995.8134   23088124.867 7  23088125.72944  23088130.12644
     -3173.010       -2472.478  
 119260701.687    92930412.8614   22694555.302 6  22694554.58744  22694561.95444
     -2349.353       -1830.672  
 104875686.477    81721323.3234   19957176.925 8  19957176.85846  19957180.18946
      -164.526        -128.198  
 114161608.513    88957107.3744   21724230.817 7  21724230.32245  21724235.66145
     -1405.150       -1094.916  
 117359162.234    91448700.9014   22332697.713 7  22332697.29445  22332700.52545
      2766.466        2155.681  
 127510512.427    99358853.5234   24264440.601 6  24264440.57343  24264446.36643
      2579.167        2009.742  
 119326937.266    92982040.0074   22707149.990 7  22707149.48544  22707155.91344
      2333.281        1818.145  
 122937544.183    95795501.9014   23394225.416 6  23394224.62943  23394229.78043
      3317.975        2585.430  
 08 11  5  5 34  0.0000000  0  9G19G 7G27G11G 8G28G17G32G20         
 118412500.970    92269486.1854   22533150.099 7  22533149.08845  22533152.46845
     -2149.690       -1675.087  
 121424167.332    94616230.2724   23106253.257 7  23106253.28144  23106258.94744
     -3178.025       -2476.382  
 119331315.735    92985436.7584   22707993.774 6  22707993.12144  22707999.67044
     -2358.141       -1837.506  
 104880847.865    81725345.1884   19958159.269 8  19958159.18846  19958162.26546
      -179.467        -139.851  
 114204039.492    88990170.4524   21732304.714 7  21732304.45145  21732310.49145
     -1423.464       -1109.182  
 117276254.989    91384097.8624   22316920.970 7  22316920.44645  22316923.81445
      2760.771        2151.248  
 127433147.447    99298569.1874   24249718.373 6  24249718.29443  24249724.16143
      2578.627        2009.315  
 119257085.614    92927610.1774   22693857.491 7  22693857.07444  22693863.16744
      2323.583        1810.594  
 122838049.572    95717973.7474   23375292.232 7  23375291.36343  23375296.76343
      3315.041        2583.142  
 08 11  5  5 34 30.0000000  0  9G19G 7G27G11G 8G28G17G32G20         
 118477047.725    92319782.3374   22545432.850 7  22545432.12845  22545434.78545
     -2153.664       -1678.167  
 121519605.364    94690597.5174   23124415.286 7  23124414.88444  23124420.72744
     -3184.706       -2481.573  
 119402213.692    93040681.8774   22721485.347 7  22721484.95144  22721490.98844
     -2368.599       -1845.653  
 104886479.531    81729733.5024   19959230.979 8  19959230.59246  19959234.16546
      -196.203        -152.880  
 114247040.585    89023677.7774   21740488.016 7  21740487.49145  21740493.06245
     -1443.485       -1124.783  
 117193542.421    91319646.5274   22301181.386 7  22301180.68945  22301184.49045
      2753.179        2145.334  
 127355821.191    99238315.0094   24235004.459 6  24235003.50443  24235009.82743
      2576.256        2007.473  
 119187547.468    92873424.6324   22680624.800 7  22680624.43344  22680630.61544
      2312.057        1801.596  
 122738666.075    95640532.1794   23356379.888 6  23356379.12143  23356385.97043
      3310.294        2579.461  
 08 11  5  5 35  0.0000000  0  9G19G 7G27G11G 8G28G17G32G20         
 118541676.060    92370142.0584   22557731.000 7  22557730.34145  22557733.56445
     -2155.804       -1679.848  
 121615204.935    94765090.6404   23142607.326 7  23142607.56844  23142612.98344
     -3189.487       -2485.316  
 119473387.150    93096141.6844   22735029.625 6  22735029.66344  22735034.61744
     -2377.185       -1852.356  
 104892574.952    81734483.1734   19960390.781 7  19960390.52546  19960394.04046
      -211.079        -164.480  
 114290603.597    89057622.9724   21748777.801 7  21748777.06445  21748782.61945
     -1461.618       -1138.920  
 117111021.287    91255344.3584   22285478.090 7  22285477.57145  22285480.97345
      2747.304        2140.758  
 127278528.192    99178086.7634   24220295.737 6  24220295.65643  24220300.97443
      2575.687        2007.030  
 119118320.304    92819481.4064   22667451.664 7  22667450.99244  22667457.46644
      2302.172        1793.906  
 122639390.363    95563174.5924   23337488.173 6  23337487.67543  23337493.68543
      3307.176        2577.017  
 08 11  5  5 35 30.0000000  0  9G19G 7G27G11G 8G28G17G32G20         
 118606387.810    92420566.7804   22570045.528 7  22570044.70945  22570047.40245
     -2158.193       -1681.698  
 121710965.228    94839709.0084   23160830.383 7  23160830.56044  23160835.12444
     -3194.400       -2489.142  
 119544835.627    93151815.7844   22748625.775 7  22748625.75144  22748631.21944
     -2385.917       -1859.156  
 104899135.014    81739594.9094   19961639.336 7  19961639.10346  19961642.13646
      -226.166        -176.226  
 114334728.466    89092005.9734   21757174.390 7  21757174.11245  21757179.21445
     -1479.932       -1153.193  
 117028696.101    91191194.8814   22269811.812 7  22269810.95545  22269815.08845
      2741.125        2135.951  
 127201270.666    99117886.1644   24205593.465 6  24205593.73543  24205597.83843
      2574.910        2006.426  
 119049409.143    92765784.4264   22654337.810 7  22654336.87544  22654343.19344
      2291.994        1785.974  
 122540228.131    95485905.4364   23318618.398 7  23318617.51643  23318623.63843
      3303.732        2574.335  
 08 11  5  5 36  0.0000000  0  9G19G 7G27G11G 8G28G17G32G20         
 118671185.662    92471058.5844   22582376.084 7  22582374.99644  22582378.29444
     -2162.200       -1684.824  
 121806885.675    94914452.1674   23179082.549 6  23179082.29344  23179088.11844
     -3200.822       -2494.147  
 119616559.042    93207704.1254   22762274.016 6  22762273.49644  22762279.91544
     -2396.176       -1867.144  
 104906161.600    81745070.1634   19962976.354 7  19962975.93946  19962979.39546
      -242.826        -189.209  
 114379416.055    89126827.4404   21765677.938 7  21765677.37445  21765683.29145
     -1499.778       -1168.661  
 116946571.947    91127202.0454   22254183.826 7  22254183.09444  22254187.23044
      2733.263        2129.814  
 127124051.424    99057715.3964   24190899.288 6  24190899.26843  24190904.79943
      2572.508        2004.559  
 118980819.696    92712338.1234   22641285.394 7  22641284.73244  22641291.61244
      2280.084        1776.687  
 122441185.181    95408729.2304   23299770.782 6  23299770.05343  23299775.59843
      3298.574        2570.307  
 08 11  5  5 36 30.0000000  0  9G19G 7G27G11G 8G28G17G32G20         
 118736097.884    92521639.5134   22594729.242 7  22594728.12345  22594730.89545
     -2165.289       -1687.233  
 121902992.115    94989340.2484   23197371.386 6  23197371.32344  23197376.50644
     -3206.250       -2498.374  
 119688583.730    93263827.2244   22775979.985 6  22775979.64544  22775986.16644
     -2405.445       -1874.371  
 104913682.754    81750930.7934   19964407.773 8  19964407.30246  19964410.77146
      -258.592        -201.487  
 114424692.904    89162108.0844   21774293.796 7  21774293.21145  21774299.03045
     -1518.656       -1183.359  
 116864680.144    91063390.2634   22238600.557 7  22238599.78945  22238603.72945
      2726.194        2124.309  
 127046899.456    98997597.0744   24176217.853 6  24176217.79543  24176223.23643
      2570.990        2003.367  
 118912583.700    92659167.2364   22628300.423 7  22628300.26344  22628306.03944
      2268.979        1768.037  
 122342293.621    95331670.9614   23280952.872 7  23280951.87343  23280957.08343
      3294.198        2566.898  
 08 11  5  5 37  0.0000000  0  9G19G 7G27G11G 8G28G17G32G20         
 118801082.027    92572276.4944   22607094.937 7  22607094.09145  22607097.07645
     -2167.401       -1688.883  
 121999239.160    95064337.9014   23215686.880 7  23215686.94744  23215691.58844
     -3210.608       -2501.779  
 119760864.354    93320149.7424   22789734.786 6  22789734.02544  22789740.15344
     -2413.655       -1880.777  
 104921655.037    81757142.9604   19965924.880 8  19965924.55146  19965927.70146
      -273.352        -213.004  
 114470514.510    89197813.2274   21783013.847 7  21783013.27845  21783018.99145
     -1536.534       -1197.302  
 116782980.510    90999728.2154   22223053.855 7  22223053.14845  22223057.15345
      2720.024        2119.496  
 126969772.389    98937498.1544   24161540.727 6  24161540.52143  24161545.89043
      2570.403        2002.921  
 118844661.757    92606241.0824   22615376.148 7  22615376.06944  22615381.69344
      2258.721        1760.036  
 122243514.132    95254700.0374   23262155.232 7  23262155.15743  23262161.22743
      3290.677        2564.138  
 08 11  5  5 37 30.0000000  0  9G19G 7G27G11G 8G28G17G32G20         
 118866148.942    92622977.9664   22619476.489 7  22619475.52145  22619478.51845
     -2170.058       -1690.961  
 122095634.584    95139451.1614   23234030.216 6  23234029.80044  23234035.61544
     -3215.385       -2505.492  
 119833409.239    93376678.1834   22803539.642 6  22803539.11144  22803545.07744
     -2422.301       -1887.513  
 104930088.353    81763714.3744   19967529.701 8  19967529.40846  19967532.47646
      -288.552        -224.853  
 114516889.945    89233949.9094   21791838.584 7  21791838.15945  21791843.53945
     -1554.814       -1211.542  
 116701486.566    90936226.4544   22207545.889 7  22207545.12944  22207549.49345
      2713.226        2114.200  
 126892681.570    98877427.4734   24146871.083 6  24146871.50243  24146875.80643
      2569.323        2002.062  
 118777067.725    92553570.4344   22602513.125 7  22602512.34444  22602519.20544
      2247.874        1751.575  
 122144860.863    95177827.4404   23243382.904 7  23243382.50143  23243387.50244
      3286.539        2560.936  
 08 11  5  5 38  0.0000000  0  9G19G 7G27G11G 8G28G17G32G20         
 118931298.528    92673743.8504   22631874.090 7  22631872.86244  22631875.98144
     -2172.610       -1692.944  
 122192175.381    95214677.6924   23252400.849 7  23252401.54144  23252406.49244
     -3220.010       -2509.091  
 119906215.541    93433410.3364   22817394.727 7  22817394.01344  22817400.04344
     -2430.787       -1894.120  
 104938980.813    81770643.5604   19969221.847 8  19969221.54846  19969224.74146
      -303.674        -236.626  
 114563816.549    89270516.0654   21800768.240 7  21800767.38145  21800773.43445
     -1572.975       -1225.684  
 116620200.661    90872886.7954   22192077.311 7  22192076.74044  22192081.05744
      2706.461        2108.936  
 126815627.130    98817385.1214   24132208.286 6  24132208.35644  24132213.10244
      2568.299        2001.264  
 118709804.390    92501157.4704   22589713.157 7  22589712.62444  22589718.54044
      2236.966        1743.088  
 122046337.058    95101055.7294   23224634.316 7  23224633.53544  23224638.76044
      3282.352        2557.681  
 08 11  5  5 38 30.0000000  0  9G19G 7G27G11G 8G28G17G32G20         
 118996513.867    92724560.9624   22644283.477 7  22644282.30744  22644286.74944
     -2175.153       -1694.918  
 122288841.686    95290002.0274   23270795.947 6  23270796.06144  23270801.13744
     -3224.482       -2512.583  
 119979263.873    93490331.0674   22831294.417 6  22831293.54244  22831300.20144
     -2439.148       -1900.631  
 104948315.810    81777917.5884   19970998.202 8  19970997.85546  19971001.17646
      -318.731        -248.359  
 114611275.463    89307497.0244   21809799.200 7  21809798.61645  21809804.04445
     -1591.019       -1239.759  
 116539108.420    90809698.0474   22176646.359 7  22176645.66345  22176649.40245
      2699.606        2103.593  
 126738592.737    98757358.3924   24117548.005 6  24117548.56343  24117554.16443
      2567.261        2000.460  
 118642858.017    92448991.4944   22576973.778 7  22576972.91444  22576979.42744
      2226.029        1734.566  
 121947929.207    95024374.3654   23205907.655 7  23205907.02943  23205911.33643
      3278.094        2554.359  
 08 11  5  5 39  0.0000000  0  9G19G 7G27G11G 8G28G17G32G20         
 119061805.997    92775437.9164   22656707.929 7  22656707.41844  22656711.25544
     -2177.853       -1697.025  
 122385642.015    95365430.7934   23289216.354 6  23289216.39844  23289221.43744
     -3229.045       -2516.140  
 120052562.684    93547446.9804   22845242.940 6  22845242.21744  22845248.66644
     -2447.606       -1907.226  
 104958103.486    81785544.3454   19972860.679 8  19972860.27346  19972863.80146
      -333.950        -260.219  
 114659275.787    89344899.8584   21818933.302 7  21818932.51845  21818938.32945
     -1609.183       -1253.913  
 116458223.827    90746671.0964   22161254.323 7  22161253.50744  22161257.31445
      2692.498        2098.047  
 126661589.611    98697356.0324   24102894.963 6  24102895.07243  24102900.82643
      2566.072        1999.525  
 118576243.028    92397083.7564   22564296.985 7  22564296.19044  22564302.66144
      2214.782        1725.801  
 121849651.762    94947794.6114   23187206.274 7  23187205.26344  23187210.24644
      3273.542        2550.813  
 08 11  5  5 39 30.0000000  0  9G19G 7G27G11G 8G28G17G32G20         
 119127182.335    92826380.4964   22669149.445 7  22669148.68445  22669151.66845
     -2180.244       -1698.895  
 122482580.744    95440967.4024   23307663.447 7  23307664.06944  23307668.83544
     -3233.185       -2519.368  
 120126116.828    93604761.8484   22859239.986 7  22859240.08744  22859246.00944
     -2455.655       -1913.505  
 104968350.040    81793528.6834   19974810.506 8  19974810.40546  19974813.56746
      -348.809        -271.798  
 114707822.667    89382728.5674   21828171.820 7  21828170.76145  21828176.31644
     -1626.925       -1267.740  
 116377556.716    90683813.6164   22145903.731 7  22145903.29544  22145907.37245
      2685.636        2092.699  
 126584625.328    98637383.9254   24088249.554 6  24088248.87744  24088255.27444
      2565.214        1998.869  
 118509969.721    92345442.2454   22551685.513 7  22551685.38344  22551691.35444
      2203.734        1717.200  
 121751515.231    94871324.6554   23168531.346 7  23168530.18944  23168535.69744
      3269.213        2547.441  
 08 11  5  5 40  0.0000000  0  9G19G 7G27G11G 8G28G17G32G20         
 119192635.102    92877382.6444   22681605.004 7  22681604.16045  22681607.43845
     -2183.218       -1701.216  
 122579647.017    95516603.3994   23326134.734 7  23326135.53544  23326140.44644
     -3237.816       -2522.976  
 120199915.968    93662267.6334   22873284.261 7  22873284.14044  22873289.50144
     -2464.209       -1920.159  
 104979046.371    81801863.4974   19976845.996 8  19976845.35046  19976848.93946
      -364.222        -283.815  
 114756905.882    89420975.2104   21837512.086 7  21837511.44045  21837516.71745
     -1645.202       -1281.978  
 116297102.137    90621121.7444   22130594.019 7  22130593.28644  22130596.94344
      2678.068        2086.801  
 126507692.576    98577436.3974   24073609.776 6  24073609.16343  24073614.78643
      2563.730        1997.710  
 118444033.226    92294063.1924   22539138.320 7  22539138.05844  22539144.28744
      2192.071        1708.103  
 121653515.393    94794961.1984   23149882.207 7  23149881.12043  23149886.42344
      3264.171        2543.501  
