     2              OBSERVATION DATA                        RINEX VERSION / TYPE
DAT2RINW 3.10 001   국토지리정보원      11NOV08 21:16:36    PGM / RUN BY / DATE 
(주)범아엔지니어링  국토지리정보원                          OBSERVER / AGENCY   
0220324851          TRIMBLE 5700        Nav 1.24 Sig 1.24   REC # / TYPE / VERS 
012560323           TRM41249.00                             ANT # / TYPE        
----------------------------------------------------------- COMMENT             
Offset from BOTTOM OF ANTENNA to PHASE CENTER is  53.3 mm   COMMENT             
----------------------------------------------------------- COMMENT             
0467                                                        MARKER NAME         
0467                                                        MARKER NUMBER       
 -3100086.3003  4072235.3146  3793549.5208                  APPROX POSITION XYZ 
        0.9574        0.0000        0.0000                  ANTENNA: DELTA H/E/N
*** Above antenna height is from mark to BOTTOM OF ANTENNA. COMMENT             
----------------------------------------------------------- COMMENT             
Note: The above offsets are CORRECTED.                      COMMENT             
Raw Offsets: H=      1.0160 E=      0.0000 N=      0.0000   COMMENT             
----------------------------------------------------------- COMMENT             
     1     1     0                                          WAVELENGTH FACT L1/2
     5    L1    C1    L2    P2    D1                        # / TYPES OF OBSERV 
    15                                                      INTERVAL            
  2008    11    10    22    32   45.000000                  TIME OF FIRST OBS   
  2008    11    11     8    24   15.000000                  TIME OF LAST OBS    
    21                                                      # OF SATELLITES     
     3  1390  1390  1389  1389  1390                        PRN / # OF OBS      
     4   462   462   462   462   462                        PRN / # OF OBS      
     6  1339  1340  1339  1340  1339                        PRN / # OF OBS      
     7  1074  1078  1060  1060  1074                        PRN / # OF OBS      
     8   901   902   872   872   901                        PRN / # OF OBS      
    11  1392  1392  1392  1392  1392                        PRN / # OF OBS      
    13   793   797   777   777   793                        PRN / # OF OBS      
    14   182   182   182   182   182                        PRN / # OF OBS      
    16  1139  1139  1139  1139  1139                        PRN / # OF OBS      
    17   792   792   792   792   792                        PRN / # OF OBS      
    19  1468  1468  1468  1468  1468                        PRN / # OF OBS      
    20   905   906   903   903   905                        PRN / # OF OBS      
    21   478   478   478   478   478                        PRN / # OF OBS      
    23  1053  1058  1030  1030  1053                        PRN / # OF OBS      
    25  1144  1144  1144  1144  1144                        PRN / # OF OBS      
    27  1022  1024   992   992  1022                        PRN / # OF OBS      
    28  1046  1046  1046  1046  1046                        PRN / # OF OBS      
    29   248   248   248   248   248                        PRN / # OF OBS      
    30     8     8     8     8     8                        PRN / # OF OBS      
    31   699   699   699   699   699                        PRN / # OF OBS      
    32  1088  1090  1088  1088  1088                        PRN / # OF OBS      
                                                            END OF HEADER       
 08 11 10 23 29 59.9990000  0  6  3  6 16 23 29 31
  -8758505.46907  22172798.92507  -6806018.16447  22172796.53447      4256.15100
 -13233560.63707  21363922.48707 -10296447.12048  21363920.77648      3439.65200
  -4381312.15207  20065581.72207  -3405970.56049  20065578.21049       723.37100
 -10686287.56307  21929814.96407  -8301980.54047  21929809.68747      2983.27400
   6544888.48406  23761652.01106   5089311.10247  23761650.65947     -2433.55800
     29301.51607  20741360.26107     20931.85449  20741356.94849      -426.53800
 08 11 10 23 30 14.9990000  0  6  3  6 16 23 29 31
  -8822298.30907  22160659.12807  -6855726.85847  22160657.69047      4252.85600
 -13285077.30907  21354119.44007 -10336589.97348  21354117.47948      3434.44500
  -4392094.31307  20063529.95607  -3414372.26449  20063526.64049       718.81100
 -10730928.64507  21921319.66707  -8336765.78347  21921315.44847      2976.07200
   6581445.76206  23768608.69806   5117797.27347  23768607.37847     -2437.15200
     35766.79307  20742590.46407     25969.72848  20742586.94048      -431.01800
 08 11 10 23 30 29.9990000  0  6  3  6 16 23 29 31
  -8886041.28507  22148529.44807  -6905396.71247  22148527.39047      4249.53200
 -13336515.46107  21344331.07307 -10376671.65148  21344329.08148      3429.21000
  -4402807.98407  20061491.01107  -3422720.57849  20061487.78049       714.24500
 -10775461.23007  21912845.75307  -8371466.49648  21912840.95648      2968.83900
   6618056.74206  23775575.65906   5146325.27447  23775574.39047     -2440.73200
     42299.36707  20743833.46407     31060.05349  20743829.98749      -435.50500
 08 11 10 23 30 44.9990000  0  6  3  6 16 23 29 31
  -8949733.50807  22136408.77607  -6955027.00947  22136407.10147      4246.14800
 -13387874.44907  21334557.85407 -10416691.64848  21334556.03448      3423.93300
  -4413452.91407  20059465.19007  -3431015.33549  20059462.06549       709.66200
 -10819884.53907  21904392.55807  -8406082.05648  21904387.47648      2961.55400
   6654721.55906  23782552.83106   5174895.24747  23782551.47247     -2444.32100
     48899.74607  20745089.62007     36203.19749  20745085.87849      -440.02500
 08 11 10 23 30 59.9990000  0  6  3  6 16 23 29 31
  -9013375.68807  22124298.13607  -7004618.30647  22124295.89447      4242.81200
 -13439154.77707  21324798.96407 -10456650.32548  21324797.73748      3418.68900
  -4424029.92207  20057452.81507  -3439257.14848  20057449.35848       705.13400
 -10864199.00807  21895959.62007  -8440612.79948  21895953.90948      2954.29800
   6691439.13706  23789540.02606   5203506.33647  23789538.94047     -2447.83900
     55567.20307  20746358.38607     41398.61448  20746354.80448      -444.49700
 08 11 10 23 31 14.9990000  0  6  3  6 16 23 29 31
  -9076966.70306  22112196.44006  -7054169.75747  22112194.93347      4239.40100
 -13490355.57407  21315056.12807 -10496547.06048  21315054.73748      3413.38600
  -4434538.57007  20055453.05807  -3447445.70549  20055449.35449       700.57700
 -10908403.73407  21887547.64407  -8475058.06747  21887540.87847      2946.98200
   6728209.82006  23796537.55806   5232158.78147  23796535.55047     -2451.37900
     62302.59007  20747640.05007     46646.96849  20747636.37049      -449.02600
 08 11 10 23 31 29.9990000  0  6  3  6 16 23 29 31
  -9140505.78506  22100105.01106  -7103680.71647  22100103.35447      4235.93900
 -13541476.07007  21305328.35407 -10536381.20148  21305326.96848      3408.03300
  -4444978.59007  20053466.52607  -3455580.80349  20053462.54649       696.00100
 -10952498.08607  21879156.51907  -8509417.29747  21879150.84747      2939.62300
   6765033.55906  23803544.65906   5260852.58047  23803542.91747     -2454.91600
     69106.18407  20748934.64407     51948.45749  20748931.58149      -453.57300
 08 11 10 23 31 44.9990000  0  6  3  6 16 23 29 31
  -9203993.48006  22088024.27606  -7153151.63847  22088022.56947      4232.51300
 -13592516.67207  21295615.47907 -10576153.08848  21295613.88648      3402.70700
  -4455350.73007  20051492.40107  -3463662.99349  20051488.75749       691.47600
 -10996482.30907  21870786.80007  -8543690.71447  21870781.22947      2932.28200
   6801909.42606  23810561.47206   5289586.98347  23810560.46047     -2458.39100
     75977.42607  20750242.17507     57302.67049  20750239.07749      -458.08300
 08 11 10 23 31 59.9990000  0  6  3  6 16 23 29 31
  -9267429.71507  22075953.23707  -7202582.46447  22075951.66347      4229.08200
 -13643477.52007  21285917.97907 -10615862.83648  21285915.22648      3397.39000
  -4465655.34407  20049532.08107  -3471692.57149  20049528.12849       686.97400
 -11040356.50807  21862438.36207  -8577878.39247  21862432.13247      2924.94700
   6838836.89806  23817588.85406   5318361.61847  23817587.48347     -2461.83200
     82916.26207  20751562.69807     62709.54949  20751559.58549      -462.58900
 08 11 10 23 32 14.9990000  0  6  3  6 16 23 29 31
  -9330814.77006  22063891.16706  -7251973.41147  22063889.93747      4225.67000
 -13694358.82007  21276235.81507 -10655510.60848  21276233.14048      3392.08700
  -4475893.18007  20047583.83107  -3479670.11349  20047579.79649       682.52200
 -11084120.75807  21854110.04207  -8611980.41248  21854104.09348      2917.61700
   6875815.05906  23824625.62006   5347175.76147  23824623.95247     -2465.21100
     89922.03907  20752895.87807     68168.58749  20752892.12449      -467.05200
 08 11 10 23 32 29.9990000  0  6  3  6 16 23 29 31
  -9394147.50006  22051839.08906  -7301323.59547  22051837.74147      4222.18200
 -13745159.59807  21266568.62807 -10695095.62248  21266566.23748      3386.71800
  -4486063.58607  20045647.85407  -3487595.11049  20045644.51549       678.02700
 -11127774.15207  21845802.96407  -8645996.04248  21845797.47948      2910.22600
   6912844.26606  23831671.50306   5376029.65147  23831670.29247     -2468.61400
     96995.64807  20754241.70607     73680.48248  20754238.72248      -471.57400
 08 11 10 23 32 44.9990000  0  6  3  6 16 23 29 31
  -9457426.50007  22039797.97907  -7350631.91447  22039797.02247      4218.60000
 -13795878.37107  21256916.79207 -10734616.72348  21256914.98748      3381.25200
  -4496165.55107  20043725.87807  -3495466.77048  20043722.14748       673.46400
 -11171315.32807  21837517.01907  -8679924.23048  21837511.53048      2902.74500
   6949925.32006  23838728.35406   5404923.92647  23838727.03447     -2472.07000
    104138.28507  20755600.87007     79246.16948  20755597.96048      -476.17600
 08 11 10 23 32 59.9990000  0  6  3  6 16 23 29 31
  -9520651.32407  22027766.45607  -7399897.99247  22027765.30047      4214.98800
 -13846514.87507  21247281.05807 -10774073.72748  21247279.37048      3375.76700
  -4506199.18007  20041816.40107  -3503285.18949  20041813.05049       668.90900
 -11214743.90207  21829252.12007  -8713764.68647  21829247.44047      2895.23800
   6987058.15206  23845794.76106   5433858.58647  23845792.83147     -2475.52200
    111350.03507  20756973.15907     84865.70448  20756970.05048      -480.78300
 08 11 10 23 33 14.9990000  0  6  3  6 16 23 29 31
  -9583822.21907  22015745.73707  -7449122.05248  22015744.28448      4211.39300
 -13897069.63707  21237660.85407 -10813467.04648  21237658.17548      3370.31700
  -4516165.41807  20039920.12007  -3511051.09249  20039916.53449       664.41600
 -11258060.21507  21821009.61207  -8747517.66347  21821005.19047      2887.75400
   7024241.55506  23852870.37806   5462832.64347  23852868.32747     -2478.89300
    118630.16007  20758358.75307     90538.51848  20758355.11648      -485.34200
 08 11 10 23 33 29.9990000  0  6  3  6 16 23 29 31
  -9646939.30907  22003735.01907  -7498304.19647  22003733.48747      4207.80600
 -13947542.65207  21228056.20607 -10852796.68548  21228053.23748      3364.86800
  -4526064.48407  20038036.48707  -3518764.66149  20038032.69049       659.93800
 -11301264.19906  21812788.34706  -8781183.09648  21812783.52248      2880.26600
   7061474.99205  23859955.28405   5491845.70947  23859953.54647     -2482.22900
    125978.53907  20759757.03407     96264.53449  20759753.56549      -489.89200
 08 11 10 23 33 44.9990000  0  6  3  6 16 23 29 31
  -9710002.44107  21991734.84707  -7547444.31647  21991733.05047      4204.20900
 -13997933.52707  21218466.86207 -10892062.31648  21218464.95648      3359.39200
  -4535896.43407  20036165.08907  -3526425.92349  20036162.12049       655.46300
 -11344355.50007  21804588.38607  -8814760.73348  21804584.20648      2872.75300
   7098758.28905  23867049.82305   5520897.60847  23867048.04247     -2485.55300
    133395.25807  20761168.40907    102043.78649  20761165.08949      -494.44800
 08 11 10 23 33 59.9990000  0  6  3  6 16 23 29 31
  -9773009.43807  21979744.56507  -7596540.68647  21979743.06547      4200.46600
 -14048240.28107  21208893.66707 -10931262.36548  21208891.83148      3353.78400
  -4545659.92607  20034307.43307  -3534033.84449  20034304.18349       650.89900
 -11387332.18807  21796410.41707  -8848249.05148  21796405.64448      2865.11300
   7136092.67205  23874155.15105   5549989.27347  23874152.76147     -2488.95900
    140882.10507  20762593.27607    107877.69649  20762590.14049      -499.12300
 08 11 10 23 34 14.9990000  0  6  3  6 16 23 29 31
  -9835960.13307  21967765.38607  -7645593.18847  21967763.78047      4196.71300
 -14098463.07807  21199336.81507 -10970397.00648  21199335.17948      3348.18600
  -4555355.12107  20032462.38607  -3541588.53849  20032459.39449       646.34600
 -11430194.33207  21788253.83107  -8881648.12548  21788249.16348      2857.47600
   7173477.51605  23881269.14405   5579120.31346  23881266.64446     -2492.32300
    148438.78107  20764031.25307    113765.99349  20764027.75749      -503.77800
 08 11 10 23 34 29.9990000  0  6  3  6 16 23 29 31
  -9898854.31307  21955797.24507  -7694601.64247  21955795.40547      4192.94500
 -14148601.44107  21189795.97207 -11009465.85448  21189793.06548      3342.55800
  -4564982.19107  20030630.55007  -3549090.16449  20030626.97949       641.80500
 -11472941.51207  21780119.87007  -8914957.61348  21780114.81948      2849.81200
   7210912.60205  23888392.93305   5608290.48546  23888389.58146     -2495.67200
    156065.38707  20765482.78407    119708.80249  20765479.19049      -508.44000
 08 11 10 23 34 44.9990000  0  5  3  6 16 23 31
  -9961691.50806  21943839.12806  -7743565.66847  21943837.65547      4189.14600
 -14198655.02707  21180271.40907 -11048468.65148  21180268.25748      3336.90600
  -4574540.96107  20028811.57307  -3556538.55149  20028807.58149       637.25100
 -11515573.08207  21772006.72907  -8948177.02247  21772002.43747      2842.10500
    163762.12107  20766947.02607    125706.24749  20766944.00749      -513.11600
 08 11 10 23 34 59.9990000  0  5  3  6 16 23 31
 -10024470.85506  21931892.88606  -7792484.64847  21931890.77647      4185.29000
 -14248623.07007  21170762.26107 -11087404.80148  21170760.16348      3331.20300
  -4584031.21107  20027005.48707  -3563933.55949  20027001.99949       632.68300
 -11558088.23407  21763916.47207  -8981305.71347  21763911.92947      2834.34300
    171529.53507  20768425.04207    131758.77649  20768422.13649      -517.82800
 08 11 10 23 35 14.9990000  0  5  3  6 16 23 31
 -10087192.00407  21919957.42507  -7841358.27547  21919955.49547      4181.41000
 -14298505.53107  21161269.80807 -11126274.24848  21161268.24948      3325.49700
  -4593453.12507  20025212.69007  -3571275.31448  20025208.79248       628.12800
 -11600487.19107  21755847.63607  -9014343.86247  21755843.26147      2826.59700
    179367.64107  20769916.64407    137866.38449  20769913.98749      -522.54000
 08 11 10 23 35 29.9990000  0  5  3  6 16 23 31
 -10149852.89107  21908033.68307  -7890184.95147  21908031.80047      4177.39200
 -14348300.14507  21151794.55807 -11165075.23948  21151792.91748      3319.64100
  -4602804.93407  20023433.07307  -3578562.44949  20023429.25349       623.45400
 -11642767.59807  21747802.06507  -9047289.64147  21747797.89747      2818.69400
    187278.39107  20771422.45607    144030.58649  20771419.04249      -527.38300
 08 11 10 23 35 44.9990000  0  5  3  6 16 23 31
 -10212453.27307  21896121.22207  -7938964.47947  21896119.66347      4173.35900
 -14398006.76607  21142335.92507 -11203807.67548  21142334.07748      3313.77500
  -4612086.91807  20021666.76107  -3585795.15948  20021663.10848       618.79900
 -11684929.01607  21739779.34707  -9080142.68247  21739774.60447      2810.76100
    195261.87507  20772941.71407    150251.47449  20772938.22649      -532.23200
 08 11 10 23 35 59.9990000  0  5  3  6 16 23 31
 -10274993.44906  21884219.75306  -7987697.07047  21884218.76147      4169.34500
 -14447625.63707  21132893.30807 -11242471.73548  21132891.90948      3307.92500
  -4621299.70307  20019913.69807  -3592973.95649  20019910.17149       614.18600
 -11726971.84007  21731779.03407  -9112903.32447  21731774.08147      2802.85500
    203317.45707  20774474.58107    156528.54049  20774470.84749      -537.03900
 08 11 10 23 36 14.9990000  0  5  3  6 16 23 31
 -10337472.73807  21872330.71407  -8036382.20947  21872329.10447      4165.28600
 -14497156.20707  21123467.71407 -11281066.95548  21123466.50348      3302.03800
  -4630443.06307  20018173.62007  -3600098.64549  20018170.23749       609.55700
 -11768895.32007  21723801.56507  -9145570.98247  21723796.47647      2794.89900
    211445.62507  20776020.95607    162862.17349  20776017.76149      -541.87800
 08 11 10 23 36 29.9990000  0  5  3  6 16 23 31
 -10399891.59807  21860452.83907  -8085020.29748  21860451.42948      4161.25700
 -14546598.98007  21114059.71407 -11319593.79148  21114057.35148      3296.18500
  -4639517.93407  20016446.93307  -3607169.97649  20016443.60449       604.99100
 -11810700.12907  21715845.94007  -9178146.15047  21715841.68347      2786.98700
    219645.60507  20777581.65107    169251.76749  20777577.78849      -546.66500
 08 11 10 23 36 44.9990000  0  5  3  6 16 23 31
 -10462250.62507  21848586.05007  -8133611.74248  21848584.77648      4157.26800
 -14595954.84807  21104667.40107 -11358052.91148  21104665.50748      3290.39100
  -4648525.34407  20014732.73707  -3614188.73948  20014729.43348       600.49400
 -11852387.00007  21707913.72207  -9210629.43147  21707908.67947      2779.12500
    227916.32007  20779155.24507    175696.46849  20779151.90149      -551.38100
 08 11 10 23 36 59.9990000  0  5  3  6 16 23 31
 -10524549.29707  21836731.47207  -8182156.14848  21836729.74148      4153.24500
 -14645223.21507  21095291.94007 -11396443.84048  21095289.63648      3284.55800
  -4657465.25407  20013031.60407  -3621154.89749  20013027.92949       595.99400
 -11893955.41407  21700003.44807  -9243020.40448  21699998.24548      2771.22800
    236258.18007  20780742.51907    182196.61449  20780739.89049      -556.12400
 08 11 10 23 37 14.9990000  0  5  3  6 16 23 31
 -10586788.39507  21824888.19807  -8230654.15248  21824886.47948      4149.27300
 -14694404.72707  21085933.11207 -11434767.09348  21085930.33948      3278.76700
  -4666338.86707  20011343.15107  -3628069.40649  20011339.23349       591.57400
 -11935405.92607  21692115.14407  -9275319.49648  21692110.57348      2763.36700
    244670.33207  20782343.47207    188751.51948  20782340.45248      -560.81000
 08 11 10 23 37 29.9990000  0  5  3  6 16 23 31
 -10648966.91807  21813055.47907  -8279104.94948  21813053.93748      4145.23500
 -14743498.54707  21076590.70607 -11473022.03348  21076588.70248      3272.92100
  -4675145.53507  20009667.30007  -3634931.74949  20009663.99149       587.11100
 -11976737.60507  21684249.94807  -9307525.99948  21684245.62448      2755.44500
    253153.37107  20783957.77607    195361.67349  20783954.67149      -565.53600
 08 11 10 23 37 44.9990000  0  5  3  6 16 23 31
 -10711084.96507  21801234.83107  -8327508.60848  21801233.20248      4141.20300
 -14792504.71507  21067265.47207 -11511208.65248  21067262.96848      3267.07800
  -4683885.67607  20008004.40107  -3641742.24349  20008000.38249       582.67600
 -12017950.53907  21676407.67507  -9339639.96048  21676403.10448      2747.52900
    261707.03107  20785585.63607    202026.85148  20785582.20648      -570.24400
 08 11 10 23 37 59.9990000  0  5  3  6 16 23 31
 -10773141.51607  21789425.67507  -8375864.34848  21789424.34348      4137.10300
 -14841422.60207  21057956.37807 -11549326.48748  21057954.98348      3261.19200
  -4692558.95307  20006353.85407  -3648500.64049  20006350.22249       578.21800
 -12059043.99207  21668587.80007  -9371660.84748  21668582.67548      2739.56400
    270331.84807  20787226.91707    208747.47548  20787223.13248      -574.98800
 08 11 10 23 38 14.9990000  0  5  3  6 16 23 31
 -10835137.13707  21777628.16707  -8424172.62348  21777626.66348      4133.04100
 -14890252.74607  21048664.23707 -11587375.93648  21048662.37048      3255.34300
  -4701166.37107  20004715.63607  -3655207.72749  20004711.89049       573.82800
 -12100018.50807  21660790.88607  -9403589.03148  21660785.56548      2731.63400
    279027.03107  20788881.63607    215522.92748  20788877.94848      -579.67900
 08 11 10 23 38 29.9990000  0  5  3  6 16 23 31
 -10897071.74607  21765842.59707  -8472433.34948  21765840.95248      4128.97400
 -14938995.05107  21039388.90907 -11625356.94148  21039386.72948      3249.48700
  -4709708.22307  20003090.21407  -3661863.70749  20003086.44849       569.45700
 -12140873.98007  21653016.23707  -9435424.45748  21653011.35848      2723.69800
    287792.46507  20790549.50307    222353.13848  20790545.93748      -584.36200
 08 11 10 23 38 44.9990000  0  5  3  6 16 23 31
 -10958943.25807  21754068.56507  -8520644.92148  21754067.41748      4124.76700
 -14987647.88307  21030130.94807 -11663268.25548  21030128.55448      3243.52200
  -4718183.20307  20001477.26107  -3668467.59248  20001473.56548       564.99900
 -12181608.69907  21645264.49507  -9467165.79648  21645259.92948      2715.64800
    296629.57807  20792230.97207    229239.20248  20792227.58548      -589.14100
 08 11 10 23 38 59.9980000  0  5  3  6 16 23 31
 -11020748.57407  21742307.41207  -8568804.89848  21742305.85048      4120.35400
 -15036208.50407  21020889.85707 -11701107.69648  21020887.99048      3237.37500
  -4726591.52307  19999877.27107  -3675019.53849  19999873.32249       560.55500
 -12222220.33607  21637536.39607  -9498811.22948  21637531.56848      2707.44200
    305537.16807  20793925.95907    236180.18748  20793923.08048      -593.83900
 08 11 10 23 39 14.9980000  0  5  3  6 16 23 31
 -11082494.75807  21730557.57607  -8616918.79148  21730556.09248      4116.41200
 -15084682.33207  21011665.52907 -11738879.51248  21011663.86948      3231.58900
  -4734933.79307  19998289.99007  -3681520.01448  19998286.03348       556.15100
 -12262713.40607  21629830.92807  -9530364.26548  21629825.70948      2699.53800
    314517.27707  20795634.74807    243177.67848  20795631.92848      -598.67400
 08 11 10 23 39 29.9980000  0  5  3  6 16 23 31
 -11144177.31607  21718819.73207  -8664983.10448  21718817.98248      4112.17100
 -15133065.82007  21002458.45107 -11776580.92248  21002456.66648      3225.56600
  -4743209.62507  19996714.80307  -3687968.72249  19996711.34649       551.72200
 -12303084.75007  21622148.88907  -9561822.44548  21622143.56848      2691.42300
    323569.37507  20797357.58407    250231.25148  20797354.83448      -603.47300
 08 11 10 23 39 44.9980000  0  5  3  6 16 23 31
 -11205795.27007  21707093.90407  -8712997.10148  21707092.42048      4107.86400
 -15181358.35507  20993268.65407 -11814211.47048  20993266.67048      3219.50200
  -4751418.57407  19995152.82607  -3694365.30349  19995149.69749       547.26300
 -12343333.74607  21614489.60007  -9593185.29748  21614484.38548      2683.26600
    332693.85507  20799093.90407    257341.22548  20799090.56448      -608.29900
 08 11 10 23 39 59.9980000  0  5  3  6 16 23 31
 -11267347.65207  21695381.28707  -8760959.98648  21695379.98248      4103.49200
 -15229558.92607  20984096.33407 -11851770.36348  20984094.60748      3213.37100
  -4759560.06607  19993603.58407  -3700709.32049  19993600.38949       542.76600
 -12383459.30907  21606853.73207  -9624451.96348  21606848.71348      2675.03700
    341891.54307  20800843.95107    264508.23548  20800840.27548      -613.17900
 08 11 10 23 40 14.9980000  0  5  3  6 16 23 31
 -11328834.09407  21683680.85007  -8808871.48348  21683679.28348      4099.09600
 -15277667.24207  20974941.70107 -11889257.36148  20974940.16248      3207.22100
  -4767634.20307  19992066.96707  -3707000.84748  19992063.43648       538.27600
 -12423461.15607  21599241.27107  -9655622.23248  21599236.59248      2666.79000
    351162.43407  20802608.14607    271732.29148  20802604.77948      -618.05900
 08 11 10 23 40 29.9980000  0  5  3  6 16 23 31
 -11390253.45707  21671993.23207  -8856730.72948  21671991.43948      4094.62400
 -15325682.21107  20965804.81107 -11926671.62448  20965803.67848      3200.99800
  -4775640.12507  19990543.77107  -3713239.23349  19990540.11949       533.72800
 -12463338.09007  21591653.13907  -9686695.18148  21591647.85048      2658.46200
    360507.76207  20804387.04507    279014.36648  20804383.61548      -623.02200
 08 11 10 23 40 44.9980000  0  5  3  6 16 23 31
 -11451605.78907  21660318.01407  -8904537.73048  21660316.13148      4090.15500
 -15373603.65207  20956685.70907 -11964013.01048  20956683.98648      3194.76300
  -4783578.05907  19989033.00607  -3719424.63948  19989029.21748       529.19600
 -12503089.91407  21584088.61507  -9717670.62548  21584083.38548      2650.12200
    369927.18007  20806179.15407    286354.14748  20806176.06148      -627.96100
 08 11 10 23 40 59.9980000  0  5  3  6 16 23 31
 -11512890.78107  21648655.63907  -8952292.24148  21648654.07248      4085.66600
 -15421431.63307  20947584.45907 -12001281.55548  20947582.27948      3188.53200
  -4791448.44507  19987535.74007  -3725557.40949  19987531.60749       524.69200
 -12542716.72707  21576548.13107  -9748548.66748  21576542.80748      2641.78700
    379420.57407  20807985.99007    293751.58948  20807982.74048      -632.89300
 08 11 10 23 41 14.9980000  0  5  3  6 16 23 31
 -11574108.18407  21637006.63907  -8999994.10848  21637004.57248      4081.16000
 -15469166.00007  20938500.72507 -12038477.16848  20938498.43948      3182.29100
  -4799251.64107  19986050.60707  -3731637.82048  19986047.12348       520.21300
 -12582218.38707  21569031.60007  -9779329.18548  21569026.16248      2633.44400
    388987.63707  20809806.60707    301206.43448  20809803.00248      -637.80400
 08 11 10 23 41 29.9980000  0  6  3  6 13 16 23 31
 -11635258.04707  21625370.14607  -9047643.36348  21625367.99448      4076.65800
 -15516807.05507  20929435.23207 -12075600.08048  20929433.03348      3176.07000
         0.00000  23513791.16201         0.00000         0.00000         0.00000
  -4806988.11707  19984578.24807  -3737666.23748  19984575.06448       515.76500
 -12621595.07807  21561538.22507  -9810012.30948  21561532.47548      2625.11300
    398628.26607  20811640.84207    308718.60648  20811637.14648      -642.70900
 08 11 10 23 41 44.9980000  0  5  3  6 16 23 31
 -11696341.42207  21613746.35707  -9095240.78548  21613744.43648      4072.22500
 -15564355.47307  20920386.97507 -12112650.78848  20920385.36148      3169.89500
  -4814658.95707  19983118.14607  -3743643.51549  19983115.12749       511.38900
 -12660847.48807  21554068.44307  -9840598.59247  21554062.83847      2616.82700
    408341.42207  20813489.37307    316287.29148  20813486.08448      -647.54400
 08 11 10 23 41 59.9980000  0  5  3  6 16 23 31
 -11757358.85207  21602135.12307  -9142786.82248  21602133.76848      4067.82900
 -15611811.99207  20911355.56807 -12149629.87848  20911354.90048      3163.76800
  -4822265.19107  19981671.34207  -3749570.45449  19981668.13949       507.08200
 -12699976.19507  21546622.22507  -9871088.49048  21546616.90448      2608.58000
    418126.23007  20815351.30307    323911.81648  20815347.84248      -652.32100
 08 11 10 23 42 14.9980000  0  5  3  6 16 23 31
 -11818307.82007  21590536.81807  -9190279.51948  21590534.88148      4063.26500
 -15659174.24207  20902343.17807 -12186535.51748  20902341.49848      3157.48300
  -4829804.99207  19980236.36507  -3755445.62348  19980232.93948       502.65300
 -12738978.91007  21539200.44307  -9901480.22348  21539195.34648      2600.18100
    427984.80107  20817227.02907    331593.80548  20817223.79948      -657.23800
 08 11 10 23 42 29.9980000  0  5  3  6 16 23 31
 -11879188.52007  21578951.85007  -9237719.01648  21578949.63948      4058.71300
 -15706442.36307  20893348.64607 -12223367.83548  20893346.60448      3151.20800
  -4837278.99607  19978814.42807  -3761269.53449  19978810.42049       498.26700
 -12777855.81607  21531802.29507  -9931773.89648  21531797.56848      2591.79400
    437916.82407  20819117.17007    339333.04048  20819114.00248      -662.13500
 08 11 10 23 42 44.9980000  0  5  3  6 16 23 31
 -11939999.57007  21567379.82607  -9285104.25548  21567378.22148      4054.07000
 -15753615.05107  20884372.24807 -12260125.76948  20884370.20548      3144.84600
  -4844686.03107  19977405.00607  -3767041.24848  19977401.15848       493.80200
 -12816605.49207  21524428.67807  -9961968.46048  21524424.10048      2583.31200
    447923.43007  20821021.46707    347130.38648  20821018.48648      -667.10700
 08 11 10 23 42 59.9980000  0  5  3  6 16 23 31
 -12000740.01607  21555821.15407  -9332434.45348  21555819.98248      4049.36300
 -15800691.54307  20875413.27907 -12296808.73748  20875412.14348      3138.43300
  -4852025.79307  19976008.09207  -3772760.53749  19976004.61949       489.31700
 -12855227.12507  21517079.25607  -9992063.24548  21517075.52148      2574.77600
    458005.23007  20822939.99007    354986.32948  20822936.80348      -672.12000
 08 11 10 23 43 14.9980000  0  5  3  6 16 23 31
 -12061408.63707  21544276.40407  -9379708.70048  21544275.14348      4044.57500
 -15847670.79707  20866473.69307 -12333415.91948  20866472.48248      3131.95000
  -4859297.30107  19974624.47507  -3778426.65749  19974620.94349       484.76700
 -12893719.47707  21509754.54507 -10022057.27548  21509750.67448      2566.15700
    468163.09007  20824872.66207    362901.54248  20824869.79148      -677.19100
 08 11 10 23 43 29.9980000  0  5  3  6 16 23 31
 -12122005.44507  21532745.27907  -9426926.98248  21532743.39648      4039.78700
 -15894552.78107  20857552.64607 -12369947.33948  20857550.39348      3125.46600
  -4866501.15207  19973253.35707  -3784040.04349  19973249.62349       480.25700
 -12932082.68407  21502453.88907 -10051950.67148  21502450.17448      2557.54700
    478396.61707  20826820.03707    370875.71448  20826817.11548      -682.23500
 08 11 10 23 43 44.9980000  0  5  3  6 16 23 31
 -12182530.42607  21521227.25607  -9474089.29248  21521225.90048      4034.99900
 -15941337.49207  20848649.07607 -12406402.95548  20848647.03348      3118.98100
  -4873637.58207  19971895.29507  -3789600.89748  19971891.78348       475.76200
 -12970316.75407  21495178.06807 -10081743.46148  21495174.19748      2548.93800
    488705.72307  20828782.00607    378908.78448  20828778.66248      -687.27400
 08 11 10 23 43 59.9980000  0  6  3  6 16 21 23 31
 -12242982.03507  21509723.77107  -9521194.44048  21509722.38148      4030.10700
 -15988023.45307  20839765.45107 -12442781.64048  20839762.98648      3112.39700
  -4880705.44107  19970550.45107  -3795108.33648  19970546.61148       471.19100
    -91044.97714  24056139.63904    -60757.26956  24056137.96346      2318.04700
 -13008420.10907  21487927.46707 -10111434.39048  21487923.17448      2540.22400
    499091.89107  20830758.18607    387001.88848  20830755.06848      -692.41100
 08 11 10 23 44 14.9980000  0  6  3  6 16 21 23 31
 -12303360.75807  21498234.70907  -9568242.80448  21498233.53348      4025.24800
 -16034611.40607  20830900.27907 -12479083.91848  20830898.13548      3105.86400
  -4887706.03507  19969218.15407  -3800563.33848  19969214.78748       466.70600
   -125783.66004  24049529.34204    -87826.33746  24049527.55346      2315.91200
 -13046393.57407  21480701.23207 -10141024.09848  21480697.13948      2531.56400
    509554.03107  20832749.24807    395154.20448  20832746.00648      -697.47600
 08 11 10 23 44 29.9980000  0  6  3  6 16 21 23 31
 -12363667.02007  21486758.69307  -9615234.68448  21486758.09648      4020.41700
 -16081101.58207  20822053.70907 -12515310.02748  20822051.78748      3099.34500
  -4894639.80907  19967898.76407  -3805966.29149  19967895.74449       462.25200
   -160461.37503  24042929.77903   -114847.93546  24042928.37746      2311.84800
 -13084237.16806  21473499.91206 -10170512.61648  21473495.39348      2522.90600
    520091.78107  20834754.40407    403365.43948  20834751.27948      -702.51700
 08 11 10 23 44 44.9980000  0  7  3  6 13 16 21 23 31
 -12423900.23007  21475296.76407  -9662169.63648  21475295.89648      4015.54700
 -16127493.74207  20813225.45107 -12551459.76548  20813223.33048      3092.81100
         0.00000  23372599.81801         0.00000         0.00000         0.00000
  -4901507.02307  19966591.94307  -3811317.37449  19966589.12749       457.81400
   -195077.66004  24036342.92804   -141821.69546  24036339.16646      2307.75200
 -13121950.80507  21466323.70107 -10199899.88048  21466319.19348      2514.24200
    530705.10507  20836774.33407    411635.55648  20836771.17448      -707.55500
 08 11 10 23 44 59.9980000  0  7  3  6 13 16 21 23 31
 -12484059.71107  21463848.61507  -9709047.13148  21463848.32648      4010.63200
 -16173787.18807  20804416.06807 -12587532.59148  20804414.02948      3086.23000
   -241001.23811  23361842.24801         0.00000         0.00000      3766.39100
  -4908307.11307  19965297.70907  -3816616.13849  19965295.35049       453.33900
   -229631.45304  24029767.19304   -168746.65046  24029763.85746      2303.58600
 -13159533.64107  21459171.78707 -10229185.19348  21459167.49048      2505.52200
    541394.71507  20838808.31107    419965.11148  20838805.25248      -712.64100
 08 11 10 23 45 14.9980000  0  7  3  6 13 16 21 23 31
 -12544143.49207  21452415.38107  -9755865.65348  21452414.32648      4005.58500
 -16219979.85907  20795625.60707 -12623526.88548  20795623.78748      3079.51100
         0.00000  23351096.52101         0.00000         0.00000         0.00000
  -4915038.46907  19964016.57607  -3821861.35749  19964013.79149       448.75700
   -264121.06602  24023204.46702   -195621.74346  24023201.23646      2299.30800
 -13196983.56307  21452045.19307 -10258366.95248  21452040.80348      2496.66100
    552162.34007  20840857.68607    428355.46348  20840854.41248      -717.84200
 08 11 10 23 45 29.9980000  0  6  3  6 16 21 23 31
 -12604150.73007  21440996.34207  -9802624.53848  21440994.98248      4000.48300
 -16266071.12507  20786854.67807 -12659442.14548  20786853.07648      3072.75100
  -4921700.81307  19962749.00607  -3827052.80048  19962745.96348       444.15600
   -298545.46903  24016653.88103   -222445.89046  24016651.65846      2294.96000
 -13234299.95707  21444944.13907 -10287444.65848  21444939.36948      2487.76000
    563008.38707  20842921.49807    436806.91948  20842918.27948      -723.07000
 08 11 10 23 45 44.9980000  0  6  3  6 16 21 23 31
 -12664080.91807  21429591.38107  -9849323.38648  21429589.92448      3995.34600
 -16312060.73807  20778103.12307 -12695278.20848  20778101.37748      3065.97400
  -4928294.17607  19961494.35007  -3832190.48148  19961491.02548       439.55800
   -332904.50004  24010115.04504   -249219.12746  24010113.62746      2290.60200
 -13271482.51207  21437868.56807 -10316418.09048  21437863.36948      2478.83700
    573932.83607  20845000.50607    445319.45948  20844996.52548      -728.29700
 08 11 10 23 45 59.9980000  0  6  3  6 16 21 23 31
 -12723933.63307  21418201.79507  -9895961.87448  21418200.28348      3990.18100
 -16357947.96907  20769371.32607 -12731034.49048  20769368.83448      3059.14900
  -4934818.21907  19960253.19307  -3837274.16948  19960249.52948       434.93600
   -367197.09403  24003589.32603   -275940.59945  24003587.03345      2286.17300
 -13308530.43006  21430818.51406 -10345286.57448  21430814.03748      2469.86100
    584936.37907  20847094.49007    453893.63848  20847090.77148      -733.57000
 08 11 10 23 46 14.9980000  0  6  3  6 16 21 23 31
 -12783708.09807  21406826.74007  -9942539.36948  21406825.76848      3984.96400
 -16403732.30907  20760659.02907 -12766710.60248  20760656.19348      3052.28900
  -4941272.75807  19959024.96707  -3842303.67948  19959021.39348       430.30300
   -401422.82002  23997076.62302   -302609.93545  23997073.04545      2281.71500
 -13345443.18407  21423794.23207 -10374049.77648  21423789.27148      2460.85000
    596019.26207  20849203.40407    462529.65248  20849200.02548      -738.85900
 08 11 10 23 46 29.9980000  0  6  3  6 16 21 23 31
 -12843403.86707  21395467.63107  -9989055.55748  21395466.01848      3979.71800
 -16449413.28107  20751965.87307 -12802306.15648  20751963.77548      3045.39800
  -4947657.84007  19957810.02107  -3847279.06749  19957806.42449       425.67200
   -435581.27704  23990576.95104   -329226.95246  23990571.67046      2277.23000
 -13382220.39107  21416796.07607 -10402707.33248  21416790.43648      2451.81400
    607181.76607  20851327.24007    471227.70348  20851323.96748      -744.16700
 08 11 10 23 46 44.9980000  0  6  3  6 16 21 23 31
 -12903021.10207  21384122.81107 -10035510.54248  21384120.95148      3974.48200
 -16494991.34807  20743292.79507 -12837821.53248  20743290.86948      3038.53800
  -4953974.25007  19956608.10007  -3852200.95248  19956604.11548       421.09400
   -469672.77303  23984089.24803   -355791.76546  23984084.89346      2272.76600
 -13418862.41007  21409822.70907 -10431259.55848  21409817.92848      2442.80100
    618423.27307  20853466.60707    479987.30348  20853463.50648      -749.43400
 08 11 10 23 46 59.9980000  0  6  3  6 16 21 23 31
 -12962558.01207  21372793.21707 -10081902.95348  21372791.74048      3969.12700
 -16540464.76607  20734639.24007 -12873255.35148  20734638.02948      3031.56100
  -4960220.46107  19955419.56107  -3857068.12449  19955415.85749       416.41400
   -503695.45305  23977614.81805   -382302.89846  23977611.83046      2268.17900
 -13455367.40207  21402876.31107 -10459705.00848  21402870.82248      2433.66600
    629745.34407  20855621.01407    488809.68048  20855618.14348      -754.80500
 08 11 10 23 47 14.9980000  0  7  3  6 13 16 21 23 31
 -13022013.77707  21361479.46707 -10128232.12048  21361478.25248      3963.71800
 -16585832.84807  20726006.10007 -12908607.10548  20726004.55348      3024.53900
    -74393.37111  23265721.27901         0.00000         0.00000      3716.20300
  -4966396.10207  19954244.33407  -3861880.31648  19954240.74848       411.70900
   -537648.32804  23971152.88904   -408759.74546  23971152.11146      2263.52500
 -13491734.77707  21395956.01407 -10488043.21848  21395950.28348      2424.49200
    641148.58607  20857791.00607    497695.31848  20857788.20148      -760.21600
 08 11 10 23 47 29.9980000  0  7  3  6 13 16 21 23 31
 -13081389.32007  21350180.30307 -10174498.76748  21350178.70548      3958.37000
 -16631096.38707  20717392.73207 -12943877.40348  20717390.72948      3017.56900
   -130095.81301  23255120.89601         0.00000         0.00000      3713.49600
  -4972502.34807  19953081.96707  -3866638.43549  19953078.49849       407.08300
   -571532.23803  23964705.81803   -435162.77945  23964704.70145      2258.92700
 -13527965.34007  21389061.38107 -10516274.82548  21389055.68248      2415.37100
    652631.92607  20859976.22507    506643.36148  20859973.57648      -765.55600
 08 11 10 23 47 44.9980000  0  7  3  6 13 16 21 23 31
 -13140684.71907  21338896.44307 -10220702.96248  21338895.03348      3953.02700
 -16676255.46107  20708799.28707 -12979066.29348  20708797.58048      3010.60500
   -185712.50802  23244537.59202         0.00000         0.00000      3707.78000
  -4978539.62107  19951933.42007  -3871342.81348  19951929.64648       402.48500
   -605347.35202  23958270.74802   -461512.23045  23958269.43945      2254.34100
 -13564058.95307  21382192.70107 -10544399.72648  21382186.83048      2406.24100
    664195.11707  20862176.88907    515653.63148  20862173.84648      -770.87900
 08 11 10 23 47 59.9980000  0  7  3  6 13 16 21 23 31
 -13199899.95706  21327628.54506 -10266844.72148  21327627.04948      3947.68300
 -16721310.17207  20700225.85007 -13014173.85648  20700224.79548      3003.64700
   -241243.67602  23233971.28702         0.00000         0.00000      3702.07800
  -4984508.37907  19950797.03707  -3875993.78849  19950793.78349       397.91700
   -639093.73404  23951849.09204   -487808.09445  23951847.36145      2249.75900
 -13600015.94107  21375350.25607 -10572418.17148  21375345.63548      2397.13300
    675837.94907  20864392.33407    524725.95449  20864389.18649      -776.18900
 08 11 10 23 48 14.9980000  0  7  3  6 13 16 21 23 31
 -13259034.82406  21316375.87306 -10312923.82848  21316374.43248      3942.32400
 -16766260.52307  20691671.80307 -13049200.11148  20691670.59648      2996.69000
   -296689.29303  23223419.10003         0.00000         0.00000      3696.37400
  -4990409.05107  19949674.59207  -3880591.71948  19949671.16248       393.37800
   -672771.10903  23945440.25603   -514050.20345  23945438.15045      2245.15800
 -13635836.21107  21368534.32607 -10600330.06548  21368529.57248      2388.01800
    687560.06607  20866623.12307    533860.06948  20866620.03348      -781.47400
 08 11 10 23 48 29.9980000  0  7  3  6 13 16 21 23 31
 -13318088.26206  21305138.35706 -10358939.49848  21305136.40448      3936.89600
 -16811105.75807  20683137.65407 -13084144.41948  20683136.48648      2989.68200
   -352048.12103  23212884.82603         0.00000         0.00000      3690.58900
  -4996241.07007  19948564.92007  -3885136.15549  19948561.31449       388.80100
   -706378.57402  23939045.22502   -540237.83345  23939043.02945      2240.49800
 -13671518.65207  21361743.90407 -10628134.55548  21361739.25248      2378.82900
    699362.19107  20868869.12307    543056.51849  20868866.02949      -786.80800
 08 11 10 23 48 44.9980000  0  7  3  6 13 16 21 23 31
 -13377060.69907  21293915.70907 -10404892.03348  21293914.07648      3931.49600
 -16855846.14807  20674624.29507 -13119007.06348  20674622.53748      2982.69300
   -407320.58603  23202366.73203         0.00000         0.00000      3684.83100
  -5002004.99607  19947467.74807  -3889627.53149  19947464.85749       384.26200
   -739916.47703  23932663.49003   -566371.28545  23932660.74845      2235.86000
 -13707063.76607  21354980.13907 -10655832.06148  21354975.29148      2369.67400
    711243.83607  20871129.92007    552314.92448  20871127.00648      -792.11000
 08 11 10 23 48 59.9980000  0  7  3  6 13 16 21 23 31
 -13435951.82406  21282708.68606 -10450781.21248  21282707.35748      3926.07500
 -16900481.32407  20666130.54507 -13153787.71948  20666128.42048      2975.67800
   -462506.02303  23191865.49003         0.00000         0.00000      3679.02900
  -5007701.02707  19946383.92007  -3894066.01249  19946380.49849       379.73500
   -773384.57404  23926294.91204   -592450.28346  23926292.35046      2231.20700
 -13742471.29307  21348242.14607 -10683422.33848  21348237.85048      2360.50200
    723205.04707  20873406.06107    561635.33949  20873403.06449      -797.41400
 08 11 10 23 49 14.9980000  0  7  3  6 13 16 21 23 31
 -13494760.49607  21271518.60707 -10496606.15048  21271515.98648      3920.57800
 -16945010.34407  20657657.16207 -13188485.65148  20657655.17848      2968.60100
   -517603.28103  23181380.32603         0.00000         0.00000      3673.15100
  -5013328.55107  19945313.34207  -3898451.09248  19945309.91648       375.16800
   -806781.48805  23919939.41205   -618473.77146  23919936.59246      2226.46100
 -13777740.21907  21341530.95107 -10710904.61548  21341526.47948      2351.26200
    735246.66407  20875697.35707    571018.40548  20875694.34648      -802.77400
 08 11 10 23 49 29.9980000  0  7  3  6 13 16 21 23 31
 -13553488.12107  21260342.98207 -10542367.94248  21260341.02548      3915.17500
 -16989434.71907  20649203.46707 -13223102.04348  20649201.35448      2961.62500
   -572613.71103  23170912.38103         0.00000         0.00000      3667.36200
  -5018889.17607  19944254.71707  -3902784.05448  19944251.36948       370.70800
   -840108.65205  23913597.70905   -644442.97146  23913594.82246      2221.81100
 -13812871.78507  21334845.97507 -10738279.87848  21334840.90848      2342.10400
    747367.13307  20878003.97507    580462.93048  20878001.01848      -808.03100
 08 11 10 23 49 44.9980000  0  7  3  6 13 16 21 23 31
 -13612132.68807  21249183.34207 -10588065.00648  21249181.51048      3909.63800
 -17033752.64507  20640769.87307 -13257635.48548  20640768.16248      2954.52800
   -627535.50004  23160461.11504         0.00000         0.00000      3661.45300
  -5024381.59407  19943209.71707  -3907063.87548  19943206.48648       366.16100
   -873364.24205  23907268.86505   -670356.37346  23907266.76846      2217.03900
 -13847864.32007  21328186.37307 -10765546.79548  21328182.04148      2332.83600
    759567.79707  20880325.56107    589969.93548  20880323.10748      -813.37800
 08 11 10 23 49 59.9980000  0  7  3  6 13 16 21 23 31
 -13670694.15607  21238039.62307 -10633697.31548  21238037.73248      3904.09800
 -17077964.00407  20632356.63107 -13292085.90148  20632355.17048      2947.42400
   -682368.42603  23150026.50603         0.00000         0.00000      3655.52800
  -5029806.09807  19942177.81107  -3911290.76349  19942174.10749       361.63400
   -906548.15605  23900954.42005   -696213.96246  23900952.13546      2212.26100
 -13882717.77306  21321553.55306 -10792705.32848  21321550.07648      2323.56400
    771848.62907  20882662.44307    599539.41248  20882659.64348      -818.72200
 08 11 10 23 50 14.9980000  0  7  3  6 13 16 21 23 31
 -13729173.09006  21226911.45106 -10679265.29648  21226909.18648      3898.59600
 -17122069.45707  20623963.70907 -13326453.78648  20623962.09248      2940.36400
   -737112.95703  23139609.85703         0.00000         0.00000      3649.63500
  -5035163.59807  19941158.40407  -3915465.44148  19941154.52148       357.16700
   -939660.85905  23894653.71705   -722016.12246  23894651.66646      2207.51400
 -13917432.66407  21314947.84207 -10819755.89148  21314943.66248      2314.32600
    784209.02007  20885014.34207    609170.86848  20885012.31148      -824.02600
 08 11 10 23 50 29.9980000  0  7  3  6 13 16 21 23 31
 -13787569.09007  21215798.73207 -10724768.66548  21215796.48248      3893.06700
 -17166068.80907  20615590.85707 -13360738.99648  20615588.89648      2933.29000
   -791768.70304  23129208.00604         0.00000         0.00000      3643.71600
  -5040454.13707  19940151.36507  -3919587.94649  19940147.99849       352.70300
   -972702.06605  23888366.31105   -747762.43346  23888364.41646      2202.74700
 -13952008.76607  21308368.60707 -10846698.32148  21308363.95548      2305.07300
    796648.97707  20887381.45107    618864.32948  20887379.06148      -829.33000
 08 11 10 23 50 44.9980000  0  7  3  6 13 16 21 23 31
 -13845881.54707  21204702.88107 -10770206.93148  21204700.27948      3887.49700
 -17209961.33607  20607238.71707 -13394940.96548  20607236.67448      2926.16800
   -846334.91104  23118824.49804         0.00000         0.00000      3637.74700
  -5045677.27707  19939157.28707  -3923657.92848  19939153.90448       348.20900
  -1005670.94505  23882091.72505   -773452.47046  23882089.56146      2197.92500
 -13986445.51206  21301815.09206 -10873532.12848  21301811.26848      2295.78300
    809169.00807  20889764.25607    628620.19348  20889761.42848      -834.66900
 08 11 10 23 50 59.9980000  0  7  3  6 13 16 21 23 31
 -13904110.21507  21193621.90407 -10815579.92048  21193619.86548      3881.91100
 -17253746.80507  20598906.63907 -13429059.52448  20598904.99848      2919.03100
   -900811.14504  23108458.96704   -964016.29755  23108452.98645      3631.74900
  -5050833.37507  19938176.02907  -3927675.66849  19938172.55749       343.74000
  -1038567.32005  23875831.69305   -799085.97246  23875828.44346      2193.09200
 -14020742.48007  21295288.84207 -10900257.03848  21295284.54148      2286.46500
    821769.06307  20892161.99007    638438.40448  20892159.28348      -840.00400
 08 11 10 23 51 14.9980000  0  7  3  6 13 16 21 23 31
 -13962254.94107  21182556.88907 -10860887.49448  21182555.68948      3876.31500
 -17297425.41807  20590594.47507 -13463094.80348  20590592.64648      2911.90800
   -955197.40604  23098109.02104  -1006395.22745  23098103.06845      3625.75100
  -5055922.74207  19937207.63107  -3931641.42148  19937204.49448       339.29100
  -1071391.33605  23869586.11505   -824663.09746  23869582.15446      2188.26800
 -14054899.74207  21288789.07607 -10926873.08248  21288784.87348      2277.15100
    834448.77007  20894574.96707    648318.68648  20894572.06848      -845.31400
 08 11 10 23 51 29.9980000  0  7  3  6 13 16 21 23 31
 -14020315.56606  21171508.91206 -10906129.51348  21171507.13548      3870.70800
 -17340996.97307  20582303.40407 -13497046.64048  20582301.26048      2904.77000
  -1009493.41405  23087776.95905  -1048703.77345  23087771.29945      3619.73400
  -5060945.55107  19936252.03707  -3935555.31349  19936248.66649       334.85400
  -1104142.57405  23863353.64605   -850183.43046  23863349.82246      2183.41600
 -14088917.21107  21282315.42807 -10953380.20348  21282311.24048      2267.83100
    847208.19907  20897003.24807    658261.08948  20896999.92848      -850.62900
 08 11 10 23 51 44.9980000  0  7  3  6 13 16 21 23 31
 -14078291.88307  21160476.38907 -10951305.85148  21160473.53348      3865.08800
 -17384461.55507  20574031.89607 -13530915.14748  20574030.16248      2897.63900
  -1063698.92204  23077461.98204  -1090941.79745  23077456.63945      3613.70100
  -5065902.30507  19935309.02107  -3939417.72848  19935305.26048       330.45000
  -1136821.01605  23857135.26405   -875647.14446  23857132.17846      2178.56300
 -14122795.04307  21275868.57607 -10979778.51448  21275864.08848      2258.52200
    860047.12507  20899446.13907    668265.42848  20899443.42048      -855.92800
 08 11 10 23 51 59.9980000  0  7  3  6 13 16 21 23 31
 -14136184.05107  21149459.78707 -10996416.64048  21149456.63148      3859.47800
 -17427819.09807  20565781.48207 -13564700.25848  20565779.50248      2890.50300
  -1117813.88704  23067163.02104  -1133109.30145  23067158.82245      3607.66400
  -5070793.07807  19934378.23207  -3943228.71749  19934374.72949       326.05200
  -1169426.55505  23850930.18605   -901054.09346  23850927.41246      2173.70300
 -14156533.09407  21269448.82607 -11006067.91548  21269443.85048      2249.20300
    872965.36707  20901904.45107    678331.59948  20901901.93948      -861.21600
 08 11 10 23 52 14.9980000  0  7  3  6 13 16 21 23 31
 -14193991.41007  21138459.58407 -11041461.33848  21138456.59648      3853.82400
 -17471069.16007  20557551.24007 -13598401.61148  20557549.41248      2883.33800
  -1171837.57404  23056882.97504  -1175205.68445  23056878.70145      3601.57900
  -5075617.99207  19933459.98207  -3946988.38948  19933456.96348       321.66100
  -1201958.57405  23844739.20905   -926403.64946  23844735.84646      2168.80100
 -14190130.82807  21263055.67807 -11032247.96548  21263050.52948      2239.84900
    885963.19107  20904378.02107    688459.75648  20904375.07648      -866.52200
 08 11 10 23 52 29.9980000  0  7  3  6 13 16 21 23 31
 -14251713.85507  21127475.22507 -11086439.87548  21127472.77148      3848.16300
 -17514211.93007  20549341.51407 -13632019.32848  20549339.79948      2876.18500
  -1225770.15204  23046619.89604  -1217231.09845  23046615.67045      3595.50500
  -5080377.50007  19932554.19307  -3950697.08349  19932551.32249       317.30100
  -1234417.21904  23838563.32604   -951696.08546  23838558.40446      2163.91000
 -14223588.39507  21256688.60707 -11058318.79248  21256683.83848      2230.50400
    899040.19507  20906866.62307    698649.63148  20906863.01448      -871.80000
 08 11 10 23 52 44.9980000  0  7  3  6 13 16 21 23 31
 -14309350.52006  21116506.94306 -11131351.54148  21116504.99048      3842.44400
 -17557246.20707  20541152.28707 -13665552.54348  20541150.78348      2868.95200
  -1279610.35204  23036374.95904  -1259184.45345  23036369.52545      3589.34700
  -5085070.78907  19931661.16207  -3954354.18848  19931657.66248       312.88600
  -1266801.25805  23832400.85005   -976930.38446  23832395.54546      2158.93600
 -14256904.76607  21250348.63907 -11084279.59748  21250343.83448      2221.09100
    912197.42607  20909370.04507    708902.01148  20909366.74448      -877.14900
 08 11 10 23 52 59.9980000  0  7  3  6 13 16 21 23 31
 -14366901.30906  21105555.63106 -11176196.29648  21105553.46348      3836.71900
 -17600172.24207  20532983.88107 -13699001.39948  20532982.06148      2861.73600
  -1333358.16005  23026146.85705  -1301065.88345  23026141.34645      3583.18700
  -5089698.31607  19930780.65407  -3957960.06749  19930776.75249       308.50200
  -1299110.90205  23826252.15405  -1002106.70746  23826248.08046      2153.97600
 -14290080.10907  21244036.06107 -11110130.52648  21244030.99848      2211.69000
    925434.55507  20911888.95907    719216.65148  20911886.51448      -882.47500
 08 11 10 23 53 14.9980000  0  7  3  6 13 16 21 23 31
 -14424366.09807  21094620.45907 -11220974.04648  21094617.98248      3830.98600
 -17642990.08207  20524835.52107 -13732365.93048  20524834.14348      2854.52300
  -1387013.49605  23015936.51405  -1342875.22345  23015930.89345      3577.02200
  -5094260.40607  19929912.36507  -3961514.94648  19929908.63148       304.13900
  -1331346.07004  23820117.99004  -1027225.04446  23820114.82246      2149.01100
 -14323114.32807  21237749.54507 -11135871.47848  21237744.62348      2202.28100
    938751.34407  20914423.16207    729593.35748  20914420.94348      -887.78600
 08 11 10 23 53 29.9980000  0  7  3  6 13 16 21 23 31
 -14481744.21907  21083701.74007 -11265684.27848  21083699.04148      3825.20800
 -17685698.96907  20516708.45107 -13765645.58648  20516707.42048      2847.25900
  -1440575.45305  23005744.91205  -1384611.81645  23005738.46345      3570.79700
  -5098756.68407  19929056.72507  -3965018.54949  19929053.26049       299.75200
  -1363505.96904  23813997.86504  -1052284.66646  23813995.03746      2143.99300
 -14356006.66807  21231489.92807 -11161501.87248  21231486.15848      2192.82300
    952148.25007  20916972.97507    740032.49748  20916969.95948      -893.12700
 08 11 10 23 53 44.9980000  0  7  3  6 13 16 21 23 31
 -14539035.67607  21072799.56807 -11310326.97248  21072796.76048      3819.43000
 -17728298.88707  20508602.18607 -13798840.32648  20508600.76848      2839.99500
  -1494043.94905  22995569.71705  -1426275.53645  22995563.86945      3564.56600
  -5103187.51207  19928213.74007  -3968471.13048  19928210.62748       295.38900
  -1395590.50804  23807893.67004  -1077285.52246  23807889.72946      2138.96900
 -14388757.18807  21225257.59207 -11187021.75748  21225253.79548      2183.36800
    965625.04307  20919537.17007    750533.89048  20919534.14348      -898.45300
 08 11 10 23 53 59.9980000  0  7  3  6 13 16 21 23 31
 -14596240.26607  21061913.44307 -11354901.95248  21061911.40848      3813.63900
 -17770790.01607  20500516.27907 -13831950.29948  20500514.31848      2832.74200
  -1547418.60205  22985413.41205  -1467866.23445  22985407.37745      3558.31000
  -5107553.18807  19927382.91207  -3971872.95349  19927379.85749       291.04500
  -1427599.57005  23801801.26405  -1102227.62746  23801797.05746      2133.93800
 -14421365.89507  21219052.79507 -11212431.14248  21219048.84248      2173.91400
    979181.64107  20922116.60007    761097.44948  20922113.49048      -903.77300
 08 11 10 23 54 14.9980000  0  7  3  6 13 16 21 23 31
 -14653357.12507  21051044.56107 -11399408.58148  21051043.35748      3807.79100
 -17813171.38707  20492451.08407 -13864974.73748  20492448.94348      2825.42500
  -1600698.64505  22975274.25605  -1509383.13845  22975269.10745      3552.00300
  -5111853.31607  19926564.67807  -3975223.70148  19926561.43648       286.67500
  -1459532.22305  23795723.68605  -1127110.17746  23795720.51446      2128.84300
 -14453831.98407  21212874.37307 -11237729.39048  21212870.80748      2164.40600
    992818.69907  20924711.84207    771723.74248  20924708.59248      -909.13700
 08 11 10 23 54 29.9980000  0  7  3  6 13 16 21 23 31
 -14710385.91007  21040192.59207 -11443846.61648  21040190.97148      3801.91900
 -17855443.02007  20484407.23207 -13897913.67548  20484405.26848      2818.10900
  -1653883.84005  22965152.62305  -1550826.17845  22965148.41645      3545.68000
  -5116088.07807  19925758.60707  -3978523.51849  19925755.28749       282.31700
  -1491388.31305  23789662.54505  -1151933.05946  23789658.63146      2123.73900
 -14486155.37907  21206723.77107 -11262916.46248  21206719.67448      2154.89300
   1006536.02707  20927322.38107    782412.54648  20927319.13548      -914.48900
 08 11 10 23 54 44.9980000  0  7  3  6 13 16 21 23 31
 -14767326.61707  21029357.27107 -11488215.98548  21029355.39348      3796.04700
 -17897604.85907  20476384.09207 -13930767.05448  20476382.67048      2810.78900
  -1706974.03905  22955050.14605  -1592195.15646  22955045.81446      3539.34700
  -5120257.82807  19924965.38107  -3981772.66848  19924961.66248       277.98300
  -1523167.68805  23783615.70105  -1176696.25246  23783611.92446      2118.62500
 -14518336.02307  21200599.79507 -11287992.27448  21200595.92048      2145.37600
   1020333.47707  20929947.51407    793163.80748  20929944.57648      -919.83000
 08 11 10 23 54 59.9980000  0  7  3  6 13 16 21 23 31
 -14824178.57007  21018538.64607 -11532516.20448  21018535.97548      3790.13000
 -17939656.12907  20468381.90407 -13963534.28048  20468380.32648      2803.41800
  -1759968.26605  22944966.20105  -1633489.34945  22944961.30345      3532.94800
  -5124362.02007  19924184.17807  -3984970.76149  19924181.11549       273.61300
  -1554869.46105  23777583.38105  -1201398.94646  23777580.07246      2113.45200
 -14550373.21107  21194503.14607 -11312956.32448  21194498.73648      2135.81300
   1034211.70707  20932588.38907    803977.99948  20932585.46748      -925.21500
 08 11 10 23 55 14.9980000  0  7  3  6 13 16 21 23 31
 -14880941.50807  21007736.90407 -11576747.05448  21007734.11148      3784.19600
 -17981596.80907  20460400.94307 -13996215.32448  20460398.76848      2796.04500
  -1812866.36305  22934900.09205  -1674708.63946  22934895.20946      3526.54000
  -5128400.83207  19923415.69307  -3988117.87948  19923412.50648       269.25400
  -1586493.65605  23771565.63105  -1226041.14546  23771562.35046      2108.28000
 -14582266.62906  21188434.09206 -11337808.33548  21188428.99848      2126.22800
   1048170.46907  20935244.78707    814854.95248  20935241.61148      -930.58400
 08 11 10 23 55 29.9980000  0  7  3  6 13 16 21 23 31
 -14937614.50407  20996952.62307 -11620907.83748  20996949.89348      3778.20000
 -18023426.13307  20452441.34207 -14028809.61048  20452439.13548      2788.62200
  -1865667.38305  22924851.70105  -1715852.22146  22924848.54146      3520.06800
  -5132373.81307  19922659.53707  -3991213.71348  19922656.28748       264.86500
  -1618039.44505  23765561.97505  -1250622.28746  23765559.73246      2103.05300
 -14614015.56307  21182392.82607 -11362547.76848  21182387.14348      2116.59600
   1062210.39107  20937916.27107    825795.14648  20937913.24848      -935.99500
 08 11 10 23 55 44.9980000  0  7  3  6 13 16 21 23 31
 -14994197.59407  20986184.88907 -11664998.55448  20986182.91648      3772.20600
 -18065144.14507  20444502.52107 -14061317.13648  20444500.46748      2781.20100
  -1918371.27005  22914822.49005  -1756920.22946  22914819.53346      3513.59200
  -5136281.56607  19921915.82607  -3994258.70648  19921912.67048       260.51700
  -1649506.76605  23759574.09205  -1275142.25146  23759571.05746      2097.82100
 -14645620.24607  21176378.72507 -11387174.79048  21176373.31148      2106.97900
   1076331.22307  20940603.88907    836798.38248  20940600.54148      -941.38900
 08 11 10 23 55 59.9980000  0  7  3  6 13 16 21 23 31
 -15050690.15607  20975434.83407 -11709018.72248  20975433.16648      3766.17100
 -18106750.24207  20436585.52107 -14093737.47448  20436583.07648      2773.74000
  -1970977.03205  22904812.74805  -1797911.68146  22904808.89646      3507.05100
  -5140123.82807  19921184.77107  -3997252.69248  19921181.46748       256.15100
  -1680894.86305  23753601.47505  -1299600.46946  23753597.24846      2092.54000
 -14677080.04307  21170392.10707 -11411688.93948  21170386.56848      2097.32000
   1090533.46907  20943306.47507    847865.06948  20943303.35448      -946.81600
 08 11 10 23 56 14.9980000  0  7  3  6 13 16 21 23 31
 -15107092.12507  20964701.75607 -11752968.27748  20964700.25248      3760.13100
 -18148244.62507  20428689.14607 -14126070.75148  20428687.03348      2766.29200
  -2023484.57406  22894820.01406  -1838826.71046  22894816.71746      3500.50300
  -5143900.93007  19920465.99807  -4000195.88448  19920462.57248       251.80700
  -1712203.80506  23747643.92806  -1323997.02346  23747639.48246      2087.26300
 -14708395.12506  21164433.63906 -11436090.30848  21164427.67848      2087.67200
   1104816.87907  20946024.63107    858994.99748  20946021.66648      -952.22700
 08 11 10 23 56 29.9980000  0  7  3  6 13 16 21 23 31
 -15163403.48407  20953986.24007 -11796847.26348  20953984.30348      3754.09100
 -18189627.16407  20420813.89607 -14158316.89448  20420812.22548      2758.83600
  -2075894.11306  22884847.85006  -1879665.29146  22884843.79146      3493.96900
  -5147613.17607  19919760.01407  -4003088.55449  19919755.91249       247.48300
  -1743433.33605  23741699.59205  -1348331.67346  23741696.41646      2081.96900
 -14739565.32407  21158501.57607 -11460378.78548  21158496.47548      2078.01300
   1119181.23407  20948758.24007    870187.98848  20948755.24448      -957.62400
 08 11 10 23 56 44.9980000  0  7  3  6 13 16 21 23 31
 -15219622.34807  20943288.14607 -11840654.16748  20943285.27948      3747.92400
 -18230896.16807  20412960.72507 -14190474.54848  20412958.89648      2751.26700
  -2128203.57006  22874893.08406  -1920425.89146  22874889.95946      3487.29700
  -5151259.12107  19919065.96707  -4005929.55148  19919062.25648       243.06300
  -1774581.69505  23735772.48205  -1372603.19546  23735768.94346      2076.55700
 -14770588.80107  21152597.94307 -11484552.91648  21152592.96748      2068.23200
   1133628.14807  20951506.81807    881445.32548  20951503.94348      -963.12800
 08 11 10 23 56 59.9980000  0  7  3  6 13 16 21 23 31
 -15275749.69907  20932607.32607 -11884389.76848  20932604.63148      3741.82300
 -18272052.93407  20405129.31107 -14222544.76348  20405127.25648      2743.78400
  -2180413.93006  22864957.86506  -1961109.29146  22864954.83446      3480.69100
  -5154840.26607  19918384.20907  -4008720.06049  19918381.02949       238.74300
  -1805650.10505  23729861.06805  -1396812.32346  23729857.87346      2071.22700
 -14801466.93007  21146722.39607 -11508613.79548  21146717.68248      2058.54200
   1148156.17207  20954271.81807    892765.83748  20954268.65048      -968.53500
 08 11 10 23 57 14.9980000  0  7  3  6 13 16 21 23 31
 -15331785.02307  20921944.38107 -11928053.65848  20921941.31448      3735.68800
 -18313096.80107  20397318.52907 -14254526.98348  20397316.76848      2736.25800
  -2232525.05106  22855041.98206  -2001715.34846  22855038.79146      3474.07500
  -5158356.24207  19917715.49007  -4011459.78248  19917712.27148       234.39800
  -1836637.81605  23723964.25605  -1420958.54746  23723961.20146      2065.84700
 -14832199.10207  21140874.22507 -11532560.93348  21140869.54148      2048.81100
   1162765.77307  20957051.92007    904149.93348  20957048.41248      -973.97300
 08 11 10 23 57 29.9980000  0  7  3  6 13 16 21 23 31
 -15387727.59007  20911298.79507 -11971645.25948  20911296.24848      3729.50400
 -18354026.90607  20389529.89607 -14286420.58048  20389528.16248      2728.67400
  -2284535.58206  22845144.47506  -2042243.06146  22845141.61946      3467.36900
  -5161806.66807  19917058.81807  -4014148.43749  19917055.33849       230.02800
  -1867543.95305  23718082.25605  -1445041.25846  23718079.79546      2060.40900
 -14862784.43407  21135053.84207 -11556393.68248  21135049.12748      2039.02200
   1177457.57407  20959847.37307    915598.07048  20959844.28348      -979.45300
 08 11 10 23 57 44.9980000  0  7  3  6 13 16 21 23 31
 -15443576.91007  20900671.13107 -12015164.21748  20900668.93248      3723.28800
 -18394843.27707  20381762.43607 -14318225.52048  20381761.64648      2721.09100
  -2336444.96106  22835265.84206  -2082691.88346  22835262.86146      3460.62500
  -5165191.55907  19916414.60007  -4016786.01248  19916411.13148       225.65900
  -1898368.25005  23712216.50605  -1469060.16346  23712214.56446      2054.95300
 -14893222.69507  21129261.67807 -11580111.81248  21129257.14648      2029.21700
   1192231.57007  20962658.69307    927110.26248  20962655.25648      -984.93300
 08 11 10 23 57 59.9980000  0  7  3  6 13 16 21 23 31
 -15499333.09007  20890061.06107 -12058610.59348  20890058.69748      3717.07900
 -18435545.93007  20374017.55307 -14349941.87048  20374016.05748      2713.51000
  -2388253.39806  22825407.36506  -2123062.12646  22825403.84646      3453.89600
  -5168511.68807  19915783.14607  -4019373.13748  19915779.11548       221.34200
  -1929110.96105  23706366.27105  -1493015.53346  23706363.88946      2049.51400
 -14923514.32007  21123497.76407 -11603715.67648  21123492.79148      2019.44200
   1207087.13707  20965485.85007    938686.02648  20965483.18248      -990.37100
 08 11 10 23 58 14.9980000  0  7  3  6 13 16 21 23 31
 -15554996.08607  20879468.31807 -12101984.33848  20879466.15848      3710.86600
 -18476134.93807  20366293.28707 -14381569.67948  20366291.79148      2705.93400
  -2439960.85506  22815567.38906  -2163353.63346  22815563.67046      3447.16400
  -5171767.07007  19915163.19307  -4021909.79748  19915159.38148       217.02600
  -1959771.78105  23700532.13105  -1516907.08746  23700528.43946      2044.05500
 -14953659.02707  21117760.81107 -11627205.05848  21117756.32648      2009.64700
   1222024.39107  20968327.88107    950325.43848  20968325.34648      -995.81700
 08 11 10 23 58 29.9980000  0  7  3  6 13 16 21 23 31
 -15610565.69507  20868893.77107 -12145285.31948  20868891.53748      3704.64100
 -18516610.14107  20358591.42007 -14413108.79548  20358589.59648      2698.34700
  -2491566.18806  22805747.43606  -2203565.61746  22805743.90446      3440.35500
  -5174958.10507  19914556.23207  -4024396.32548  19914552.46748       212.73600
  -1990350.61705  23694712.86505  -1540734.74546  23694708.92046      2038.58900
 -14983656.89807  21112052.19307 -11650580.02648  21112048.33048      1999.85800
   1237043.14807  20971186.18607    962028.35648  20971183.36548     -1001.25100
 08 11 10 23 58 44.9980000  0  7  3  6 13 16 21 23 31
 -15666041.02707  20858337.28707 -12188512.84948  20858336.08448      3698.35500
 -18556970.95307  20350910.80307 -14444558.77748  20350909.17848      2690.72100
  -2543069.29306  22795946.67006  -2243697.85846  22795942.74846      3433.54000
  -5178084.27307  19913961.13907  -4026832.29648  19913957.37348       208.41100
  -2020846.55505  23688909.44305  -1564497.75946  23688906.15846      2033.06300
 -15013507.04707  21106372.13907 -11673839.87348  21106368.02148      1990.01000
   1252144.06607  20974059.85707    973795.29748  20974056.51448     -1006.72800
 08 11 10 23 58 59.9980000  0  7  3  6 13 16 21 23 31
 -15721421.99207  20847798.55307 -12231666.83448  20847797.32248      3692.06400
 -18597217.31607  20343252.15407 -14475919.59448  20343249.96348      2683.09100
  -2594470.28906  22786165.22506  -2283750.59946  22786161.38546      3426.73300
  -5181145.91407  19913378.68607  -4029217.99248  19913375.05348       204.10900
  -2051259.52303  23683122.53703  -1588196.19746  23683118.90046      2027.53100
 -15043209.54707  21100720.30307 -11696984.68348  21100715.75248      1980.16700
   1267326.85507  20976948.88107    985626.03148  20976945.67048     -1012.18600
 08 11 10 23 59 14.9980000  0  7  3  6 13 16 21 23 31
 -15776707.82007  20837278.14607 -12274746.69448  20837276.60448      3685.72200
 -18637348.52307  20335615.34207 -14507190.65448  20335613.33448      2675.41400
  -2645768.05906  22776403.87306  -2323722.86146  22776399.35046      3419.85100
  -5184142.60507  19912808.36507  -4031553.08348  19912804.65848       199.77900
  -2081588.99205  23677351.53705  -1611829.56446  23677347.74846      2021.96500
 -15072763.66807  21095096.37307 -11720013.87148  21095092.11148      1970.27500
   1282592.09807  20979854.25607    997521.00648  20979850.71348     -1017.68300
 08 11 10 23 59 29.9980000  0  7  3  6 13 16 21 23 31
 -15831899.37107  20826775.68607 -12317753.09448  20826773.95548      3679.43700
 -18677365.51207  20328000.59207 -14538372.72748  20327998.78748      2667.79900
  -2696962.99206  22766662.06106  -2363614.99246  22766657.54946      3412.99600
  -5187075.48407  19912250.06807  -4033838.45548  19912246.72948       195.52500
  -2111835.50005  23671595.94305  -1635398.25346  23671591.96346      2016.43400
 -15102170.36707  21089500.39607 -11742928.18148  21089495.83448      1960.44700
   1297938.74607  20982774.56107   1009479.43548  20982770.75248     -1023.11000
 08 11 10 23 59 44.9980000  0  7  3  6 13 16 21 23 31
 -15886995.26607  20816291.35707 -12360684.94948  20816289.58048      3673.06000
 -18717266.93007  20320407.60007 -14569464.73348  20320406.35048      2660.09500
  -2748053.34406  22756939.90406  -2403425.67846  22756935.56446      3406.02300
  -5189943.79707  19911704.10707  -4036073.50848  19911701.01048       191.22100
  -2141997.71505  23665856.22505  -1658901.29346  23665852.05346      2010.81400
 -15131428.43007  21083932.61507 -11765726.69548  21083928.22948      1950.53700
   1313367.93007  20985710.84207   1021502.17448  20985706.94348     -1028.61200
 08 11 10 23 59 59.9980000  0  7  3  6 13 16 21 23 31
 -15941996.29707  20805824.96707 -12403542.89448  20805822.86948      3666.73500
 -18757053.69507  20312836.31107 -14600467.39748  20312834.35048      2652.45100
  -2799040.55106  22747236.56106  -2443155.95546  22747233.05346      3399.14700
  -5192748.50407  19911170.90407  -4038258.99548  19911167.25248       186.98000
  -2172076.28505  23660131.81805  -1682339.17846  23660128.69746      2005.23800
 -15160538.69907  21078392.84207 -11788410.02548  21078388.33448      1940.68500
   1328878.57807  20988662.25607   1033588.39248  20988658.51848     -1034.04300
 08 11 11  0  0 14.9980000  0  7  3  6 13 16 21 23 31
 -15996900.71107  20795376.82607 -12446325.54848  20795375.33848      3660.29400
 -18796724.27707  20305287.56107 -14631379.54348  20305285.38548      2644.70500
  -2849923.28906  22737554.28706  -2482804.85146  22737550.97946      3392.18300
  -5195488.40207  19910649.22507  -4040393.99248  19910646.29548       182.66000
  -2202069.65206  23654424.34206  -1705710.59446  23654421.66646      1999.55800
 -15189499.54706  21072881.81806 -11810976.92548  21072877.21748      1930.72300
   1344472.02707  20991629.81807   1045739.12548  20991626.30348     -1039.56300
 08 11 11  0  0 29.9980000  0  7  3  6 13 16 21 23 31
 -16051709.06307  20784947.24807 -12489033.35748  20784945.59648      3653.89000
 -18836279.24207  20297760.24007 -14662201.59548  20297758.72948      2636.99800
  -2900701.63306  22727890.86506  -2522372.37146  22727887.49446      3385.22300
  -5198164.34807  19910140.38907  -4042479.13849  19910136.73649       178.39600
  -2231978.38705  23648732.70905  -1729016.05346  23648730.98246      1993.91600
 -15218311.41806  21067399.10006 -11833427.75048  21067394.31848      1920.79100
   1360147.56606  20994612.36506   1057953.81748  20994609.29148     -1045.03600
 08 11 11  0  0 44.9980000  0  7  3  6 13 16 21 23 31
 -16106420.53907  20774536.28707 -12531665.65248  20774533.49448      3647.43200
 -18875717.86307  20290255.32607 -14692932.97748  20290253.61548      2629.24100
  -2951374.37906  22718248.68606  -2561857.61946  22718244.83446      3378.18300
  -5200775.84807  19909643.27107  -4044514.06348  19909639.87348       174.10000
  -2261801.64506  23643057.83406  -1752254.89746  23643055.53346      1988.21700
 -15246973.72707  21061945.16207 -11855762.03148  21061940.48248      1910.82100
   1375905.66407  20997611.13107   1070232.85248  20997607.65448     -1050.54000
 08 11 11  0  0 59.9980000  0  7  3  6 13 16 21 23 31
 -16161034.69107  20764143.36507 -12574222.13348  20764140.85448      3640.94300
 -18915039.74207  20282772.62307 -14723573.40648  20282770.33848      2621.45900
  -3001940.74606  22708626.35006  -2601259.98947  22708622.36947      3371.09100
  -5203322.80107  19909158.42807  -4046498.71149  19909155.05349       169.79700
  -2291538.84005  23637398.76405  -1775426.78346  23637396.30346      1982.48000
 -15275485.97707  21056519.10707 -11877979.35948  21056514.28748      1900.81700
   1391746.71907  21000625.75607   1082576.51848  21000622.27148     -1056.07000
 08 11 11  0  1 14.9980000  0  7  3  6 13 16 21 23 31
 -16215551.73407  20753769.39607 -12616702.95048  20753766.32248      3634.47000
 -18954245.19907  20275311.99807 -14754123.11348  20275309.71748      2613.69700
  -3052400.93406  22699024.16206  -2640579.59146  22699019.56446      3364.01200
  -5205805.88707  19908685.67807  -4048433.59248  19908682.31148       165.53900
  -2321190.37905  23631756.37305  -1798531.85346  23631753.83446      1976.76900
 -15303848.58206  21051121.66206 -11900080.09648  21051117.21748      1890.84000
   1407670.05507  21003655.64607   1094984.30448  21003652.63948     -1061.55600
 08 11 11  0  1 29.9980000  0  7  3  6 13 16 21 23 31
 -16269970.86707  20743413.56107 -12659107.47248  20743411.22548      3627.94200
 -18993333.72707  20267873.97507 -14784581.70748  20267871.85748      2605.90200
  -3102754.75806  22689442.21706  -2679816.31947  22689438.38147      3356.92200
  -5208224.79307  19908225.70107  -4050318.46549  19908222.43949       161.26000
  -2350755.53105  23626130.86505  -1821569.66846  23626128.54146      1971.01000
 -15332060.98807  21045753.31107 -11922063.79448  21045748.35048      1880.82700
   1423676.25007  21006701.66207   1107456.65348  21006698.81448     -1067.08000
 08 11 11  0  1 44.9980000  0  7  3  6 13 16 21 23 31
 -16324292.14507  20733076.81107 -12701435.72348  20733074.67848      3621.41800
 -19032305.36707  20260457.91207 -14814949.21748  20260455.77948      2598.10900
  -3153001.78906  22679880.42006  -2718969.85746  22679876.55346      3349.80200
  -5210579.86307  19907777.74807  -4052153.58548  19907774.36548       157.00500
  -2380234.22305  23620520.42805  -1844540.09846  23620518.54146      1965.24600
 -15360123.32407  21040412.96707 -11943930.55248  21040408.58048      1870.82200
   1439765.09407  21009763.12307   1119993.40648  21009760.24048     -1072.59000
 08 11 11  0  1 59.9980000  0  7  3  6 13 16 21 23 31
 -16378514.98407  20722757.93607 -12743687.27148  20722756.20548      3614.85600
 -19071159.60907  20253064.13107 -14845225.25648  20253062.33848      2590.28300
  -3203140.46906  22670339.05306  -2758038.93247  22670335.38147      3342.57900
  -5212870.91007  19907341.42807  -4053938.82449  19907338.68649       152.73600
  -2409625.79705  23614927.99005  -1867442.61746  23614924.92446      1959.43800
 -15388034.90207  21035101.76407 -11965679.85348  21035097.10748      1860.77200
   1455936.76607  21012840.36507   1132594.69248  21012837.40048     -1078.11100
 08 11 11  0  2 14.9980000  0  7  3  6 13 16 21 23 31
 -16432638.74207  20712459.02107 -12785861.61548  20712456.73648      3608.25100
 -19109896.02307  20245692.71707 -14875409.47048  20245691.07248      2582.42800
  -3253171.25406  22660818.55306  -2797023.95647  22660815.08847      3335.38600
  -5215097.81607  19906917.69307  -4055674.05948  19906914.45548       148.46000
  -2438929.68805  23609351.31105  -1890276.69546  23609347.77946      1953.59300
 -15415795.29707  21029818.96707 -11987311.30248  21029814.64348      1850.69300
   1472191.62507  21015933.53707   1145260.81948  21015930.31848     -1083.65700
 08 11 11  0  2 29.9980000  0  7  3  6 13 16 21 23 31
 -16486663.23807  20702178.18607 -12827958.62248  20702176.98248      3601.63300
 -19148514.43807  20238344.10007 -14905501.73948  20238341.87748      2574.56100
  -3303094.30506  22651318.35006  -2835925.05047  22651315.07247      3328.20300
  -5217260.67207  19906506.47507  -4057359.41648  19906502.65448       144.19000
  -2468145.77006  23603791.73206  -1913042.50546  23603787.50246      1947.73900
 -15443404.50407  21024565.29507 -12008824.97848  21024560.12348      1840.61400
   1488529.71107  21019042.42007   1157991.77048  21019039.42848     -1089.20600
 08 11 11  0  2 44.9980000  0  7  3  6 13 16 21 23 31
 -16540588.19107  20691916.49807 -12869978.04348  20691914.99048      3594.99700
 -19187014.65207  20231017.58407 -14935501.90948  20231015.55748      2566.68100
  -3352908.61306  22641839.12306  -2874741.37346  22641835.79546      3320.95400
  -5219359.53107  19906106.99807  -4058994.87148  19906103.17448       139.92400
  -2497273.68006  23598248.70106  -1935739.58046  23598245.06146      1941.86100
 -15470862.29707  21019340.40407 -12030220.65248  21019335.61948      1830.52000
   1504951.06607  21022167.67007   1170787.62548  21022164.46348     -1094.75700
 08 11 11  0  2 59.9980000  0  7  3  6 13 16 21 23 31
 -16594413.46907  20681674.00607 -12911919.81948  20681671.99048      3588.35200
 -19225396.59407  20223713.81807 -14965409.92248  20223711.75248      2558.79600
  -3402614.20706  22632380.94306  -2913473.00747  22632377.13547      3313.70600
  -5221394.69507  19905719.62307  -4060580.72848  19905715.85748       135.67800
  -2526313.32006  23592722.81106  -1958367.87646  23592719.85046      1935.97600
 -15498168.62907  21014144.32607 -12051498.32148  21014139.88548      1820.42200
   1521455.46107  21025308.41207   1183648.17848  21025305.23248     -1100.29300
 08 11 11  0  3 14.9980000  0  7  3  6 13 16 21 23 31
 -16648137.85507  20671450.67807 -12953782.96348  20671448.64648      3581.62600
 -19263659.46107  20216432.57607 -14995225.12448  20216430.97948      2550.85800
  -3452209.82406  22622942.70106  -2952118.91347  22622939.67847      3306.37400
  -5223365.43807  19905344.65407  -4062116.36648  19905340.63948       131.38300
  -2555263.57005  23587213.77905  -1980926.52146  23587211.62346      1930.01700
 -15525322.41007  21008977.16207 -12072657.10848  21008972.54948      1810.25200
   1538043.68007  21028465.05307   1196574.05248  21028461.52548     -1105.88100
 08 11 11  0  3 29.9980000  0  7  3  6 13 16 21 23 31
 -16701761.34807  20661245.91207 -12995567.50748  20661244.45948      3574.89900
 -19301803.09807  20209174.06807 -15024947.44748  20209171.60048      2542.90900
  -3501694.84806  22613526.27106  -2990678.69547  22613522.79547      3299.00200
  -5225272.13307  19904981.88107  -4063602.08848  19904977.98648       127.11300
  -2584124.43805  23581721.89605  -2003415.51146  23581718.33446      1924.05800
 -15552323.77307  21003839.10007 -12093697.14348  21003834.75648      1800.09100
   1554715.56607  21031637.30307   1209565.10648  21031634.65448     -1111.45900
 08 11 11  0  3 44.9980000  0  7  3  6 13 16 21 23 31
 -16755283.37907  20651061.10007 -13037272.96748  20651059.60448      3568.13500
 -19339826.86707  20201938.38107 -15054576.35948  20201936.19748      2534.91800
  -3551068.25406  22604130.62306  -3029151.47847  22604127.44747      3291.56000
  -5227114.31307  19904631.05307  -4065037.54348  19904627.95148       122.81200
  -2612895.16405  23576246.64605  -2025834.19446  23576242.65846      1918.04800
 -15579172.12907  20998729.74007 -12114617.92948  20998726.12748      1789.89000
   1571471.68807  21034826.04507   1222621.81448  21034823.20148     -1117.07500
 08 11 11  0  3 59.9980000  0  7  3  6 13 16 21 23 31
 -16808704.04306  20640895.31106 -13078899.44648  20640893.89648      3561.37800
 -19377730.98007  20194725.60007 -15084112.03548  20194723.56448      2526.94100
  -3600331.16406  22594756.07606  -3067538.14547  22594753.17047      3284.19400
  -5228892.35507  19904292.82607  -4066423.03348  19904288.98648       118.53600
  -2641575.72705  23570789.00605  -2048182.69546  23570784.27546      1912.03700
 -15605867.53107  20993650.03707 -12135419.56348  20993646.08448      1779.69300
   1588311.75807  21038030.63107   1235743.92948  21038027.95148     -1122.67100
 08 11 11  0  4 14.9980000  0  7  3  6 13 16 21 23 31
 -16862022.55506  20630749.14606 -13120446.31648  20630748.08048      3554.56700
 -19415515.18407  20187535.39607 -15113554.26448  20187533.34248      2518.94700
  -3649482.30106  22585402.74806  -3105837.73847  22585399.74047      3276.74200
  -5230606.36707  19903966.64607  -4067758.62148  19903963.23248       114.26700
  -2670165.68405  23565348.27105  -2070460.64146  23565344.75246      1905.99700
 -15632409.69507  20988599.02107 -12156101.76648  20988594.89348      1769.47800
   1605235.87107  21041251.69307   1248931.54648  21041248.84648     -1128.27400
 08 11 11  0  4 29.9980000  0  7  3  6 13 16 21 23 31
 -16915238.24607  20620622.46707 -13161913.08048  20620621.00648      3547.71300
 -19453178.66007  20180368.41207 -15142902.43748  20180365.73248      2510.89800
  -3698521.26206  22576071.12306  -3144049.90747  22576067.90047      3269.26400
  -5232255.82007  19903652.83407  -4069043.92749  19903649.54949       109.96400
  -2698663.98406  23559925.70906  -2092667.06246  23559921.96746      1899.88700
 -15658797.80907  20983577.63107 -12176663.94048  20983573.46748      1759.20800
   1622244.65607  21044487.96707   1262185.13548  21044485.08048     -1133.91900
 08 11 11  0  4 44.9980000  0  7  3  6 13 16 21 23 31
 -16968350.99206  20610516.25606 -13203299.62448  20610514.35448      3540.85000
 -19490721.53106  20173224.06806 -15172156.61448  20173221.26848      2502.85800
  -3747447.22306  22566761.38906  -3182174.06547  22566757.76047      3261.73100
  -5233841.07407  19903351.24807  -4070279.19549  19903348.27549       105.68400
  -2727070.82805  23554519.40405  -2114802.26646  23554516.03346      1893.79000
 -15685031.98807  20978585.28707 -12197106.17048  20978581.08048      1748.94500
   1639337.69107  21047740.56807   1275504.37648  21047737.99048     -1139.53600
 08 11 11  0  4 59.9980000  0  7  3  6 13 16 21 23 31
 -17021359.79706  20600428.52106 -13244605.20048  20600426.75648      3533.92000
 -19528142.75007  20166103.10007 -15201316.01748  20166100.31448      2494.74800
  -3796259.65606  22557472.47506  -3220209.72847  22557469.62747      3254.16200
  -5235361.52007  19903062.18607  -4071463.94749  19903058.84649       101.36300
  -2755385.37905  23549131.50605  -2136865.56846  23549127.60746      1887.63700
 -15711111.25807  20973622.38907 -12217427.68748  20973617.49448      1738.61800
   1656515.85207  21051009.54507   1288889.94148  21051007.16648     -1145.21100
 08 11 11  0  5 14.9980000  0  7  3  6 13 16 21 23 31
 -17074265.23006  20590360.74006 -13285830.20648  20590358.58848      3527.02900
 -19565442.99207  20159004.95107 -15230381.14748  20159003.20148      2486.68300
  -3844958.88706  22548205.42806  -3258157.15047  22548202.62747      3246.61500
  -5236817.87907  19902784.65407  -4072598.76648  19902781.77548        97.09100
  -2783607.80105  23543761.08405  -2158856.99746  23543756.82246      1881.49500
 -15737036.23007  20968688.75607 -12237628.95948  20968684.16648      1728.33200
   1673778.53507  21054294.71707   1302341.37448  21054292.32648     -1150.84600
 08 11 11  0  5 29.9980000  0  7  3  6 13 16 21 23 31
 -17127066.41007  20580313.45107 -13326973.96548  20580311.02948      3520.07900
 -19602621.37107  20151930.49007 -15259351.30748  20151928.81848      2478.55900
  -3893543.48406  22538959.43606  -3296015.27747  22538956.95147      3238.97300
  -5238209.47707  19902520.01407  -4073683.13249  19902516.58049        92.77300
  -2811737.26206  23538408.39606  -2180776.12246  23538403.42846      1875.29700
 -15762806.14107  20963785.22507 -12257709.41648  20963780.57248      1717.99400
   1691126.28107  21057595.71707   1315859.08748  21057593.21348     -1156.51600
 08 11 11  0  5 44.9980000  0  7  3  6 13 16 21 23 31
 -17179762.47707  20570285.98207 -13368035.82648  20570283.11948      3513.07100
 -19639677.43007  20144878.72507 -15288226.14448  20144876.75648      2470.40400
  -3942012.86306  22529736.10006  -3333783.62947  22529733.65047      3231.29200
  -5239536.11307  19902267.40407  -4074716.87448  19902263.82648        88.44200
  -2839773.14105  23533073.21705  -2202622.21646  23533070.16646      1869.05900
 -15788420.38307  20958910.78707 -12277668.55848  20958906.11148      1707.61600
   1708559.60207  21060913.13907   1329443.49048  21060910.27548     -1162.22100
 08 11 11  0  5 59.9980000  0  7  3  6 13 16 21 23 31
 -17232353.52307  20560278.02107 -13409015.88648  20560275.31148      3506.07000
 -19676611.17207  20137850.40407 -15317005.68948  20137848.72948      2462.24900
  -3990367.21906  22520534.59206  -3371462.36547  22520532.15447      3223.62400
  -5240798.11707  19902027.06107  -4075700.27249  19902023.89349        84.13400
  -2867715.14105  23527756.21705  -2224395.20546  23527753.92446      1862.80000
 -15813879.03507  20954066.14607 -12297506.47448  20954061.25648      1697.24300
   1726078.34007  21064246.75607   1343094.43448  21064243.81848     -1167.91600
 08 11 11  0  6 14.9980000  0  7  3  6 13 16 21 23 31
 -17284840.14507  20550289.56807 -13449914.51248  20550287.31148      3499.10800
 -19713423.31307  20130845.10707 -15345690.46048  20130843.17848      2454.14300
  -4038606.90606  22511354.96706  -3409051.73147  22511352.44347      3215.97900
  -5241996.58207  19901799.10007  -4076634.13048  19901795.62348        79.89800
  -2895564.13305  23522456.88105  -2246095.70346  23522453.98646      1856.59900
 -15839182.83207  20949251.27107 -12317223.71248  20949245.99048      1686.92000
   1743681.30507  21067596.47507   1356811.02348  21067593.45948     -1173.53100
 08 11 11  0  6 29.9980000  0  8  3  6 13 16 19 21 23 31
 -17337221.49607  20540321.85007 -13490731.15448  20540319.50648      3492.09000
 -19750113.26207  20123863.32607 -15374280.01648  20123860.97148      2445.99700
  -4086731.08206  22502197.87306  -3446551.05647  22502194.99847      3208.27800
  -5243131.03907  19901582.84207  -4077518.13748  19901580.21748        75.63000
   -188259.49614  23315255.56104   -140599.68956  23315251.67446      4436.84400
  -2923319.40206  23517175.24006  -2267723.21246  23517172.11546      1850.35100
 -15864331.21907  20944465.86507 -12336819.87248  20944460.03748      1676.55900
   1761369.12107  21070962.54507   1370593.73348  21070959.71348     -1179.18800
 08 11 11  0  6 44.9980000  0  8  3  6 13 16 19 21 23 31
 -17389498.05907  20530374.21707 -13531466.12348  20530372.41648      3485.10400
 -19786681.80507  20116904.63907 -15402774.99548  20116902.20148      2437.90300
  -4134740.27306  22493061.46706  -3483960.82647  22493059.69347      3200.61300
  -5244202.52307  19901379.27107  -4078353.05148  19901376.15848        71.43200
   -254794.63303  23302594.69303   -192445.23546  23302591.18646      4435.67600
  -2950981.62906  23511910.89606  -2289278.19346  23511907.55746      1844.14800
 -15889324.87507  20939709.77907 -12356295.45948  20939704.06448      1666.24400
   1779141.06607  21074344.70907   1384442.00348  21074341.59648     -1184.79600
 08 11 11  0  6 59.9980000  0  8  3  6 13 16 19 21 23 31
 -17441669.21907  20520446.36507 -13572118.99348  20520444.19348      3478.07700
 -19823127.91007  20109969.31807 -15431174.56748  20109966.64348      2429.74000
  -4182633.55106  22483948.20906  -3521280.26347  22483944.74847      3192.88500
  -5245210.45707  19901187.56107  -4079138.45848  19901184.21348        67.19600
   -321294.29303  23289940.18603   -244263.14346  23289937.49446      4433.31100
  -2978549.77705  23506664.92805  -2310759.83046  23506661.44746      1837.87700
 -15914163.04307  20934983.51407 -12375649.88548  20934977.69348      1655.87800
   1796997.72307  21077742.49007   1398356.27248  21077739.71348     -1190.44400
 08 11 11  0  7 14.9980000  0  8  3  6 13 16 19 21 23 31
 -17493734.89806  20510538.56806 -13612689.64848  20510536.45548      3471.04500
 -19859451.71107  20103056.95107 -15459478.82948  20103054.91648      2421.58700
  -4230410.99606  22474856.44306  -3558509.47346  22474853.76046      3185.16300
  -5246154.98807  19901007.52907  -4079874.46148  19901004.63948        62.96900
   -387758.37104  23277292.92004   -296053.31146  23277289.96746      4430.93900
  -3006023.44905  23501436.40405  -2332167.88146  23501433.14346      1831.57800
 -15938845.52307  20930286.60007 -12394882.98048  20930281.09248      1645.49900
   1814938.91407  21081156.66207   1412336.41948  21081153.60748     -1196.07900
 08 11 11  0  7 29.9980000  0  8  3  6 13 16 19 21 23 31
 -17545695.00807  20500650.89607 -13653178.03448  20500648.95148      3464.00700
 -19895653.36307  20096168.26407 -15487687.91848  20096165.90048      2413.44300
  -4278072.15606  22465786.81106  -3595648.02346  22465783.96346      3177.41100
  -5247036.68407  19900839.70107  -4080561.49348  19900836.67048        58.78000
   -454186.93005  23264652.21705   -347815.85646  23264648.65446      4428.57100
  -3033403.03506  23496226.23206  -2353502.65546  23496222.69746      1825.30600
 -15963372.60207  20925619.30307 -12413994.99148  20925614.03348      1635.13900
   1832964.21507  21084586.24007   1426382.10248  21084583.74048     -1201.68700
 08 11 11  0  7 44.9980000  0  8  3  6 13 16 19 21 23 31
 -17597547.18007  20490783.57607 -13693582.31848  20490781.69748      3456.81100
 -19931730.76207  20089302.86507 -15515800.16448  20089300.83048      2405.16000
  -4325615.04306  22456739.62306  -3632694.44546  22456736.53746      3169.52600
  -5247853.75407  19900684.37307  -4081198.16848  19900681.43948        54.47100
   -520577.68805  23252018.48205   -399548.88947  23252014.52147      4426.05100
  -3060686.40606  23491034.38906  -2374762.48846  23491030.36546      1818.89100
 -15987742.15607  20920981.82607 -12432984.27048  20920976.77148      1624.63700
   1851075.72307  21088032.90407   1440494.96248  21088030.23248     -1207.43400
 08 11 11  0  7 59.9980000  0  8  3  6 13 16 19 21 23 31
 -17649291.61707  20480936.99007 -13733902.65148  20480935.33848      3449.62900
 -19967684.05907  20082461.15407 -15543815.71548  20082459.28748      2396.88600
  -4373039.50806  22447715.24806  -3669648.56146  22447711.36146      3161.63100
  -5248606.39807  19900541.02907  -4081784.65049  19900538.08449        50.17600
   -586930.51205  23239392.31805   -451252.39946  23239387.95146      4423.52200
  -3087873.42606  23485860.69306  -2395947.13346  23485857.11546      1812.46800
 -16011954.36307  20916374.10707 -12451850.92248  20916369.38548      1614.14700
   1869273.14107  21091495.85007   1454674.74348  21091493.05348     -1213.16100
 08 11 11  0  8 14.9980000  0  8  3  6 13 16 19 21 23 31
 -17700927.67207  20471111.15407 -13774138.52448  20471108.70548      3442.40400
 -20003512.70307  20075643.00607 -15571734.14748  20075640.78748      2388.57600
  -4420344.41406  22438713.25606  -3706509.52746  22438709.38946      3153.66000
  -5249294.40207  19900410.27907  -4082320.74348  19900407.55348        45.86700
   -653244.86305  23226773.13905   -502925.89647  23226768.38547      4420.95700
  -3114963.51206  23480705.73206  -2417056.29246  23480702.69346      1806.00600
 -16036008.82007  20911796.74807 -12470594.64748  20911792.02948      1603.63000
   1887556.77307  21094974.97507   1468921.72848  21094972.06148     -1218.90900
 08 11 11  0  8 29.9980000  0  8  3  6 13 16 19 21 23 31
 -17752454.47307  20461305.85707 -13814289.29148  20461303.18248      3435.12000
 -20039215.93007  20068849.13107 -15599554.84848  20068847.18248      2380.21500
  -4467529.10506  22429734.34206  -3743276.80846  22429730.56146      3145.64600
  -5249917.28907  19900292.07607  -4082806.11148  19900288.30748        41.52600
   -719519.68405  23214161.10005   -554568.62347  23214156.43247      4418.32100
  -3141955.92606  23475569.86506  -2438089.36546  23475566.18646      1799.49400
 -16059904.42207  20907249.80307 -12489214.60148  20907244.65048      1593.04000
   1905927.50007  21098470.83407   1483236.55348  21098468.25248     -1224.71500
 08 11 11  0  8 44.9980000  0  8  3  6 13 16 19 21 23 31
 -17803871.50807  20451521.23207 -13854354.50648  20451519.35048      3427.80200
 -20074793.20707  20062078.94307 -15627277.39548  20062077.28348      2371.81800
  -4514593.16806  22420778.28706  -3779950.08646  22420774.94746      3137.60400
  -5250474.74207  19900185.65407  -4083240.48548  19900182.05348        37.16400
   -785754.22305  23201557.04505   -606179.96846  23201551.90446      4415.63600
  -3168849.59806  23470452.24806  -2459045.45846  23470448.77546      1792.91100
 -16083640.94107  20902732.80307 -12507710.58748  20902728.52948      1582.43500
   1924385.36307  21101983.32607   1497619.28848  21101980.76048     -1230.52400
 08 11 11  0  8 59.9980000  0  8  3  6 13 16 19 21 23 31
 -17855177.35207  20441758.03707 -13894333.09148  20441756.40848      3420.39000
 -20110243.43807  20055333.10007 -15654900.95248  20055331.56848      2363.34900
  -4561535.05506  22411846.02106  -3816528.18946  22411842.40446      3129.45900
  -5250965.73807  19900092.80307  -4083623.08848  19900089.12348        32.73300
   -851947.19905  23188960.92005   -657758.91546  23188955.01446      4412.86500
  -3195643.37106  23465353.55306  -2479923.71246  23465349.76046      1786.25200
 -16107217.37507  20898246.08407 -12526081.85148  20898241.67448      1571.76200
   1942931.51207  21105512.74807   1512070.81848  21105510.25248     -1236.41000
 08 11 11  0  9 14.9980000  0  8  3  6 13 16 19 21 23 31
 -17906372.35207  20432016.39607 -13934225.28648  20432013.92448      3413.00000
 -20145567.03107  20048611.13907 -15682425.82448  20048609.63948      2354.90600
  -4608355.28506  22402935.25606  -3853011.48546  22402932.80346      3121.34900
  -5251391.21107  19900011.24807  -4083954.62048  19900008.16248        28.36500
   -918099.10905  23176372.22505   -709305.86847  23176367.87347      4410.12700
  -3222337.81606  23460274.01406  -2500724.58046  23460270.45146      1779.63000
 -16130634.00407  20893790.23207 -12544328.58248  20893785.70548      1561.10900
   1961565.23807  21109058.78707   1526590.60348  21109056.37348     -1242.24800
 08 11 11  0  9 29.9980000  0  8  3  6 13 16 19 21 23 31
 -17957455.85507  20422295.35007 -13974030.60148  20422293.37348      3405.56700
 -20180763.59407  20041913.38107 -15709851.72248  20041911.60448      2346.43800
  -4655052.96506  22394049.55306  -3889399.30446  22394046.79946      3113.17900
  -5251750.87507  19899942.92807  -4084234.87948  19899939.83048        23.97800
   -984209.29306  23163792.49806   -760820.27147  23163787.48247      4407.34600
  -3248932.43006  23455213.06806  -2521447.69947  23455209.35047      1772.97400
 -16153890.36707  20889364.81807 -12562450.42648  20889360.14648      1550.42400
   1980286.91407  21112621.24807   1541178.91148  21112618.78348     -1248.11200
 08 11 11  0  9 44.9980000  0  8  3  6 13 16 19 21 23 31
 -18008428.49607  20412595.64607 -14013749.54648  20412593.54548      3398.17600
 -20215833.71107  20035239.97507 -15737179.08748  20035237.89348      2338.00800
  -4701628.64506  22385186.41206  -3925692.04946  22385183.39346      3105.04500
  -5252045.62107  19899887.19307  -4084464.54349  19899883.56849        19.65000
  -1050278.14105  23151220.13105   -812302.50047  23151215.79547      4404.59000
  -3275427.67206  23450171.29506  -2542093.34547  23450167.61547      1766.34900
 -16176987.22307  20884969.20107 -12580447.98148  20884965.00248      1539.79000
   1999095.78507  21116200.35007   1555835.15648  21116198.09648     -1253.92500
 08 11 11  0  9 59.9980000  0  8  3  6 13 16 19 21 23 31
 -18059289.97707  20402917.54507 -14053381.86948  20402915.08048      3390.76500
 -20250777.30107  20028590.00607 -15764407.86348  20028588.43948      2329.57300
  -4748081.85206  22376346.35706  -3961889.34946  22376343.45546      3096.88000
  -5252275.60207  19899843.38907  -4084643.74549  19899839.81849        15.33200
  -1116305.23005  23138654.77905   -863752.15647  23138651.08047      4401.80600
  -3301823.18406  23445148.16206  -2562661.28247  23445145.13147      1759.70100
 -16199924.31607  20880604.77907 -12598321.05248  20880600.78748      1529.14000
   2017991.82407  21119796.58407   1570559.32448  21119794.00648     -1259.73600
 08 11 11  0 10 14.9980000  0  8  3  6 13 16 19 21 23 31
 -18110040.01607  20393259.74007 -14092927.34048  20393257.81848      3383.33600
 -20285593.91007  20021964.87307 -15791537.68348  20021963.16248      2321.10700
  -4794412.11306  22367529.79506  -3997990.85146  22367526.79146      3088.68400
  -5252440.64807  19899812.02107  -4084772.35648  19899808.23648        11.00300
  -1182290.12905  23126098.10005   -915168.94147  23126095.37347      4398.99300
  -3328118.56606  23440144.31806  -2583151.18746  23440141.58446      1753.02600
 -16222701.31607  20876270.58407 -12616069.36848  20876266.58848      1518.46700
   2036975.12907  21123408.67807   1585351.49548  21123406.21748     -1265.55400
 08 11 11  0 10 29.9980000  0  8  3  6 13 16 19 21 23 31
 -18160677.75407  20383623.58407 -14132385.31148  20383621.48248      3375.84900
 -20320283.06307  20015363.56807 -15818568.18848  20015361.40848      2312.61000
  -4840618.63706  22358737.35706  -4033995.92846  22358734.46346      3080.43500
  -5252540.43807  19899793.14607  -4084850.12349  19899789.20549         6.65300
  -1248232.05904  23113550.42004   -966552.29547  23113547.58047      4396.12900
  -3354313.11306  23435160.31106  -2603562.55146  23435157.19346      1746.30300
 -16245317.64507  20871966.31807 -12633692.48448  20871962.57648      1507.75500
   2056046.25807  21127038.14607   1600212.10948  21127035.59248     -1271.40900
 08 11 11  0 10 44.9980000  0  8  3  6 13 16 19 21 23 31
 -18211202.93407  20374009.31807 -14171755.57648  20374006.91248      3368.34500
 -20354844.68007  20008786.99807 -15845499.29948  20008784.70948      2304.10800
  -4886701.20706  22349967.44306  -4069904.41846  22349965.47546      3072.17100
  -5252575.32007  19899786.24807  -4084877.29948  19899782.86148         2.32600
  -1314130.71104  23101009.77104  -1017901.87947  23101007.15447      4393.24300
  -3380406.67606  23430194.68606  -2623895.21047  23430192.31447      1739.57100
 -16267773.31607  20867693.30307 -12651190.41748  20867689.15048      1497.04500
   2075205.14807  21130683.43607   1615141.10348  21130681.17448     -1277.25900
 08 11 11  0 10 59.9980000  0  8  3  6 13 16 19 21 23 31
 -18261615.20707  20364415.85007 -14211037.88048  20364413.60448      3360.81800
 -20389278.30507  20002234.17007 -15872330.71048  20002232.39648      2295.57500
  -4932659.32006  22341222.33406  -4105715.90647  22341220.29947      3063.87400
  -5252544.91007  19899792.15407  -4084853.60649  19899788.97949        -2.02700
  -1379985.74605  23088478.35705  -1069217.48047  23088474.93647      4390.33600
  -3406398.81606  23425248.64606  -2644148.81947  23425246.22547      1732.80900
 -16290068.03107  20863450.66207 -12668562.91648  20863446.47948      1486.31400
   2094451.94507  21134345.75607   1630138.60548  21134342.90848     -1283.12000
 08 11 11  0 11 14.9980000  0  8  3  6 13 16 19 21 23 31
 -18311914.86707  20354844.24807 -14250232.41448  20354842.00248      3353.31100
 -20423584.67207  19995706.31107 -15899062.93148  19995704.94748      2287.09100
  -4978493.40606  22332500.05306  -4141430.79947  22332498.10447      3055.60600
  -5252449.95307  19899809.68607  -4084779.61148  19899806.79148        -6.33000
  -1445797.43006  23075954.63906  -1120499.29847  23075950.93947      4387.44600
  -3432289.89106  23420321.27906  -2664323.67747  23420319.36947      1726.07200
 -16312202.29307  20859238.78707 -12685810.38948  20859234.79948      1475.61700
   2113786.03907  21138025.18607   1645204.10948  21138022.20948     -1288.94000
 08 11 11  0 11 29.9980000  0  8  3  6 13 16 19 21 23 31
 -18362101.83207  20345293.60007 -14289339.14048  20345291.89648      3345.79800
 -20457763.48007  19989201.91207 -15925695.77548  19989200.45148      2278.58700
  -5024203.01606  22323802.47506  -4177048.68047  22323799.77547      3047.30700
  -5252290.60207  19899840.31107  -4084655.44549  19899836.79949       -10.62300
  -1511565.39805  23063438.55305  -1171746.98347  23063436.10747      4384.53100
  -3458079.67206  23415413.38906  -2684419.57647  23415410.69747      1719.31900
 -16334175.95707  20855057.26407 -12702932.73548  20855052.86148      1464.91100
   2133207.30907  21141721.22507   1660337.55348  21141718.81848     -1294.75100
 08 11 11  0 11 44.9980000  0  8  3  6 13 16 19 21 23 31
 -18412175.97707  20335765.28707 -14328357.92948  20335763.18248      3338.27600
 -20491814.66007  19982722.53707 -15952229.15048  19982720.39348      2270.07900
  -5069787.77706  22315128.01406  -4212569.29646  22315125.03346      3038.98400
  -5252067.01207  19899883.22507  -4084481.22248  19899879.29548       -14.90600
  -1577289.32405  23050932.16205  -1222960.42347  23050929.89647      4381.59500
  -3483767.92605  23410524.54505  -2704436.37246  23410522.20146      1712.55000
 -16355988.86707  20850907.02907 -12719929.80848  20850902.00648      1454.19400
   2152716.01607  21145433.53707   1675539.12748  21145431.16648     -1300.58000
 08 11 11  0 11 59.9980000  0  8  3  6 13 16 19 21 23 31
 -18462135.68407  20326258.08407 -14367287.57948  20326256.36948      3330.64700
 -20525736.95707  19976267.21707 -15978662.09848  19976264.94348      2261.48600
  -5115246.43006  22306477.56106  -4247991.59747  22306473.87747      3030.57700
  -5251778.27307  19899938.10707  -4084256.24248  19899934.21748       -19.24900
  -1642967.89805  23038433.70105  -1274138.53347  23038431.12747      4378.57200
  -3509353.36306  23405656.57606  -2724373.11346  23405653.01446      1705.69600
 -16377639.95707  20846786.49007 -12736800.79048  20846781.82248      1443.40600
   2172312.84407  21149162.70107   1690809.36748  21149159.67448     -1306.45500
 08 11 11  0 12 14.9980000  0  8  3  6 13 16 19 21 23 31
 -18511981.96907  20316772.37307 -14406128.82548  20316770.89648      3323.08600
 -20559531.54707  19969836.36507 -16004995.53448  19969834.00648      2252.97300
  -5160579.52306  22297851.41206  -4283316.08046  22297847.66246      3022.20600
  -5251425.57407  19900005.02107  -4083981.39848  19900001.35048       -23.51300
  -1708601.93404  23025944.85004  -1325281.92247  23025941.59647      4375.60200
  -3534836.74205  23400807.27105  -2744230.28446  23400804.07646      1698.89200
 -16399130.19907  20842697.31807 -12753546.43948  20842692.11948      1432.68300
   2191996.73807  21152908.13107   1706147.47648  21152905.00248     -1312.26000
 08 11 11  0 12 29.9980000  0  8  3  6 13 16 19 21 23 31
 -18561714.74607  20307308.35007 -14444881.64448  20307307.22548      3315.51800
 -20593198.34407  19963429.81807 -16031229.40948  19963427.43648      2244.45300
  -5205787.21506  22289247.24806  -4318542.86947  22289244.49847      3013.84600
  -5251009.14107  19900084.25607  -4083656.91448  19900080.57248       -27.76200
  -1774191.34405  23013463.31105  -1376390.54147  23013460.05347      4372.62700
  -3560218.07006  23395977.10706  -2764007.93946  23395974.52146      1692.08900
 -16420459.72707  20838638.49007 -12770166.85548  20838633.45548      1421.96800
   2211767.61707  21156670.94307   1721553.34848  21156667.06448     -1318.05900
 08 11 11  0 12 44.9980000  0  8  3  6 13 16 19 21 23 31
 -18611333.68007  20297866.52107 -14483545.74248  20297865.86948      3307.92900
 -20626736.98407  19957047.28707 -16057363.40248  19957045.44348      2235.90900
  -5250868.98406  22280669.36506  -4353671.49547  22280666.46747      3005.45100
  -5250528.86307  19900175.57607  -4083282.66349  19900172.36549       -32.01800
  -1839735.57405  23000990.75605  -1427463.93647  23000987.43947      4369.61500
  -3585496.93406  23391166.48206  -2783705.75246  23391164.36946      1685.25800
 -16441628.11707  20834610.32607 -12786661.71448  20834605.50648      1411.22600
   2231625.54307  21160449.42807   1737027.04348  21160445.63548     -1323.86200
 08 11 11  0 12 59.9980000  0  8  3  6 13 16 19 21 23 31
 -18660838.00007  20288446.36507 -14522120.52948  20288444.30748      3300.28800
 -20660146.98407  19950689.83407 -16083397.17148  19950688.02548      2227.33300
  -5295824.05106  22272114.38906  -4388701.41447  22272112.24847      2997.00400
  -5249984.39807  19900279.18607  -4082858.40449  19900276.11949       -36.29800
  -1905233.78105  22988526.56805  -1478501.45647  22988523.52947      4366.54700
  -3610672.67206  23386375.50606  -2803323.17247  23386373.13547      1678.38300
 -16462634.84407  20830612.69307 -12803030.58448  20830607.76048      1400.44800
   2251570.83207  21164245.27907   1752568.80948  21164241.28748     -1329.68600
 08 11 11  0 13 14.9980000  0  8  3  6 13 16 19 21 23 31
 -18710227.87107  20279047.53707 -14560606.15148  20279046.19348      3292.65800
 -20693428.45307  19944356.35707 -16109330.77848  19944354.25248      2218.76500
  -5340652.28505  22263584.06805  -4423632.50347  22263582.19747      2988.54900
  -5249376.30507  19900394.81807  -4082384.56248  19900392.02148       -40.54000
  -1970685.94105  22976071.25605  -1529503.10647  22976067.90847      4363.47700
  -3635745.20706  23381604.57606  -2822860.24746  23381601.42846      1671.50200
 -16483480.13307  20826646.01407 -12819273.68048  20826641.06148      1389.68600
   2271603.45307  21168057.39607   1768178.64748  21168053.28348     -1335.50800
 08 11 11  0 13 29.9980000  0  8  3  6 13 16 19 21 23 31
 -18759502.64507  20269671.00607 -14599002.07648  20269669.41648      3284.98500
 -20726581.01207  19938047.75607 -16135163.93048  19938045.67448      2210.17100
  -5385353.10206  22255077.83406  -4458464.30947  22255075.76047      2980.05400
  -5248704.20707  19900523.12307  -4081860.86649  19900519.49449       -44.80700
  -2036091.46905  22963625.17005  -1580468.44847  22963621.37347      4360.36800
  -3660714.13706  23376853.70106  -2842316.51446  23376849.87746      1664.59500
 -16504163.46107  20822710.11507 -12835390.56248  20822705.18648      1378.88900
   2291723.62907  21171885.96707   1783856.68148  21171883.19348     -1341.34500
 08 11 11  0 13 44.9980000  0  8  3  6 13 16 19 21 23 31
 -18808662.33607  20260316.12307 -14637308.33648  20260314.55748      3277.31300
 -20759604.82807  19931763.62307 -16160896.78848  19931761.09648      2201.58800
  -5429926.59406  22246596.16206  -4493196.89247  22246594.13947      2971.56600
  -5247968.63307  19900662.82607  -4081287.70249  19900659.92049       -49.03800
  -2101450.39505  22951188.35705  -1631397.46347  22951184.63547      4357.26200
  -3685579.49606  23372122.01406  -2861692.12246  23372117.85046      1657.69100
 -16524685.19107  20818804.99007 -12851381.51548  20818799.98248      1368.11500
   2311931.03907  21175731.36507   1799602.69348  21175728.85748     -1347.16100
 08 11 11  0 13 59.9980000  0  8  3  6 13 16 19 21 23 31
 -18857707.00007  20250983.18607 -14675524.96248  20250982.15848      3269.64400
 -20792500.01607  19925503.63907 -16186529.40148  19925501.46348      2193.01200
  -5474372.62906  22238138.25606  -4527830.17247  22238136.46347      2963.06900
  -5247169.75407  19900814.97507  -4080665.18749  19900811.49449       -53.25900
  -2166762.69905  22938760.02105  -1682290.10247  22938755.77547      4354.15400
  -3710341.34806  23367409.03706  -2880987.04146  23367405.83846      1650.79000
 -16545045.40207  20814930.38107 -12867246.62648  20814925.56148      1357.34700
   2332225.49207  21179593.47507   1815416.52348  21179590.52948     -1352.96400
 08 11 11  0 14 14.9980000  0  8  3  6 13 16 19 21 23 31
 -18906636.06607  20241672.46707 -14713651.50248  20241670.48648      3261.93800
 -20825266.28107  19919268.63907 -16212061.55048  19919266.51848      2184.41800
  -5518690.60906  22229704.35006  -4562363.64747  22229702.99047      2954.53200
  -5246307.52307  19900978.90407  -4079993.33349  19900975.44349       -57.48200
  -2232027.91005  22926339.41205  -1733146.08647  22926336.33047      4351.01400
  -3734999.13706  23362717.17806  -2900200.91346  23362713.79146      1643.85300
 -16565243.78507  20811086.87307 -12882985.62948  20811082.30348      1346.55900
   2352606.92607  21183471.68607   1831298.16248  21183469.01048     -1358.76200
 08 11 11  0 14 29.9980000  0  8  3  6 13 16 19 21 23 31
 -18955449.33607  20232383.47507 -14751687.81948  20232381.44348      3254.21800
 -20857903.44507  19913057.79507 -16237493.10448  19913055.87748      2175.81100
  -5562880.30906  22221295.95906  -4596797.19147  22221293.84247      2945.98000
  -5245381.99207  19901155.13907  -4079272.15149  19901151.49449       -61.70200
  -2297245.67205  22913928.46705  -1783965.09047  22913925.13947      4347.85100
  -3759552.63705  23358044.75605  -2919333.51246  23358041.56446      1636.90000
 -16585280.36307  20807273.77107 -12898598.54948  20807269.44348      1335.77200
   2373075.41807  21187366.73207   1847247.63748  21187363.98248     -1364.56600
 08 11 11  0 14 44.9980000  0  8  3  6 13 16 19 21 23 31
 -19004147.00807  20223116.51407 -14789634.06048  20223114.38148      3246.51100
 -20890411.62507  19906871.85707 -16262824.14048  19906869.96348      2167.21200
  -5606941.43406  22212911.13106  -4631130.52047  22212909.42447      2937.40800
  -5244393.67607  19901343.34207  -4078502.02049  19901339.66649       -65.88800
  -2362415.85906  22901527.89606  -1834747.00947  22901524.02547      4344.67900
  -3784001.85505  23353392.33405  -2938384.85846  23353388.97546      1629.94800
 -16605155.06307  20803491.67807 -12914085.32848  20803487.42048      1324.98000
   2393630.75007  21191278.02907   1863264.76448  21191275.93248     -1370.35500
 08 11 11  0 14 59.9980000  0  8  3  6 13 16 19 21 23 31
 -19052727.93007  20213871.99807 -14827489.32948  20213869.99448      3238.72800
 -20922790.05907  19900710.47507 -16288054.09648  19900708.68948      2158.56200
  -5650873.11706  22204551.18606  -4665363.00547  22204549.16247      2928.77900
  -5243341.83207  19901543.47507  -4077682.40448  19901539.73648       -70.12300
  -2427537.37106  22889135.44306  -1885491.02747  22889131.42447      4341.43400
  -3808345.94906  23348760.38906  -2957354.27346  23348756.01046      1622.94000
 -16624867.05107  20799740.85007 -12929445.32748  20799736.49048      1314.13300
   2414273.75407  21195206.25607   1879350.20848  21195204.29148     -1376.20000
 08 11 11  0 15 14.9980000  0  8  3  6 13 16 19 21 23 31
 -19101192.43007  20204649.29507 -14865253.87048  20204647.93248      3230.96700
 -20955039.26207  19894573.38107 -16313183.35148  19894571.40448      2149.94700
  -5694675.75806  22196215.36506  -4699494.91347  22196213.55747      2920.17600
  -5242227.19907  19901755.54507  -4076813.86848  19901752.10748       -74.30900
  -2492610.54706  22876752.28706  -1936197.34947  22876748.39347      4338.21200
  -3832585.25806  23344147.95106  -2976242.03546  23344143.52146      1615.95400
 -16644417.04707  20796020.31107 -12944679.09348  20796016.24848      1303.33300
   2435003.76207  21199151.20907   1895503.45648  21199149.04948     -1382.00100
 08 11 11  0 15 29.9980000  0  8  3  6 13 16 19 21 23 31
 -19149540.41007  20195448.94307 -14902927.62548  20195447.17848      3223.19900
 -20987159.16807  19888461.27907 -16338211.85048  19888459.07248      2141.32700
  -5738349.11706  22187905.07606  -4733526.09547  22187902.68647      2911.55700
  -5241049.98407  19901979.60007  -4075896.56948  19901976.23248       -78.48100
  -2557635.07406  22864378.68606  -1986865.79347  22864374.65047      4334.96800
  -3856719.55106  23339554.64606  -2995047.97146  23339550.47146      1608.95300
 -16663804.94107  20792330.93607 -12959786.55348  20792326.68948      1292.52600
   2455820.63707  21203112.27107   1911724.37848  21203109.68248     -1387.79200
 08 11 11  0 15 44.9980000  0  8  3  6 13 16 19 21 23 31
 -19197770.68807  20186271.42807 -14940509.65248  20186269.26848      3215.35200
 -21019148.68407  19882373.85707 -16363138.74248  19882371.99848      2132.63400
  -5781891.95706  22179618.56106  -4767455.57847  22179616.92847      2902.85600
  -5239809.33207  19902215.59207  -4074929.83549  19902212.29549       -82.71000
  -2622609.94506  22852013.95906  -2037495.55147  22852010.15847      4331.65800
  -3880747.69905  23334982.39605  -3013771.16746  23334978.26846      1601.87700
 -16683029.79307  20788672.91207 -12974766.97248  20788668.11548      1281.65700
   2476725.22307  21207090.60007   1928013.66848  21207086.91248     -1393.63900
 08 11 11  0 15 59.9980000  0  8  3  6 13 16 19 21 23 31
 -19245883.66807  20177115.92007 -14978000.29948  20177113.27548      3207.53200
 -21051008.21907  19876311.42807 -16387964.36448  19876309.36148      2123.96900
  -5825304.24206  22171357.85706  -4801283.31447  22171355.34647      2894.15200
  -5238505.78107  19902463.48207  -4073914.08949  19902460.64649       -86.90300
  -2687535.33606  22839659.49006  -2088086.73347  22839655.15447      4328.35900
  -3904669.91405  23330429.84205  -3032411.87746  23330426.51846      1594.81400
 -16702091.96907  20785045.39607 -12989620.62648  20785040.36148      1270.81200
   2497716.97307  21211084.84207   1944370.87048  21211081.54148     -1399.45000
 08 11 11  0 16 14.9980000  0  8  3  6 13 16 19 21 23 31
 -19293879.46507  20167982.67807 -15015399.62948  20167980.55348      3199.72000
 -21082737.98407  19870273.10007 -16412688.85348  19870271.32248      2115.31800
  -5868586.21505  22163121.10005  -4835009.55647  22163119.08447      2885.46500
  -5237139.72707  19902723.67807  -4072849.62449  19902720.38549       -91.07000
  -2752411.08206  22827313.74806  -2138639.22147  22827309.83847      4325.05000
  -3928486.29306  23325897.84206  -3050970.10746  23325894.69746      1587.75900
 -16720991.62507  20781449.05307 -13004347.62348  20781444.52548      1259.97700
   2518795.66007  21215096.24007   1960795.81148  21215092.66648     -1405.24600
 08 11 11  0 16 29.9980000  0  8  3  6 13 16 19 21 23 31
 -19341757.87107  20158871.45107 -15052707.47648  20158869.32648      3191.89400
 -21114338.11307  19864260.23207 -16437312.33248  19864258.31448      2106.67500
  -5911737.71106  22154910.17806  -4868634.06347  22154907.18947      2876.76600
  -5235711.43007  19902995.37307  -4071736.66649  19902992.11149       -95.22000
  -2817237.17606  22814977.33406  -2189153.01247  22814973.68247      4321.74000
  -3952196.96506  23321386.81806  -3069445.91146  23321382.32646      1580.71100
 -16739728.94107  20777883.63907 -13018948.13548  20777878.92848      1249.15400
   2539960.97307  21219123.75607   1977288.26448  21219119.89348     -1411.02100
 08 11 11  0 16 44.9980000  0  8  3  6 13 16 19 21 23 31
 -19389518.93807  20149782.91207 -15089923.88048  20149780.85448      3184.07100
 -21145808.55907  19858271.39607 -16461834.76148  19858269.74448      2098.03000
  -5954758.77005  22146723.54505  -4902156.95447  22146720.93247      2868.07100
  -5234221.27707  19903278.95907  -4070575.51049  19903275.68649       -99.34300
  -2882013.34406  22802651.47506  -2239627.92247  22802647.20147      4318.41100
  -3975801.78906  23316893.98206  -3087839.27846  23316889.48246      1573.65500
 -16758304.00007  20774349.03707 -13033422.21748  20774344.44748      1238.33700
   2561212.87907  21223168.12307   1993848.17848  21223164.42848     -1416.79400
 08 11 11  0 16 59.9980000  0  8  3  6 13 16 19 21 23 31
 -19437162.14107  20140716.95107 -15127048.46348  20140714.90848      3176.21400
 -21177149.06608  19852307.60008 -16486255.92549  19852305.39649      2089.36700
  -5997648.84406  22138561.62306  -4935577.78147  22138558.67047      2859.33800
  -5232669.19107  19903574.24807  -4069366.09448  19903570.99448      -103.47200
  -2946739.21106  22790334.88106  -2290063.66147  22790329.47147      4315.05800
  -3999300.25406  23312422.06806  -3106149.76846  23312417.24446      1566.56400
 -16776716.55106  20770844.65406 -13047769.65348  20770840.41248      1227.50300
   2582551.41007  21227228.42807   2010475.59548  21227225.13148     -1422.56900
 08 11 11  0 17 14.9970000  0  8  3  6 13 16 19 21 23 31
 -19484684.07807  20131673.51707 -15164078.52548  20131671.70048      3168.12900
 -21208357.59807  19846368.83707 -16510574.26848  19846366.39648      2080.56900
  -6040404.64506  22130425.43106  -4968893.98047  22130422.48947      2850.38700
  -5231055.42207  19903881.11007  -4068108.60748  19903877.80648      -107.58500
  -3011410.25006  22778028.24306  -2340456.65447  22778023.43147      4311.40300
  -4022690.66805  23307970.76705  -3124376.02746  23307967.59546      1559.36100
 -16794965.31307  20767372.66507 -13061989.47648  20767367.09948      1216.58400
   2603974.94107  21231305.35307   2027169.24148  21231302.06048     -1428.23500
 08 11 11  0 17 29.9970000  0  8  3  6 13 16 19 21 23 31
 -19532090.53107  20122652.30607 -15201018.61548  20122650.33348      3160.43000
 -21239437.60507  19840454.91507 -16534792.46948  19840451.84148      2072.00100
  -6083030.82806  22122312.76706  -5002109.16747  22122310.72447      2841.74600
  -5229379.13707  19904200.25107  -4066802.43249  19904197.32149      -111.75200
  -3076034.16006  22765731.17306  -2390812.93547  22765726.21247      4308.26100
  -4045975.37106  23303540.32106  -3142519.97146  23303537.32946      1552.31400
 -16813052.04707  20763930.65707 -13076083.04448  20763925.68848      1205.78200
   2625486.93407  21235398.86007   2043931.82248  21235395.78648     -1434.13300
 08 11 11  0 17 44.9970000  0  8  3  6 13 16 19 21 23 31
 -19579377.71107  20113653.98507 -15237865.75948  20113651.86448      3152.47900
 -21270386.54707  19834564.93807 -16558908.51548  19834562.81748      2063.26300
  -6125524.17605  22114226.90705  -5035220.88147  22114224.38447      2832.89000
  -5227640.35907  19904531.07107  -4065447.53949  19904527.81349      -115.91800
  -3140605.97306  22753442.97006  -2441128.59647  22753438.13047      4304.78800
  -4069152.32806  23299130.20406  -3160579.88046  23299127.02446      1545.13000
 -16830975.15207  20760519.95407 -13090049.10748  20760515.11048      1194.87400
   2647086.27307  21239508.82907   2060762.45148  21239506.00148     -1439.95600
 08 11 11  0 17 59.9970000  0  8  3  6 13 16 19 21 23 31
 -19626546.88307  20104677.96207 -15274620.97248  20104675.46248      3144.61100
 -21301205.69107  19828700.15707 -16582923.44048  19828698.31048      2054.61000
  -6167886.52706  22106166.35306  -5068230.49647  22106163.14247      2824.15700
  -5225840.82407  19904873.87607  -4064045.31849  19904870.65349      -119.96900
  -3205126.81306  22741164.81306  -2491404.55647  22741159.74747      4301.38900
  -4092222.74206  23294739.66506  -3178556.82146  23294737.21646      1538.02800
 -16848736.08607  20757139.97807 -13103888.79448  20757135.26748      1184.06200
   2668771.42607  21243635.86007   2077659.96748  21243633.11848     -1445.67700
 08 11 11  0 18 14.9970000  0  8  3  6 13 16 19 21 23 31
 -19673597.63307  20095724.63407 -15311283.91348  20095721.99348      3136.71700
 -21331895.17607  19822860.25107 -16606837.31248  19822858.44248      2045.96600
  -6210116.48405  22098130.02405  -5101136.95847  22098127.06047      2815.33000
  -5223980.36307  19905227.62607  -4062595.60348  19905224.08348      -124.03100
  -3269596.56306  22728896.07906  -2541640.72146  22728890.97046      4297.98300
  -4115186.43006  23290369.79806  -3196450.55446  23290366.90746      1530.91200
 -16866334.85207  20753791.11807 -13117602.11148  20753786.23148      1173.25100
   2690542.42207  21247778.45407   2094624.36748  21247776.04048     -1451.40000
 08 11 11  0 18 29.9970000  0  9  3  6 13 16 19 21 23 25 31
 -19720530.22707  20086793.52407 -15347854.75648  20086791.10648      3128.84000
 -21362455.19107  19817045.32907 -16630650.33248  19817043.45048      2037.33400
  -6252214.43006  22090119.50106  -5133940.56647  22090116.01347      2806.53000
  -5222059.45307  19905593.34507  -4061098.79148  19905589.59148      -128.06100
  -3334015.02706  22716638.18806  -2591836.90347  22716633.33747      4294.56400
  -4138043.49606  23286020.00906  -3214261.27847  23286018.27447      1523.80400
 -16883771.64107  20750473.20407 -13131189.23048  20750468.04448      1162.45300
   -157777.02714  23645157.57904   -113982.06655  23645154.53645      3727.34400
   2712398.80907  21251937.86007   2111655.30448  21251935.51348     -1457.09200
 08 11 11  0 18 44.9970000  0  9  3  6 13 16 19 21 23 25 31
 -19767344.80907  20077885.16507 -15384333.62948  20077882.82948      3120.97200
 -21392885.91007  19811253.93807 -16654362.56748  19811252.29048      2028.71500
  -6294180.48806  22082133.50906  -5166641.36247  22082130.27447      2797.73700
  -5220078.52707  19905970.15707  -4059555.21449  19905966.90349      -132.06200
  -3398382.43806  22704389.17306  -2641993.29347  22704384.42347      4291.16100
  -4160794.12106  23281690.54006  -3231989.01846  23281689.27446      1516.70800
 -16901046.82007  20747185.76707 -13144650.40248  20747180.74748      1151.67900
   -213680.52704  23634518.86004   -157543.19145  23634516.39245      3726.90000
   2734340.28907  21256113.13407   2128752.55148  21256111.19648     -1462.76500
 08 11 11  0 18 59.9970000  0  9  3  6 13 16 19 21 23 25 31
 -19814041.37107  20068998.92307 -15420720.56348  20068996.89248      3113.10400
 -21423187.38707  19805487.93807 -16677974.11848  19805485.69248      2020.09800
  -6336014.45706  22074172.80606  -5199239.28047  22074169.51347      2788.93100
  -5218037.84007  19906358.37607  -4057965.07849  19906355.11049      -136.04600
  -3462698.54706  22692150.06306  -2692109.73047  22692145.52147      4287.74100
  -4183438.07406  23277382.04006  -3249633.62947  23277380.13047      1509.59700
 -16918160.23807  20743928.88407 -13157985.53948  20743924.79448      1140.89500
   -269574.34403  23623883.22803   -201096.87945  23623879.60645      3726.25400
   2756366.76207  21260304.67307   2145916.02648  21260302.79448     -1468.43200
 08 11 11  0 19 14.9970000  0  9  3  6 13 16 19 21 23 25 31
 -19860619.69507  20060135.13407 -15457015.35248  20060132.86448      3105.22200
 -21453359.82407  19799746.17307 -16701485.09848  19799744.39648      2011.49600
  -6377716.44106  22066237.33706  -5231734.31747  22066233.66947      2780.13200
  -5215937.76207  19906757.94607  -4056328.64749  19906755.00149      -140.00500
  -3526963.29305  22679920.79005  -2742186.10247  22679916.95047      4284.31600
  -4205975.47306  23273093.57106  -3267195.25046  23273091.15746      1502.49300
 -16935112.18807  20740703.15707 -13171194.86048  20740698.86848      1130.13000
   -325458.70704  23613248.93104   -244643.10245  23613245.14945      3725.62400
   2778477.92207  21264511.83707   2163145.48848  21264510.14648     -1474.07700
 08 11 11  0 19 29.9970000  0  9  3  6 13 16 19 21 23 25 31
 -19907079.01607  20051294.34507 -15493217.40748  20051292.32948      3097.28800
 -21483402.32807  19794029.16507 -16724894.84348  19794027.30648      2002.83400
  -6419285.58206  22058327.09506  -5264125.86347  22058323.43547      2771.27600
  -5213777.72307  19907168.68107  -4054645.50648  19907165.71248      -144.00300
  -3591175.56606  22667701.87606  -2792221.62047  22667697.91547      4280.81800
  -4228405.46506  23268825.09506  -3284673.16446  23268822.28246      1495.33300
 -16951901.99207  20737507.81307 -13184277.81848  20737504.34148      1119.32000
   -381332.60903  23602616.54003   -288181.21545  23602612.76345      3724.92700
   2800674.21107  21268735.51707   2180441.27948  21268733.78648     -1479.75300
 08 11 11  0 19 44.9970000  0  9  3  6 13 16 19 21 23 25 31
 -19953417.98007  20042476.64207 -15529325.68948  20042474.87648      3089.26400
 -21513313.68407  19788337.48507 -16748202.39748  19788335.11048      1994.09000
  -6460720.23406  22050442.45406  -5296412.61147  22050438.47047      2762.31000
  -5211556.53907  19907591.72007  -4052914.71748  19907588.43548      -148.07900
  -3655333.96106  22655492.85306  -2842215.13047  22655489.09547      4277.22600
  -4250726.66006  23264577.74306  -3302066.26847  23264574.77447      1488.08000
 -16968528.41007  20734343.91507 -13197233.47748  20734339.81348      1108.42800
   -437194.75403  23591985.19603   -331710.20745  23591982.29045      3724.14300
   2822956.88707  21272976.20407   2197804.39848  21272973.53648     -1485.51200
 08 11 11  0 19 59.9970000  0  9  3  6 13 16 19 21 23 25 31
 -19999636.43407  20033681.44607 -15565340.07048  20033679.41548      3081.23000
 -21543093.92208  19782670.57108 -16771407.77948  19782668.13448      1985.34900
  -6502020.33606  22042583.12606  -5328594.53747  22042579.69247      2753.34000
  -5209274.55907  19908025.84507  -4051136.55048  19908022.78648      -152.13200
  -3719438.35506  22643293.98506  -2892166.60547  22643290.72447      4273.62600
  -4272938.89506  23260350.63406  -3319374.48747  23260348.12247      1480.81600
 -16984991.53507  20731211.04007 -13210061.88348  20731207.16548      1097.54200
   -493045.01202  23581357.70402   -375229.79745  23581354.36445      3723.35100
   2845325.98007  21277233.10307   2215234.82548  21277230.31348     -1491.27300
 08 11 11  0 20 14.9970000  0  9  3  6 13 16 19 21 23 25 31
 -20045733.61707  20024909.74307 -15601259.94348  20024906.86048      3073.14600
 -21572742.44507  19777028.68807 -16794510.53448  19777026.38048      1976.56800
  -6543185.18407  22034749.88407  -5360671.02147  22034746.40747      2744.32300
  -5206931.32007  19908471.53207  -4049310.63848  19908468.94648      -156.21600
  -3783487.89506  22631105.96206  -2942075.28247  22631102.71647      4269.96900
  -4295041.47706  23256144.72006  -3336597.28447  23256141.79447      1473.50500
 -17001290.71107  20728109.86807 -13222762.55148  20728105.53648      1086.61200
   -548882.54303  23570731.41503   -418739.57045  23570728.50945      3722.50200
   2867781.83207  21281506.48507   2232732.89348  21281503.62648     -1497.05700
 08 11 11  0 20 29.9970000  0  9  3  6 13 16 19 21 23 25 31
 -20091708.96107  20016160.75107 -15637084.89148  20016157.86048      3065.02300
 -21602258.52007  19771411.59507 -16817510.06548  19771410.20848      1967.73800
  -6584213.34406  22026942.72806  -5392641.03647  22026938.52847      2735.21100
  -5204526.18407  19908929.29007  -4047436.51148  19908926.57948      -160.34200
  -3847481.77006  22618928.97806  -2991940.62047  22618925.08747      4266.25800
  -4317033.44106  23251959.61006  -3353733.90646  23251956.85646      1466.13100
 -17017425.11707  20725039.52407 -13235334.83248  20725035.22048      1075.62700
   -604706.72702  23560108.93102   -462238.91845  23560106.30245      3721.61200
   2890325.07407  21285796.21207   2250299.04848  21285792.96648     -1502.88300
 08 11 11  0 20 44.9970000  0  9  3  6 13 16 19 21 23 25 31
 -20137561.58207  20007434.93807 -15672814.18048  20007432.67348      3056.84100
 -21631641.60907  19765820.45407 -16840405.97748  19765818.61448      1958.87300
  -6625104.17206  22019161.14206  -5424504.01047  22019157.87647      2726.05500
  -5202058.79707  19909399.00907  -4045513.87648  19909395.93848      -164.49200
  -3911418.92206  22606761.21206  -3041761.77647  22606757.73947      4262.47700
  -4338914.20706  23247796.00906  -3370783.84247  23247792.48147      1458.71800
 -17033394.33607  20722000.70407 -13247778.38548  20721995.88848      1064.61500
   -660516.71904  23549488.98504   -505727.18445  23549485.82545      3720.66600
   2912956.09407  21290102.80607   2267933.58548  21290100.17348     -1508.73500
 08 11 11  0 20 59.9970000  0  9  3  6 13 16 19 21 23 25 31
 -20183290.91007  19998732.37607 -15708447.42448  19998730.40748      3048.62200
 -21660891.46907  19760254.41507 -16863198.07248  19760252.48948      1949.99100
  -6665857.34006  22011405.96206  -5456259.71947  22011403.36047      2716.87800
  -5199529.12907  19909880.23507  -4043542.70448  19909877.14948      -168.64500
  -3975298.96906  22594605.28206  -3091538.36747  22594601.53247      4258.67000
  -4360683.35206  23243653.73506  -3387746.82747  23243649.99747      1451.27600
 -17049198.11307  20718993.49307 -13260093.02948  20718988.66548      1053.58500
   -716312.07005  23538872.09505   -549204.08645  23538867.97445      3719.69000
   2935675.07407  21294425.97807   2285636.66348  21294423.11448     -1514.59900
 08 11 11  0 21 14.9970000  0  9  3  6 13 16 19 21 23 25 31
 -20228897.42207  19990054.37607 -15743984.96348  19990051.88448      3040.43400
 -21690008.57007  19754713.30607 -16885886.72048  19754711.38048      1941.14000
  -6706473.27706  22003676.90706  -5487908.50047  22003674.10647      2707.72900
  -5196937.79307  19910373.85307  -4041523.49148  19910370.28648      -172.75600
  -4039122.27006  22582460.23506  -3141270.76047  22582456.53247      4254.88700
  -4382341.34406  23239531.63406  -3404623.16647  23239528.52847      1443.86600
 -17064837.11307  20716017.37607 -13272279.25748  20716012.66148      1042.60000
   -772093.37904  23528257.13404   -592670.02745  23528252.72045      3718.75400
   2958481.28907  21298766.11807   2303407.73348  21298762.90348     -1520.41400
 08 11 11  0 21 29.9970000  0  9  3  6 13 16 19 21 23 25 31
 -20274380.79707  19981399.24307 -15779426.56448  19981396.92348      3032.22500
 -21718992.69907  19749198.04007 -16908471.74748  19749195.86448      1932.27500
  -6746951.55506  21995974.48506  -5519449.99847  21995970.55247      2698.55200
  -5194284.94507  19910878.75107  -4039456.34848  19910874.86848      -176.85700
  -4102888.47706  22570326.15706  -3190958.68947  22570322.30247      4251.08000
  -4403887.71506  23235431.86006  -3421412.57947  23235428.97447      1436.42500
 -17080311.12907  20713072.65707 -13284336.94048  20713068.12248      1031.60100
   -827860.18804  23517644.57904   -636124.69545  23517640.45045      3717.78700
   2981374.87507  21303122.46207   2321246.87548  21303118.93848     -1526.23900
 08 11 11  0 21 44.9970000  0  9  3  6 13 16 19 21 23 25 31
 -20319740.70307  19972767.43807 -15814771.93448  19972765.18548      3023.99400
 -21747843.64507  19743707.97007 -16930953.00748  19743705.70448      1923.39600
  -6787291.98806  21988298.01706  -5550884.09847  21988293.95047      2689.36200
  -5191570.34807  19911395.38407  -4037341.06949  19911391.58349      -180.97300
  -4166597.06306  22558202.90706  -3240601.75247  22558198.73947      4247.23900
  -4425322.37106  23231353.02406  -3438114.90947  23231349.56047      1428.97700
 -17095620.10907  20710159.57907 -13296265.99848  20710155.08348      1020.59900
   -883612.18404  23507035.54004   -679567.79745  23507031.77145      3716.80000
   3004355.94907  21307495.63407   2339154.18648  21307492.03648     -1532.07200
 08 11 11  0 21 59.9970000  0  9  3  6 13 16 19 21 23 25 31
 -20364976.03907  19964159.49307 -15850020.24148  19964157.25948      3015.68900
 -21776560.38307  19738243.28207 -16953329.69748  19738241.46248      1914.44900
  -6827493.04306  21980647.81306  -5582209.61247  21980644.24347      2680.07000
  -5188793.18007  19911923.48507  -4035177.05148  19911920.17748      -185.14500
  -4230246.75406  22546090.53206  -3290198.89447  22546086.67347      4243.31300
  -4446643.90606  23227295.43806  -3454729.09847  23227291.91147      1421.43600
 -17110762.84007  20707277.82107 -13308065.53448  20707273.81048      1009.51500
   -939348.21904  23496429.25104   -722998.46945  23496425.39945      3715.73600
   3027425.48007  21311885.36807   2357130.42848  21311882.13848     -1537.96900
 08 11 11  0 22 14.9970000  0  9  3  6 13 16 19 21 23 25 31
 -20410086.94507  19955575.25107 -15885171.59648  19955572.31048      3007.39400
 -21805143.20307  19732804.19607 -16975602.02748  19732802.36048      1905.52100
  -6867554.71906  21973024.51706  -5613426.51447  21973021.02847      2670.77800
  -5185953.91807  19912464.14207  -4032964.63348  19912460.51748      -189.28400
  -4293837.68406  22533989.60306  -3339750.22947  22533986.00947      4239.39500
  -4467852.48806  23223260.57906  -3471255.28847  23223255.75547      1413.90500
 -17125739.67207  20704427.76707 -13319735.79848  20704423.80648       998.45500
   -995068.59803  23485825.86803   -766416.89545  23485822.69245      3714.69200
   3050582.94907  21316292.04807   2375175.20548  21316289.00148     -1543.83100
 08 11 11  0 22 29.9970000  0  9  3  6 13 16 19 21 23 25 31
 -20455073.18807  19947014.83707 -15920225.79848  19947011.73548      2999.08300
 -21833592.02707  19727390.60307 -16997769.92848  19727389.06348      1896.58800
  -6907476.77706  21965427.20406  -5644534.61547  21965424.44647      2661.47100
  -5183052.69107  19913016.21207  -4030703.94748  19913012.16948      -193.41500
  -4357369.32806  22521900.22006  -3389255.39847  22521896.51747      4235.44300
  -4488948.03106  23219245.68806  -3487693.39047  23219242.48547      1406.37000
 -17140550.64507  20701609.54007 -13331276.83448  20701604.64948       987.39800
  -1050772.84003  23475225.53203   -809822.80145  23475221.93545      3713.61600
   3073828.45707  21320715.63407   2393288.57548  21320713.23548     -1549.70100
 08 11 11  0 22 44.9970000  0  9  3  6 13 16 19 21 23 25 31
 -20499934.38707  19938477.75107 -15955182.57548  19938474.51748      2990.74700
 -21861906.75407  19722002.61007 -17019833.34649  19722001.07549      1887.64800
  -6947258.89806  21957856.97806  -5675533.67547  21957854.03247      2652.14100
  -5180089.52707  19913579.79007  -4028394.98348  19913575.89248      -197.54400
  -4420841.62106  22509821.22806  -3438714.31447  22509818.38047      4231.48600
  -4509930.22306  23215252.94606  -3504043.14947  23215249.54047      1398.81300
 -17155195.59407  20698822.57907 -13342688.48048  20698817.68148       976.33000
  -1106460.78901  23464628.52401   -853216.02745  23464624.28245      3712.53000
   3097161.92207  21325155.95407   2411470.46748  21325153.50148     -1555.56400
 08 11 11  0 22 59.9970000  0  9  3  6 13 16 19 21 23 25 31
 -20544671.10207  19929964.59507 -15990042.34748  19929962.20848      2982.44800
 -21890087.91407  19716639.79807 -17041792.70448  19716638.38848      1878.74400
  -6986901.67606  21950313.28206  -5706424.12647  21950310.93547      2642.85200
  -5177065.18807  19914155.27407  -4026038.35348  19914151.57548      -201.62300
  -4484254.88306  22497754.37606  -3488127.24547  22497750.88847      4227.55100
  -4530799.62106  23211281.81306  -3520304.99447  23211278.18147      1391.29300
 -17169675.17207  20696066.78207 -13353971.27048  20696062.46248       965.30500
  -1162132.93003  23454035.11803   -896596.88345  23454029.66145      3711.47600
   3120582.58607  21329612.89207   2429720.33148  21329610.38848     -1561.37800
 08 11 11  0 23 14.9970000  0  9  3  6 13 16 19 21 23 25 31
 -20589282.98007  19921475.43107 -16024804.85248  19921473.36048      2974.12500
 -21918135.22707  19711302.59507 -17063647.74548  19711301.16548      1869.82100
  -7026404.76606  21942795.77406  -5737205.75947  21942793.63047      2633.53900
  -5173979.46907  19914742.45407  -4023633.89048  19914738.83748      -205.71500
  -4547608.35206  22485698.72006  -3537493.55847  22485695.18547      4223.56500
  -4551555.64806  23207332.23506  -3536478.53347  23207328.45047      1383.73500
 -17183989.10907  20693343.12607 -13365124.99248  20693338.20048       954.26300
  -1217788.75002  23443443.56302   -939965.07045  23443439.07145      3710.38800
   3144090.70707  21334086.27407   2448038.34148  21334083.48148     -1567.20800
 08 11 11  0 23 29.9970000  0  9  3  6 13 16 19 21 23 25 31
 -20633769.91407  19913009.76707 -16059470.00348  19913007.47848      2965.79600
 -21946048.86307  19705990.41507 -17085398.63048  19705988.68148      1860.90900
  -7065767.38706  21935305.59506  -5767877.94947  21935302.74747      2624.17500
  -5170832.70707  19915341.06307  -4021181.88148  19915337.68148      -209.78400
  -4610901.97706  22473653.91506  -3586813.26747  22473650.55247      4219.57500
  -4572198.46506  23203404.05606  -3552563.85847  23203400.16547      1376.18800
 -17198137.59807  20690650.82107 -13376149.79948  20690646.64948       943.23300
  -1273428.36702  23432856.90702   -983320.58245  23432851.10345      3709.30800
   3167685.98007  21338576.39207   2466424.26148  21338573.67748     -1573.01800
 08 11 11  0 23 44.9970000  0  9  3  6 13 16 19 21 23 25 31
 -20678131.76607  19904568.32907 -16094037.67448  19904565.55648      2957.45700
 -21973828.74607  19700703.91507 -17107045.29248  19700702.48548      1851.99200
  -7104989.68006  21927841.61806  -5798440.79847  21927839.25547      2614.82000
  -5167625.13307  19915951.67307  -4018682.46748  19915948.53648      -213.83800
  -4674135.69906  22461620.85306  -3636086.27147  22461618.02447      4215.58200
  -4592727.98806  23199496.84506  -3568560.86947  23199493.77847      1368.63500
 -17212120.55107  20687990.64907 -13387045.62348  20687985.60348       932.19700
  -1329051.54702  23422271.29002  -1026663.37545  23422266.82545      3708.21200
   3191368.21907  21343083.20407   2484877.92648  21343080.93848     -1578.81600
 08 11 11  0 23 59.9970000  0  9  3  6 13 16 19 21 23 25 31
 -20722368.52307  19896149.75107 -16128507.88048  19896147.33348      2949.11700
 -22001474.89807  19695443.41507 -17128587.75548  19695441.93148      1843.07700
  -7144071.51206  21920404.73506  -5828894.15447  21920402.43847      2605.45500
  -5164356.80107  19916573.67307  -4016135.71448  19916570.34148      -217.88900
  -4737309.23006  22449599.65706  -3685312.36447  22449596.80247      4211.56900
  -4613143.91406  23195611.66506  -3584469.37747  23195609.19247      1361.06200
 -17225938.16006  20685360.89206 -13397812.58648  20685355.93148       921.17400
  -1384658.16803  23411690.57903  -1069993.19545  23411685.25945      3707.10800
   3215137.41807  21347606.31307   2503399.36148  21347604.43848     -1584.61300
 08 11 11  0 24 14.9970000  0  9  3  6 13 16 19 21 23 25 31
 -20766480.39107  19887755.62607 -16162880.76648  19887753.39648      2940.79100
 -22028987.88307  19690208.15707 -17150026.42848  19690206.36448      1834.19900
  -7183013.23006  21912994.32906  -5859238.35147  21912991.75547      2596.11500
  -5161028.41007  19917207.04807  -4013542.15748  19917203.30248      -221.89300
  -4800422.91406  22437589.61006  -3734491.86047  22437585.96247      4207.57900
  -4633446.65206  23191748.36806  -3600289.70047  23191745.84547      1353.51600
 -17239590.91007  20682763.13407 -13408451.09948  20682757.60348       910.18300
  -1440248.58202  23401111.30602  -1113310.36345  23401107.21245      3706.02800
   3238992.99207  21352146.03207   2521988.10348  21352143.50948     -1590.37200
 08 11 11  0 24 29.9970000  0  9  3  6 13 16 19 21 23 25 31
 -20810467.74207  19879385.19607 -16197156.62148  19879383.15348      2932.49000
 -22056367.75807  19684997.57107 -17171361.39448  19684995.90748      1825.32500
  -7221814.96106  21905610.24306  -5889473.45847  21905608.41147      2586.78200
  -5157640.29307  19917851.37607  -4010902.07348  19917848.30248      -225.87400
  -4863476.44106  22425590.93106  -3783624.48947  22425586.79447      4203.56800
  -4653636.15206  23187906.47806  -3616021.79447  23187904.07147      1345.96700
 -17253079.03907  20680196.02407 -13418961.32448  20680190.84148       899.20900
  -1495822.79303  23390536.01703  -1156614.99645  23390531.86445      3704.94700
   3262934.61307  21356701.97007   2540643.90348  21356699.68148     -1596.10800
 08 11 11  0 24 44.9970000  0  9  3  6 13 16 19 21 23 25 31
 -20854330.72307  19871038.31307 -16231335.55348  19871036.77148      2924.19900
 -22083615.15607  19679812.63407 -17192593.14648  19679810.14948      1816.49300
  -7260476.94106  21898253.19606  -5919599.69547  21898251.25947      2577.46500
  -5154193.10207  19918507.53207  -4008215.94648  19918504.14648      -229.81300
  -4926470.38306  22413603.42306  -3832710.63647  22413599.48147      4199.59600
  -4673712.87906  23184086.05606  -3631665.99347  23184083.01747      1338.44800
 -17266403.09806  20677660.86006 -13429343.72848  20677655.91148       888.27100
  -1551381.24202  23379962.79002  -1199907.24245  23379959.11445      3703.89700
   3286961.82007  21361274.17307   2559366.37748  21361271.10648     -1601.81400
 08 11 11  0 24 59.9970000  0  9  3  6 13 16 19 21 23 25 31
 -20898068.37907  19862715.36007 -16265416.85648  19862713.41148      2915.84400
 -22110728.89506  19674653.02406 -17213720.72148  19674650.96248      1807.58300
  -7298997.81306  21890923.36806  -5949615.95147  21890920.50947      2568.05800
  -5150685.80907  19919175.07907  -4005482.99249  19919171.89249      -233.82000
  -4989403.16406  22401627.74306  -3881749.16447  22401623.57947      4195.51900
  -4693675.70706  23180287.40706  -3647221.45147  23180284.93147      1330.85500
 -17279562.16407  20675156.53207 -13439597.54948  20675151.92348       877.27100
  -1606922.70702  23369393.97002  -1243186.30145  23369389.11445      3702.76400
   3311075.41007  21365862.39207   2578156.18648  21365859.45448     -1607.57300
 08 11 11  0 25 14.9970000  0  9  3  6 13 16 19 21 23 25 31
 -20941680.59007  19854416.46207 -16299400.39749  19854414.72449      2907.48100
 -22137709.39807  19669518.97007 -17234744.49248  19669517.27148      1798.70000
  -7337377.65607  21883619.70407  -5979522.33647  21883616.96647      2558.65600
  -5147119.05507  19919853.69607  -4002703.71348  19919850.64248      -237.78400
  -5052275.09806  22389663.36006  -3930740.27647  22389659.46247      4191.46200
  -4713524.85506  23176510.52406  -3662688.29847  23176507.48547      1323.27700
 -17292556.63306  20672683.68806 -13449723.11748  20672679.63048       866.29800
  -1662447.19102  23358826.95402  -1286452.16445  23358823.43145      3701.63200
   3335274.90207  21370467.73507   2597012.93548  21370464.96248     -1613.29900
 08 11 11  0 25 29.9970000  0  9  3  6 13 16 19 21 23 25 31
 -20985167.66807  19846141.03207 -16333286.41748  19846139.13448      2899.13900
 -22164556.98007  19664410.20407 -17255664.68548  19664408.55248      1789.83900
  -7375616.46106  21876343.16506  -6009318.82147  21876340.20847      2549.25400
  -5143493.41007  19920543.77407  -3999878.53148  19920540.11048      -241.71000
  -5115086.20706  22377710.88406  -3979684.00047  22377706.59947      4187.40700
  -4733260.51606  23172754.61806  -3678066.72447  23172752.15747      1315.71100
 -17305386.85907  20670242.43107 -13459720.72048  20670237.40348       855.34800
  -1717955.18401  23348264.56301  -1329705.07445  23348260.61845      3700.53300
   3359559.78107  21375088.50907   2615936.21448  21375086.11048     -1618.99200
 08 11 11  0 25 44.9970000  0  9  3  6 13 16 19 21 23 25 31
 -21028528.80507  19837889.33707 -16367074.31248  19837887.25148      2890.74200
 -22191271.12507  19659326.82907 -17276480.90448  19659324.73548      1780.94300
  -7413713.55906  21869093.95406  -6039004.85447  21869091.09947      2539.80700
  -5139808.29707  19921245.28207  -3997007.01649  19921241.87249      -245.67400
  -5177835.71906  22365770.21206  -4028579.71947  22365766.13847      4183.30100
  -4752882.00006  23169020.39906  -3693356.17047  23169018.37247      1308.09900
 -17318052.30906  20667832.00106 -13469589.90848  20667827.41948       844.36300
  -1773445.83601  23337704.80601  -1372944.59445  23337701.70845      3699.37700
   3383930.59807  21379726.08707   2634926.43348  21379723.49748     -1624.72100
 08 11 11  0 25 59.9970000  0  9  3  6 13 16 19 21 23 25 31
 -21071764.71507  19829662.11807 -16400764.62848  19829660.01348      2882.39400
 -22217852.56307  19654268.56307 -17297193.71148  19654266.30648      1772.09600
  -7451669.52306  21861870.78206  -6068580.93047  21861868.45847      2530.39800
  -5136064.68007  19921957.88407  -3994089.91848  19921953.53248      -249.57400
  -5240524.20706  22353840.73506  -4077427.87347  22353837.17347      4179.23300
  -4772389.87106  23165308.45406  -3708557.09647  23165305.80247      1300.52500
 -17330553.66806  20665453.29006 -13479331.24148  20665448.45848       833.42400
  -1828919.60201  23327145.92301  -1416170.91045  23327145.01345      3698.25100
   3408386.46107  21384380.03207   2653982.93348  21384376.98548     -1630.39100
 08 11 11  0 26 14.9970000  0  9  3  6 13 16 19 21 23 25 31
 -21114875.22707  19821458.50107 -16434357.23448  19821456.16148      2874.03400
 -22244301.11707  19649235.40707 -17317802.97348  19649233.31048      1763.23700
  -7489484.12506  21854674.40706  -6098046.83847  21854672.25547      2520.97300
  -5132262.54707  19922681.14207  -3991127.22449  19922677.81749      -253.47600
  -5303151.21106  22341923.18806  -4126228.09747  22341919.65747      4175.13400
  -4791783.85206  23161617.42306  -3723669.30147  23161615.41547      1292.93200
 -17342890.62906  20663105.73506 -13488944.45848  20663100.98148       822.46400
  -1884376.36301  23316593.62601  -1459383.90245  23316592.16145      3697.11700
   3432927.32807  21389049.98507   2673105.65348  21389046.57948     -1636.05800
 08 11 11  0 26 29.9970000  0  9  3  6 13 16 19 21 23 25 31
 -21157859.59007  19813278.55607 -16467851.54348  19813276.68548      2865.62400
 -22270616.19107  19644227.71207 -17338308.22648  19644226.06748      1754.33800
  -7527156.53506  21847505.67306  -6127401.98647  21847502.63047      2511.49400
  -5128401.50007  19923415.88407  -3988118.60648  19923412.60648      -257.40300
  -5365715.84806  22330017.58706  -4174979.75247  22330014.57547      4170.97600
  -4811063.29306  23157948.97806  -3738692.20147  23157946.68847      1285.29600
 -17355062.95307  20660789.29007 -13498429.41348  20660784.65748       811.48800
  -1939815.35501  23306045.15701  -1502583.13345  23306042.10345      3695.93300
   3457553.81307  21393736.30607   2692295.10048  21393732.80248     -1641.76600
 08 11 11  0 26 44.9970000  0  9  3  6 13 16 19 21 23 25 31
 -21200718.09007  19805122.89207 -16501247.76648  19805121.17748      2857.23300
 -22296798.41007  19639245.61007 -17358709.95749  19639243.48949      1745.48100
  -7564687.21106  21840364.04006  -6156646.66747  21840361.23147      2502.04500
  -5124482.41007  19924161.47007  -3985064.77048  19924158.23148      -261.27300
  -5428218.68806  22318123.89206  -4223683.25247  22318120.53247      4166.85600
  -4830228.69906  23154301.81306  -3753626.29947  23154299.22447      1277.69400
 -17367071.46106  20658504.15706 -13507786.70348  20658499.62248       800.56700
  -1995237.00801  23295498.02401  -1545768.77745  23295495.59545      3694.77700
   3482265.14507  21398439.04807   2711550.66648  21398435.22448     -1647.42200
 08 11 11  0 26 59.9970000  0  9  3  6 13 16 19 21 23 25 31
 -21243450.49207  19796991.11007 -16534545.73948  19796989.01748      2848.82700
 -22322847.64507  19634288.22807 -17379008.06448  19634286.49748      1736.61600
  -7602075.68006  21833249.23506  -6185780.55147  21833246.04447      2492.56500
  -5120505.13307  19924918.73507  -3981965.59748  19924915.53648      -265.15200
  -5490659.18006  22306241.56306  -4272338.18847  22306238.00147      4162.69900
  -4849279.71506  23150676.54006  -3768471.24347  23150674.04047      1270.06800
 -17378915.86706  20656250.10306 -13517016.10148  20656245.93548       789.62700
  -2050640.88711  23284955.47001  -1588940.67255  23284953.00945      3693.62100
   3507061.35207  21403157.64907   2730872.38048  21403154.76748     -1653.08000
 08 11 11  0 27 14.9970000  0  9  3  6 13 16 19 21 23 25 31
 -21286057.61707  19788883.39907 -16567746.08648  19788881.43848      2840.47500
 -22348764.76207  19629356.07907 -17399203.21948  19629354.59548      1727.80800
  -7639322.92206  21826161.47806  -6214804.37047  21826158.13847      2483.14900
  -5116470.66007  19925685.83707  -3978821.85649  19925682.69649      -268.96500
  -5553037.76606  22294371.05606  -4320944.88847  22294368.14247      4158.57200
  -4868217.08606  23147072.57906  -3783227.62747  23147070.52847      1262.49100
 -17390597.05107  20654027.57107 -13526118.33448  20654022.76348       778.74600
  -2106027.91801  23274416.27401  -1632099.35245  23274413.83745      3692.46900
   3531941.39507  21407891.57107   2750259.41148  21407889.78648     -1658.67000
 08 11 11  0 27 29.9970000  0  9  3  6 13 16 19 21 23 25 31
 -21328538.78107  19780799.08707 -16600848.30048  19780797.29848      2832.07800
 -22374548.96507  19624449.86807 -17419294.80548  19624448.14948      1718.94700
  -7676427.57806  21819100.59506  -6243717.10047  21819096.99347      2473.64400
  -5112378.32807  19926464.64907  -3975633.03948  19926460.83748      -272.82200
  -5615353.58606  22282512.93106  -4369502.64147  22282509.36447      4154.38800
  -4887039.85506  23143490.78206  -3797894.70447  23143488.18147      1254.85100
 -17402114.31306  20651836.31306 -13535092.83348  20651831.20048       767.81700
  -2161396.89802  23263879.54002  -1675244.04745  23263877.64645      3691.26500
   3556906.10207  21412642.08707   2769712.42648  21412640.71248     -1664.31400
 08 11 11  0 27 44.9970000  0  9  3  6 13 16 19 21 23 25 31
 -21370892.79707  19772739.55607 -16633851.42648  19772737.80248      2823.60100
 -22400199.51207  19619568.47807 -17439282.23749  19619566.62249      1710.03600
  -7713388.76206  21812066.80606  -6272518.02947  21812063.27847      2464.07900
  -5108227.55107  19927254.45407  -3972398.65648  19927250.97048      -276.71800
  -5677605.82006  22270666.52406  -4418010.89247  22270664.22047      4150.14900
  -4905747.21906  23139931.27406  -3812471.85647  23139928.48147      1247.15800
 -17413466.99207  20649675.93107 -13543939.09348  20649670.82948       756.84500
  -2216747.04302  23253347.50102  -1718373.95646  23253344.80246      3690.01000
   3581956.19507  21417409.26707   2789231.95048  21417407.64948     -1670.00600
 08 11 11  0 27 59.9970000  0  9  3  6 13 16 19 21 23 25 31
 -21413119.80907  19764704.16507 -16666755.58948  19764701.95048      2815.13400
 -22425716.81607  19614712.47807 -17459165.84548  19614710.97048      1701.15400
  -7750206.78906  21805060.75106  -6301207.40047  21805057.03247      2454.53500
  -5104018.82007  19928055.72007  -3969119.13548  19928052.39248      -280.58200
  -5739794.58606  22258832.77406  -4466469.66047  22258830.23147      4145.91800
  -4924339.52706  23136393.47006  -3826959.35447  23136390.00147      1239.48700
 -17424655.62506  20647546.42306 -13552657.49748  20647541.59948       745.90900
  -2272078.60203  23242818.52403  -1761489.48446  23242816.07946      3688.77100
   3607090.92207  21422192.43107   2808817.42348  21422190.29448     -1675.64800
 08 11 11  0 28 14.9970000  0  9  3  6 13 16 19 21 23 25 31
 -21455219.62907  19756692.90707 -16699560.64648  19756690.64248      2806.65500
 -22451100.49606  19609882.52406 -17478945.34348  19609880.47848      1692.24500
  -7786880.97306  21798081.56306  -6329784.68747  21798078.57147      2444.94600
  -5099751.95306  19928867.36006  -3965794.30748  19928864.25148      -284.45800
  -5801918.95706  22247010.82106  -4514878.23047  22247008.16547      4141.62500
  -4942816.13306  23132877.53206  -3841356.68247  23132874.15347      1231.77400
 -17435679.57007  20645448.79007 -13561247.59648  20645443.99748       734.93000
  -2327391.01603  23232293.31303  -1804590.00646  23232290.76346      3687.49400
   3632310.64107  21426991.66507   2828469.13848  21426989.92348     -1681.31500
 08 11 11  0 28 29.9970000  0  9  3  6 13 16 19 21 23 25 31
 -21497192.51607  19748705.53207 -16732266.79448  19748703.21648      2798.19200
 -22476350.86307  19605077.39207 -17498620.95648  19605076.37248      1683.35800
  -7823411.62906  21791130.32906  -6358250.13347  21791126.86447      2435.37700
  -5095427.50807  19929690.52407  -3962424.60848  19929687.22448      -288.29600
  -5863979.28906  22235200.89206  -4563236.93047  22235198.42747      4137.35500
  -4961177.40606  23129383.47006  -3855664.15447  23129379.52847      1224.08500
 -17446539.48807  20643382.14207 -13569709.88048  20643377.20048       723.99500
  -2382684.46103  23221771.37603  -1847675.87246  23221769.56346      3686.23000
   3657614.84807  21431806.45407   2848186.69448  21431804.93148     -1686.94700
 08 11 11  0 28 44.9970000  0  9  3  6 13 16 19 21 23 25 31
 -21539037.58207  19740742.89907 -16764873.33748  19740740.22048      2789.67100
 -22501467.24607  19600298.04007 -17518192.15048  19600296.77148      1674.42600
  -7859797.82006  21784206.57106  -6386603.02147  21784203.07947      2425.74600
  -5091044.83607  19930524.49307  -3959009.53948  19930521.01348      -292.17800
  -5925974.64506  22223403.73506  -4611544.98847  22223401.05647      4133.02400
  -4979422.50806  23125911.91506  -3869881.09847  23125907.64647      1216.34000
 -17457234.64507  20641346.97807 -13578043.78048  20641342.20848       713.01000
  -2437958.17203  23211252.99303  -1890746.27146  23211250.32946      3684.91400
   3683004.10507  21436638.04807   2867970.50548  21436636.32548     -1692.61700
 08 11 11  0 28 59.9970000  0  9  3  6 13 16 19 21 23 25 31
 -21580755.09807  19732804.16507 -16797380.50048  19732801.96248      2781.16800
 -22526450.28907  19595543.87607 -17537659.44648  19595542.38048      1665.53600
  -7896040.08606  21777310.04006  -6414843.76047  21777306.34147      2416.15100
  -5086604.69907  19931369.22807  -3955549.69448  19931365.61048      -296.00900
  -5987905.32806  22211618.99306  -4659802.64947  22211615.46247      4128.71200
  -4997551.80506  23122461.98506  -3884007.84247  23122457.61847      1208.62000
 -17467765.72707  20639342.97807 -13586249.82648  20639338.28648       702.07200
  -2493212.44902  23200738.11002  -1933801.50446  23200736.50146      3683.61800
   3708477.73007  21441485.97807   2887820.06148  21441483.84148     -1698.24200
 08 11 11  0 29 14.9970000  0  9  3  6 13 16 19 21 23 25 31
 -21622344.80107  19724889.97007 -16829788.05448  19724887.56748      2772.64700
 -22551299.73006  19590815.07106 -17557022.64648  19590813.26348      1656.62900
  -7932137.57806  21770440.59506  -6442971.68147  21770437.32947      2406.49900
  -5082107.02706  19932225.45406  -3952045.02848  19932222.23548      -299.84500
  -6049770.94906  22199846.02406  -4708009.62147  22199842.78247      4124.37500
  -5015564.94906  23119034.21206  -3898044.04547  23119030.24747      1200.87600
 -17478132.61306  20637369.96206 -13594327.92948  20637365.54448       691.12600
  -2548446.92602  23190226.24302  -1976841.32946  23190225.56346      3682.29800
   3734035.91407  21446349.46207   2907735.50348  21446347.66948     -1703.87900
 08 11 11  0 29 29.9970000  0  9  3  6 13 16 19 21 23 25 31
 -21663806.12907  19716999.82907 -16862095.58548  19716997.66548      2764.08900
 -22576015.05507  19586111.95407 -17576281.33648  19586109.95848      1647.68800
  -7968089.65606  21763599.16506  -6470986.27347  21763595.82547      2396.80500
  -5077551.34806  19933092.32906  -3948495.15048  19933089.28248      -303.71200
  -6111570.69506  22188085.99306  -4756165.23947  22188082.31747      4119.98300
  -5033461.35906  23115628.14206  -3911989.26247  23115625.08747      1193.09400
 -17488334.79707  20635428.67307 -13602277.69148  20635423.92748       680.14600
  -2603660.86302  23179720.62602  -2019865.22746  23179719.15346      3680.92900
   3759679.01607  21451229.25907   2927717.13748  21451227.12248     -1709.54000
 08 11 11  0 29 44.9970000  0  9  3  6 13 16 19 21 23 25 31
 -21705139.26607  19709134.99307 -16894303.22448  19709132.66948      2755.54200
 -22600596.75407  19581434.36007 -17595435.90848  19581432.38448      1638.78000
  -8003896.78906  21756785.67306  -6498887.96647  21756782.68547      2387.14200
  -5072938.31306  19933970.05606  -3944900.57348  19933966.74748      -307.53600
  -6173304.80506  22176338.02406  -4804269.73047  22176334.60647      4115.60700
  -5051241.40206  23112244.64206  -3925843.84247  23112240.87647      1185.33600
 -17498372.85206  20633518.74306 -13610099.55348  20633513.62248       669.20400
  -2658854.60502  23169217.20402  -2062873.32246  23169216.60346      3679.58300
   3785406.28107  21456125.04007   2947764.34248  21456122.53648     -1715.15100
 08 11 11  0 29 59.9970000  0  9  3  6 13 16 19 21 23 25 31
 -21746343.12107  19701294.16507 -16926410.13248  19701292.34948      2746.92400
 -22625043.84407  19576782.44607 -17614485.58548  19576780.18548      1629.80600
  -8039557.79706  21749999.18806  -6526675.75547  21749996.23947      2377.40100
  -5068267.09406  19934859.14906  -3941260.66348  19934855.43148      -311.41500
  -6234971.95306  22164603.22006  -4852322.03147  22164599.81347      4111.14300
  -5068903.93006  23108883.49306  -3939606.83547  23108879.79447      1177.50200
 -17508245.91006  20631639.29806 -13617792.85348  20631635.07948       658.20400
  -2714027.04702  23158718.25902  -2105864.78846  23158717.77446      3678.16300
   3811218.77007  21461037.03207   2967877.95448  21461034.05648     -1720.83300
 08 11 11  0 30 14.9970000  0  9  3  6 13 16 19 21 23 25 31
 -21787418.84807  19693477.53207 -16958417.19148  19693476.22848      2738.38200
 -22649357.43406  19572155.57106 -17633431.23948  19572153.50148      1620.90600
  -8075073.82806  21743240.77406  -6554350.58147  21743237.82947      2367.73500
  -5063538.90206  19935758.86806  -3937576.36548  19935754.69248      -315.21300
  -6296573.10906  22152881.06306  -4900322.91047  22152877.23547      4106.74400
  -5086449.95706  23105544.50106  -3953279.03247  23105541.20047      1169.73500
 -17517955.08606  20629792.11006 -13625358.44548  20629787.47048       647.27800
  -2769179.06303  23148223.00103  -2148840.33546  23148222.08346      3676.80100
   3837115.31307  21465964.68807   2988057.06148  21465961.36848     -1726.43600
 08 11 11  0 30 29.9970000  0  9  3  6 13 16 19 21 23 25 31
 -21828365.87507  19685685.67307 -16990323.95548  19685683.93548      2729.80200
 -22673537.31607  19567554.07907 -17652272.70748  19567552.07548      1611.99200
  -8110443.83606  21736510.76706  -6581911.61947  21736507.56347      2358.00100
  -5058753.64806  19936669.40706  -3933847.60248  19936665.83748      -319.01700
  -6358107.65206  22141171.68806  -4948271.93547  22141168.20447      4102.30300
  -5103878.92606  23102228.17306  -3966860.05147  23102224.97447      1161.93100
 -17527500.10507  20627975.53207 -13632796.12748  20627971.11448       636.33500
  -2824310.16803  23137731.98503  -2191799.65646  23137730.87246      3675.40700
   3863096.06307  21470909.20407   3008301.79848  21470904.94248     -1732.05000
 08 11 11  0 30 44.9970000  0  9  3  6 13 16 19 21 23 25 31
 -21869184.07407  19677917.73507 -17022130.33749  19677916.42349      2721.21300
 -22697583.45707  19562977.89907 -17671009.94948  19562976.98548      1603.07600
  -8145667.82006  21729807.08706  -6609358.88447  21729804.81747      2348.26600
  -5053911.35206  19937590.87606  -3930074.38748  19937587.84548      -322.82000
  -6419575.35206  22129474.52406  -4996168.78547  22129470.82547      4097.84700
  -5121190.95306  23098933.35306  -3980349.92047  23098930.38047      1154.13500
 -17536881.09406  20626190.52406 -13640106.00448  20626185.82548       625.39900
  -2879420.26604  23127245.02404  -2234742.56146  23127243.80246      3674.00700
   3889160.94907  21475869.30607   3028612.09248  21475865.41148     -1737.65900
 08 11 11  0 30 59.9970000  0  9  3  6 13 16 19 21 23 25 31
 -21909872.77707  19670175.17307 -17053835.81348  19670173.45848      2712.58000
 -22721495.13307  19558428.17307 -17689642.42548  19558426.54848      1594.11200
  -8180745.06606  21723132.40706  -6636691.78647  21723129.88047      2338.48300
  -5049011.63306  19938522.89906  -3926256.41448  19938520.02448      -326.64800
  -6480975.43406  22117790.56306  -5044013.03147  22117786.63447      4093.33900
  -5138385.14506  23095661.22806  -3993747.99747  23095658.10647      1146.27900
 -17546097.52707  20624436.36007 -13647287.63848  20624431.80648       614.42900
  -2934508.34404  23116762.37604  -2277668.33046  23116760.90346      3672.53900
   3915310.30907  21480845.03207   3048988.21448  21480841.47448     -1743.29100
 08 11 11  0 31 14.9970000  0  9  3  6 13 16 19 21 23 25 31
 -21950432.06307  19662456.72807 -17085440.45049  19662455.57549      2703.95200
 -22745272.76607  19553903.85307 -17708170.43948  19553901.53248      1585.17600
  -8215675.80906  21716485.30606  -6663910.54147  21716483.67747      2328.71600
  -5044054.83606  19939466.32906  -3922393.97948  19939462.91148      -330.45300
  -6542307.91406  22106119.11006  -5091804.55647  22106115.27147      4088.83200
  -5155461.70306  23092411.79006  -4007054.35647  23092408.25947      1138.43700
 -17555149.80107  20622714.09507 -13654341.36848  20622709.41948       603.48500
  -2989574.70305  23106283.08705  -2320577.12146  23106281.24746      3671.09100
   3941543.78507  21485837.18107   3069429.86448  21485833.05648     -1748.89800
 08 11 11  0 31 29.9970000  0  9  3  6 13 16 19 21 23 25 31
 -21990861.96907  19654763.32107 -17116944.27048  19654761.45448      2695.32700
 -22768916.16807  19549404.43107 -17726593.85848  19549401.94648      1576.22700
  -8250459.65607  21709866.22807  -6691014.83647  21709863.93847      2318.92300
  -5039040.92207  19940420.25907  -3918487.03648  19940417.10348      -334.26100
  -6603572.41006  22094460.80606  -5139543.13347  22094457.95447      4084.30000
  -5172420.41406  23089184.61806  -4020268.95447  23089181.92747      1130.58100
 -17564037.63307  20621023.18807 -13661266.95748  20621017.96248       592.52200
  -3044618.96904  23095808.61804  -2363468.76646  23095807.02446      3669.61800
   3967861.52307  21490845.08707   3089937.17248  21490841.56048     -1754.51600
 08 11 11  0 31 44.9970000  0  9  3  6 13 16 19 21 23 25 31
 -22031162.75807  19647094.72007 -17148347.47548  19647092.34148      2686.71900
 -22792426.00007  19544930.39207 -17744913.21149  19544928.68549      1567.32200
  -8285096.82407  21703274.88407  -6718004.85647  21703273.06047      2309.14500
  -5033970.62107  19941385.04007  -3914536.17048  19941381.52148      -338.02000
  -6664769.21906  22082815.55606  -5187228.92047  22082812.62647      4079.78700
  -5189261.66806  23085979.98506  -4033392.00547  23085977.51347      1122.75000
 -17572761.55907  20619362.93107 -13668064.83448  20619357.95848       581.59500
  -3099641.58605  23085338.47805  -2406343.55146  23085336.44246      3668.17400
   3994262.81607  21495869.43807   3110509.60148  21495865.70448     -1760.08600
 08 11 11  0 31 59.9970000  0  9  3  6 13 16 19 21 23 25 31
 -22071334.12907  19639449.81307 -17179649.83948  19639448.01348      2678.09100
 -22815802.12907  19540482.25907 -17763128.38048  19540480.36448      1558.40900
  -8319587.22306  21696711.33706  -6744880.46947  21696709.42747      2299.36000
  -5028843.94107  19942360.79807  -3910541.34548  19942357.16548      -341.77900
  -6725897.92606  22071183.57906  -5234861.66447  22071179.39247      4075.24700
  -5205985.35506  23082797.38406  -4046423.45147  23082795.60347      1114.91200
 -17581321.84407  20617733.74307 -13674735.19548  20617729.55648       570.68600
  -3154642.17205  23074872.30605  -2449201.12446  23074869.96646      3666.70600
   4020747.64807  21500909.11007   3131147.12448  21500905.84548     -1765.65500
 08 11 11  0 32 14.9970000  0  9  3  6 13 16 19 21 23 25 31
 -22111375.22307  19631830.46207 -17210850.68649  19631828.59949      2669.40600
 -22839043.85507  19536059.54807 -17781238.80949  19536057.47049      1549.44800
  -8353929.95706  21690176.70406  -6771641.04647  21690174.12647      2289.51600
  -5023660.34807  19943347.58707  -3906502.18548  19943344.10648      -345.57300
  -6786957.55906  22059564.07106  -5282440.60647  22059560.07947      4070.64200
  -5222590.48406  23079637.64906  -4059362.48547  23079635.75547      1107.00900
 -17589717.80907  20616135.84507 -13681277.50848  20616131.47848       559.73100
  -3209619.86705  23064410.04005  -2492040.88047  23064408.16547      3665.18000
   4047316.64507  21505965.18107   3151850.21348  21505961.99748     -1771.26600
 08 11 11  0 32 29.9970000  0  9  3  6 13 16 19 21 23 25 31
 -22151286.56607  19624235.47007 -17241950.44448  19624233.59148      2660.75600
 -22862151.84807  19531662.11807 -17799245.02348  19531660.11848      1540.53300
  -8388125.39806  21683668.97806  -6798286.84247  21683666.42747      2279.69600
  -5018420.61307  19944344.39207  -3902419.28148  19944341.26348      -349.31600
  -6847948.68806  22047958.12606  -5329966.12647  22047953.65347      4066.07500
  -5239077.79706  23076500.50906  -4072209.71647  23076497.50947      1099.15400
 -17597950.24607  20614569.65707 -13687692.39348  20614564.60348       548.82900
  -3264575.20305  23053952.43105  -2534863.21446  23053950.59146      3663.68900
   4073968.88307  21511036.93107   3172618.17248  21511034.66148     -1776.81600
 08 11 11  0 32 44.9970000  0  9  3  6 13 16 19 21 23 25 31
 -22191068.34007  19616665.53207 -17272949.21749  19616663.80649      2652.11800
 -22885126.20307  19527290.27407 -17817147.12549  19527288.14249      1531.62400
  -8422173.71506  21677190.25906  -6824817.99247  21677187.60647      2269.88800
  -5013124.82407  19945352.29007  -3898292.69148  19945349.03248      -353.05300
  -6908871.07406  22036364.96206  -5377438.13347  22036360.68547      4061.49200
  -5255446.94506  23073384.83706  -4084964.92347  23073383.25947      1091.27700
 -17606019.25807  20613033.87607 -13693979.93948  20613029.05248       537.93400
  -3319508.07805  23043498.79805  -2577668.02846  23043496.81746      3662.19200
   4100704.19907  21516124.66507   3193450.87848  21516121.59148     -1782.35400
 08 11 11  0 32 59.9970000  0  9  3  6 13 16 19 21 23 25 31
 -22230720.02307  19609120.04807 -17303846.63149  19609118.49349      2643.44600
 -22907966.68407  19522943.89907 -17834944.89748  19522941.72848      1522.69900
  -8456073.89506  21670739.27406  -6851233.71947  21670736.59947      2260.01200
  -5007772.94507  19946370.50907  -3894122.38548  19946367.67348      -356.79200
  -6969724.14506  22024784.87606  -5424856.09647  22024780.53247      4056.87100
  -5271697.75006  23070292.79006  -4097627.88347  23070290.26747      1083.38700
 -17613924.53107  20611530.00107 -13700139.88748  20611525.61848       527.01800
  -3374417.94505  23033049.81305  -2620454.90447  23033047.86447      3660.65800
   4127522.89807  21521227.85307   3214348.54648  21521225.14948     -1787.91300
 08 11 11  0 33 14.9970000  0  9  3  6 13 16 19 21 23 25 31
 -22270240.75407  19601599.72007 -17334642.01149  19601597.97849      2634.71500
 -22930672.80907  19518623.20407 -17852637.97349  19518621.09949      1513.74200
  -8489825.43006  21664316.75906  -6877533.61247  21664313.80647      2250.10200
  -5002364.53507  19947399.58707  -3889908.06148  19947396.71648      -360.56100
  -7030507.12506  22013218.75106  -5472219.45647  22013213.62647      4052.19900
  -5287829.60906  23067222.83706  -4110198.14747  23067220.46247      1075.45700
 -17621665.68807  20610056.43807 -13706171.97448  20610052.43148       516.07700
  -3429304.07405  23022605.29805  -2663223.30247  23022603.39247      3659.07500
   4154425.49607  21526346.79807   3235311.58548  21526344.41548     -1793.50700
 08 11 11  0 33 29.9970000  0  9  3  6 13 16 19 21 23 25 31
 -22309630.37907  19594104.32107 -17365335.22849  19594102.26349      2625.97500
 -22953244.07007  19514328.18807 -17870225.96348  19514326.06748      1504.75100
  -8523427.85206  21657921.64206  -6903717.34147  21657919.33747      2240.16100
  -4996899.33207  19948439.62607  -3885649.46648  19948436.96248      -364.34700
  -7091219.49606  22001665.05606  -5519527.81247  22001660.69647      4047.49100
  -5303842.04706  23064176.03206  -4122675.33347  23064173.43147      1067.49600
 -17629242.45707  20608614.50907 -13712075.94848  20608610.10648       505.11800
  -3484165.96505  23012165.61805  -2705972.82647  23012162.86047      3657.45900
   4181411.92606  21531482.32906   3256339.95748  21531479.89948     -1799.09500
 08 11 11  0 33 44.9970000  0  9  3  6 13 16 19 21 23 25 31
 -22348888.32007  19586633.57907 -17395925.84149  19586631.51349      2617.19600
 -22975680.26207  19510058.58707 -17887708.70748  19510056.31748      1495.74600
  -8556880.53106  21651555.84506  -6929784.36647  21651553.47047      2230.17900
  -4991377.23006  19949490.72006  -3881346.53048  19949487.39948      -368.14000
  -7151860.65206  21990125.58706  -5566780.66447  21990120.77447      4042.74400
  -5319734.33606  23061151.92306  -4135058.91347  23061149.14247      1059.48600
 -17636654.62107  20607204.37607 -13717851.66348  20607199.42348       494.14400
  -3539002.95705  23001730.49305  -2748702.92547  23001728.04847      3655.79900
   4208482.53106  21536633.09506   3277433.93348  21536631.28648     -1804.70700
 08 11 11  0 33 59.9970000  0  9  3  6 13 16 19 21 23 25 31
 -22388014.65607  19579188.13407 -17426413.89649  19579186.36449      2608.42200
 -22997981.65607  19505814.43807 -17905086.42048  19505812.34948      1486.76000
  -8590183.65606  21645218.23506  -6955734.84347  21645215.92347      2220.20800
  -4985798.37507  19950552.14907  -3876999.37548  19950548.85348      -371.92400
  -7212430.52306  21978599.40706  -5613977.95147  21978595.74747      4037.99100
  -5335506.87506  23058150.60306  -4147349.22247  23058147.67347      1051.50300
 -17643902.56307  20605824.84507 -13723499.42548  20605819.63448       483.19600
  -3593815.34805  22991300.37605  -2791413.86747  22991298.13847      3654.15900
   4235636.97707  21541800.94607   3298593.22048  21541798.71248     -1810.29600
 08 11 11  0 34 14.9970000  0  9  3  6 13 16 19 21 23 25 31
 -22427009.71907  19571767.60307 -17456799.65648  19571765.10648      2599.67100
 -23020148.69507  19501596.10307 -17922359.43649  19501594.46249      1477.80300
  -8623337.73006  21638909.72006  -6981569.17747  21638906.76347      2210.27200
  -4980163.53107  19951624.48507  -3872608.59048  19951620.90748      -375.65600
  -7272929.37106  21967086.80606  -5661119.88847  21967082.66547      4033.25700
  -5351160.03906  23055171.75106  -4159546.46647  23055169.56747      1043.54400
 -17650986.81307  20604477.07107 -13729019.61748  20604472.02848       472.28300
  -3648603.24605  22980874.24305  -2834105.74047  22980871.75547      3652.52700
   4262874.66807  21546984.06307   3319817.37048  21546981.18548     -1815.84600
 08 11 11  0 34 29.9970000  0  9  3  6 13 16 19 21 23 25 31
 -22465872.85507  19564371.96207 -17487082.62948  19564369.69648      2590.87600
 -23042180.93807  19497403.62607 -17939527.39448  19497401.88448      1468.81600
  -8656341.84806  21632628.70406  -7007286.65547  21632626.68147      2200.27400
  -4974472.21906  19952707.82106  -3868173.80748  19952704.22848      -379.42100
  -7333356.32006  21955588.43806  -5708205.81447  21955583.67747      4028.46300
  -5366693.00006  23052215.48506  -4171650.09647  23052213.28647      1035.53100
 -17657906.81607  20603160.00107 -13734411.83948  20603155.23148       461.33400
  -3703366.02005  22970452.70405  -2876778.05747  22970450.86847      3650.85200
   4290196.05107  21552183.36807   3341106.71848  21552180.11848     -1821.42600
 08 11 11  0 34 44.9970000  0  9  3  6 13 16 19 21 23 25 31
 -22504603.73407  19557001.89207 -17517262.54748  19557000.02148      2582.05900
 -23064078.24207  19493236.75107 -17956590.23048  19493234.59548      1459.82000
  -8689195.68006  21626377.25906  -7032887.06547  21626374.96647      2190.25500
  -4968724.50407  19953801.32907  -3863695.07848  19953797.51348      -383.18100
  -7393711.10506  21944102.68806  -5755235.53147  21944098.89247      4023.65200
  -5382105.61306  23049283.15706  -4183659.95647  23049280.39247      1027.50800
 -17664662.47307  20601874.50107 -13739676.00548  20601870.04448       450.37700
  -3758103.22705  22960036.70405  -2919430.37847  22960034.89647      3649.14700
   4317601.04707  21557398.25907   3362461.26148  21557395.08748     -1827.00000
 08 11 11  0 34 59.9970000  0  9  3  6 13 16 19 21 23 25 31
 -22543202.71107  19549656.73507 -17547339.66448  19549654.99348      2573.26500
 -23085840.83207  19489095.52407 -17973548.09148  19489093.71248      1450.83900
  -8721899.32406  21620153.64906  -7058370.41047  21620151.97047      2180.24300
  -4962920.81307  19954905.83707  -3859172.72448  19954902.55648      -386.91300
  -7453993.82406  21932631.31306  -5802209.04947  21932627.83347      4018.84800
  -5397398.12906  23046373.30606  -4195576.19847  23046369.89947      1019.50100
 -17671254.33207  20600619.94607 -13744812.53148  20600615.96648       439.45700
  -3812815.02305  22949625.60305  -2962062.95147  22949622.94647      3647.45300
   4345089.41007  21562629.30607   3383880.74148  21562626.32148     -1832.55800
 08 11 11  0 35 14.9970000  0  9  3  6 13 16 19 21 23 25 31
 -22581669.36307  19542336.61807 -17577313.69249  19542334.88449      2564.44300
 -23107468.51207  19484979.64907 -17990400.83448  19484977.73148      1441.84500
  -8754452.09406  21613959.64906  -7083736.21147  21613956.86847      2170.18500
  -4957060.89507  19956020.89207  -3854606.56248  19956017.72448      -390.66100
  -7514203.83606  21921173.81306  -5849125.93147  21921170.05247      4014.00100
  -5412570.05506  23043485.92306  -4207398.47447  23043482.31347      1011.46200
 -17677682.12507  20599396.99307 -13749821.19848  20599392.57548       428.52000
  -3867500.92205  22939219.13405  -3004675.33947  22939216.70047      3645.72700
   4372661.28507  21567876.17307   3405365.28748  21567872.97848     -1838.12500
 08 11 11  0 35 29.9970000  0  9  3  6 13 16 19 21 23 25 31
 -22620003.54307  19535041.64907 -17607184.48049  19535040.34149      2555.61200
 -23128961.34007  19480889.68107 -18007148.48548  19480887.85348      1432.85500
  -8786854.24207  21607793.84507  -7108984.61847  21607791.19647      2160.14300
  -4951144.73007  19957146.63407  -3849996.55948  19957143.95048      -394.41100
  -7574340.84406  21909730.21206  -5895985.93347  21909726.09547      4009.13400
  -5427621.24206  23040621.81306  -4219126.67547  23040618.18847      1003.41300
 -17683945.86307  20598205.52407 -13754702.06048  20598200.54848       417.58300
  -3922160.67605  22928817.49305  -3047267.35247  22928815.52447      3643.98400
   4400316.52007  21573138.57107   3426914.82048  21573135.36848     -1843.68200
 08 11 11  0 35 44.9970000  0  9  3  6 13 16 19 21 23 25 31
 -22658204.64807  19527772.22807 -17636951.57449  19527770.81349      2546.74000
 -23150318.85507  19476825.60307 -18023790.69548  19476824.02448      1423.83400
  -8819104.78107  21601656.53207  -7134114.92247  21601654.32147      2150.03600
  -4945172.10507  19958283.22007  -3845342.56648  19958279.96248      -398.17500
  -7634404.28906  21898299.92306  -5942788.60847  21898295.96247      4004.23000
  -5442551.23006  23037780.86006  -4230760.42047  23037777.40347       995.33300
 -17690045.35907  20597044.24307 -13759454.91848  20597039.81048       406.63300
  -3976793.75805  22918421.27405  -3089838.59747  22918418.88047      3642.20500
   4428055.39107  21578417.67307   3448529.50548  21578413.91948     -1849.25800
 08 11 11  0 35 59.9970000  0  9  3  6 13 16 19 21 23 25 31
 -22696273.32007  19520527.91507 -17666615.46648  19520526.68148      2537.91100
 -23171541.84807  19472787.15707 -18040328.10048  19472785.06348      1414.86600
  -8851204.32406  21595548.31306  -7159127.56247  21595545.95447      2139.97000
  -4939143.93007  19959430.35307  -3840645.28148  19959426.90748      -401.87800
  -7694394.51206  21886884.45406  -5989534.22847  21886880.87647      3999.34800
  -5457360.58606  23034962.34506  -4242300.19047  23034959.89247       987.29000
 -17695981.39107  20595915.08707 -13764080.41348  20595910.47048       395.73500
  -4031400.59805  22908029.88405  -3132389.36347  22908027.84147      3640.45600
   4455877.10907  21583711.40707   3470208.76248  21583708.85648     -1854.78100
 08 11 11  0 36 14.9970000  0  9  3  6 13 16 19 21 23 25 31
 -22734209.46907  19513309.06307 -17696176.09049  19513307.37249      2529.07700
 -23192630.16407  19468774.22007 -18056760.56248  19468771.64648      1405.88800
  -8883152.69506  21589468.52406  -7184022.40347  21589466.52447      2129.89100
  -4933060.10507  19960587.65707  -3835904.64248  19960584.87648      -405.58800
  -7754311.22306  21875482.68806  -6036222.58548  21875479.40348      3994.44700
  -5472049.05506  23032167.32906  -4253745.72247  23032164.44647       979.23100
 -17701753.89507  20594816.57107 -13768578.47548  20594812.30248       384.83400
  -4085980.89805  22897643.82105  -3174919.47847  22897641.35647      3638.68700
   4483781.62506  21589021.18106   3491952.52348  21589019.38448     -1860.30100
 08 11 11  0 36 29.9970000  0  9  3  6 13 16 19 21 23 25 31
 -22772013.09807  19506115.33707 -17725633.45948  19506113.57148      2520.24200
 -23213583.95707  19464786.59507 -18073088.18448  19464784.68848      1396.92000
  -8914949.73406  21583418.03206  -7208799.30447  21583415.47047      2119.80300
  -4926920.86307  19961755.86807  -3831120.82348  19961752.86048      -409.28300
  -7814154.28106  21864094.72806  -6082853.52247  21864092.13047      3989.53700
  -5486616.75806  23029395.25906  -4265097.20547  23029391.94247       971.18000
 -17707363.13307  20593748.96207 -13772949.32248  20593744.61048       373.94900
  -4140534.59005  22887262.33705  -3217428.82547  22887260.54047      3636.91300
   4511768.87107  21594347.33707   3513760.73248  21594344.79448     -1865.81600
 08 11 11  0 36 44.9970000  0  9  3  6 13 16 19 21 23 25 31
 -22809683.28907  19498946.87607 -17754986.87349  19498945.18149      2511.34600
 -23234402.62507  19460825.00107 -18089310.51849  19460823.52149      1387.91100
  -8946594.93806  21577396.54006  -7233457.90747  21577394.00147      2109.68000
  -4920725.61307  19962935.07107  -3826293.35648  19962932.09948      -413.01700
  -7873922.89806  21852721.22006  -6129426.47348  21852718.07548      3984.57400
  -5501063.03906  23026646.72806  -4276354.03447  23026642.70047       963.08500
 -17712808.60507  20592712.81307 -13777192.55748  20592708.13848       363.03200
  -4195060.92206  22876886.17306  -3259916.86947  22876884.70047      3635.08900
   4539839.19506  21599688.74306   3535633.70048  21599686.32548     -1871.35500
 08 11 11  0 36 59.9970000  0  9  3  6 13 16 19 21 23 25 31
 -22847220.03907  19491803.83707 -17784236.30248  19491801.84148      2502.45000
 -23255086.34807  19456889.05607 -18105427.70948  19456887.18148      1378.91500
  -8978088.09006  21571403.50906  -7257998.03647  21571401.29847      2099.54300
  -4914474.70307  19964124.56307  -3821422.52348  19964121.56748      -416.72700
  -7933616.95306  21841361.91506  -6175941.31647  21841358.40747      3979.60400
  -5515387.74206  23023920.60306  -4287516.14447  23023917.19647       954.98000
 -17718090.32407  20591707.68807 -13781308.19648  20591703.12648       352.11500
  -4249559.68806  22866515.89206  -3302383.42347  22866513.96647      3633.25100
   4567992.44106  21605046.20406   3557571.28848  21605043.79048     -1876.88300
 08 11 11  0 37 14.9970000  0  9  3  6 13 16 19 21 23 25 31
 -22884623.78508  19484686.42308 -17813382.06749  19484684.53249      2493.58300
 -23275635.46107  19452978.78207 -18121440.00148  19452976.57948      1369.94100
  -9009429.37906  21565439.07106  -7282419.81147  21565436.89647      2089.41900
  -4908168.60507  19965324.65707  -3816508.69248  19965321.71248      -420.40700
  -7993236.50806  21830017.06306  -6222398.12548  21830013.45448      3974.63700
  -5529591.03906  23021217.63406  -4298583.63447  23021214.29847       946.88600
 -17723208.89507  20590733.75907 -13785296.69148  20590729.70048       341.23800
  -4304031.02006  22856149.91506  -3344828.63047  22856148.45847      3631.42200
   4596228.10206  21610419.29806   3579573.08048  21610416.92348     -1882.37700
 08 11 11  0 37 29.9970000  0  9  3  6 13 16 19 21 23 25 31
 -22921893.79707  19477594.23507 -17842423.63849  19477592.38849      2484.66700
 -23296049.63707  19449093.89907 -18137347.14748  19449091.43548      1360.94500
  -9040618.20706  21559504.00106  -7306722.79547  21559501.44647      2079.25500
  -4901806.95707  19966535.24307  -3811551.55948  19966531.98148      -424.11000
  -8052780.78906  21818685.65706  -6268796.24447  21818682.39947      3969.61900
  -5543672.55906  23018537.95406  -4309556.26047  23018534.86847       938.76800
 -17728164.06307  20589790.54807 -13789157.86748  20589786.70448       330.34500
  -4358474.44106  22845789.83706  -3387252.06747  22845788.70847      3629.56100
   4624546.43006  21615807.74306   3601639.30548  21615805.52848     -1887.88900
 08 11 11  0 37 44.9970000  0  9  3  6 13 16 19 21 23 25 31
 -22959030.06307  19470527.05607 -17871360.98449  19470525.47049      2475.75100
 -23316328.80907  19445235.25907 -18153149.09648  19445232.28248      1351.94500
  -9071654.44106  21553597.76706  -7330906.87847  21553595.31747      2069.08200
  -4895389.85207  19967756.48507  -3806551.22748  19967752.59548      -427.80700
  -8112249.57006  21807369.29006  -6315135.53547  21807365.90747      3964.58500
  -5557632.14806  23015881.40706  -4320433.84747  23015878.17747       930.63900
 -17732955.86307  20588879.23507 -13792891.74948  20588874.55248       319.45300
  -4412889.60906  22835434.89206  -3429653.46747  22835433.73947      3627.67800
   4652947.44906  21621212.17306   3623769.94048  21621210.39248     -1893.40100
 08 11 11  0 37 59.9970000  0  9  3  6 13 16 19 21 23 25 31
 -22996032.00408  19463485.82908 -17900193.64649  19463484.09949      2466.79600
 -23336472.62107  19441401.55607 -18168845.57748  19441399.56048      1342.92100
  -9102537.24606  21547721.02406  -7354971.42347  21547717.88047      2058.85400
  -4888916.87507  19968988.04807  -3801507.34748  19968984.74348      -431.53200
  -8171642.12506  21796067.44606  -6361415.41947  21796063.01347      3959.50400
  -5571469.17206  23013248.06306  -4331215.94847  23013245.17347       922.46800
 -17737583.82407  20587997.93107 -13796497.96148  20587993.45048       308.53100
  -4467275.80906  22825085.36806  -3472032.32747  22825084.57147      3625.74700
   4681431.46506  21626632.47006   3645965.25448  21626631.06748     -1898.93400
 08 11 11  0 38 14.9970000  0  9  3  6 13 16 19 21 23 25 31
 -23032899.41407  19456470.35307 -17928921.50549  19456468.58749      2457.82700
 -23356481.00407  19437594.40707 -18184436.51748  19437592.48148      1333.89200
  -9133266.41006  21541873.57906  -7378916.22247  21541870.17747      2048.61100
  -4882388.07407  19970230.31307  -3796419.96848  19970227.57948      -435.25300
  -8230958.22306  21784780.04006  -6407635.75447  21784775.64647      3954.40700
  -5585183.61306  23010638.00106  -4341902.50647  23010635.60647       914.29600
 -17742048.14807  20587149.11007 -13799976.64948  20587144.18148       297.62200
  -4521632.87106  22814741.37606  -3514388.43647  22814740.19647      3623.80400
   4709998.29706  21632068.86006   3668225.10948  21632067.18848     -1904.45500
 08 11 11  0 38 29.9970000  0  9  3  6 13 16 19 21 23 25 31
 -23069632.44107  19449480.29007 -17957544.63448  19449478.61048      2448.86800
 -23376354.22707  19433812.77407 -18199922.13748  19433810.92348      1324.88200
  -9163842.15606  21536055.63406  -7402741.47147  21536052.18147      2038.38300
  -4875803.80907  19971483.55607  -3791289.37648  19971481.03248      -438.95100
  -8290197.71106  21773506.72806  -6453796.39147  21773503.26347      3949.29900
  -5598775.49606  23008051.28206  -4352493.55447  23008049.08347       906.12600
 -17746348.99207  20586330.36007 -13803327.96648  20586325.88048       286.72300
  -4575960.72306  22804403.64906  -3556721.81747  22804402.42747      3621.85700
   4738647.80107  21637520.84507   3690549.36548  21637519.07148     -1909.96700
 08 11 11  0 38 44.9970000  0  9  3  6 13 16 19 21 23 25 31
 -23106230.43808  19442515.68108 -17986062.55649  19442514.11449      2439.86600
 -23396091.56307  19430056.68107 -18215301.88048  19430054.72448      1315.82200
  -9194264.11306  21530266.53206  -7426446.89547  21530262.97847      2028.13000
  -4869163.72307  19972746.89207  -3786115.28648  19972743.77148      -442.67200
  -8349359.81606  21762249.08706  -6499896.70947  21762245.04047      3944.14000
  -5612244.09806  23005488.23506  -4362988.55547  23005486.09547       897.90700
 -17750485.87107  20585543.17307 -13806551.52348  20585538.57548       275.79200
  -4630258.60206  22794071.39906  -3599031.85647  22794069.32547      3619.85900
   4767380.53107  21642988.73507   3712938.46648  21642986.12648     -1915.51500
 08 11 11  0 38 59.9970000  0  9  3  6 13 16 19 21 23 25 31
 -23142693.54707  19435577.00107 -18014475.35948  19435575.40348      2430.87400
 -23415693.79307  19426326.50107 -18230576.34148  19426324.29048      1306.81500
  -9224531.88706  21524506.64906  -7450032.17047  21524503.28247      2017.85200
  -4862468.28107  19974020.79807  -3780898.05348  19974017.04048      -446.36300
  -8408444.71506  21751005.66506  -6545936.88347  21751001.48947      3938.99300
  -5625589.85206  23002949.47006  -4373387.87847  23002946.93147       889.71700
 -17754459.33207  20584786.97007 -13809647.71848  20584782.32548       264.89700
  -4684526.77706  22783744.44606  -3641318.73247  22783742.47447      3617.87800
   4796195.68007  21648472.35307   3735391.82948  21648469.64248     -1921.01000
 08 11 11  0 39 14.9970000  0  9  3  6 13 16 19 21 23 25 31
 -23179021.75807  19428664.40707 -18042783.05649  19428662.39249      2421.88100
 -23435160.66407  19422622.05607 -18245745.33348  19422619.87248      1297.79100
  -9254645.35507  21518775.91507  -7473497.21747  21518773.28647      2007.56500
  -4855717.48007  19975305.77407  -3775637.70448  19975301.53648      -450.05300
  -8467452.10906  21739776.29006  -6591916.66647  21739773.59147      3933.82600
  -5638812.52306  23000432.96206  -4383691.24547  23000430.08747       881.51100
 -17758269.64807  20584061.52407 -13812616.79348  20584057.24348       254.02100
  -4738764.94506  22773423.14206  -3683582.22847  22773421.44247      3615.87800
   4825093.35207  21653971.20407   3757909.48448  21653968.29448     -1926.51100
 08 11 11  0 39 29.9970000  0  9  3  6 13 16 19 21 23 25 31
 -23215214.43008  19421777.12608 -18070985.13849  19421775.37249      2412.84500
 -23454491.71907  19418943.99307 -18260808.48248  19418941.32548      1288.73700
  -9284603.76606  21513074.90706  -7496841.44947  21513072.57947      1997.22700
  -4848910.93007  19976601.29807  -3770333.90248  19976597.62248      -453.77000
  -8526381.32006  21728561.82106  -6637835.49447  21728559.62647      3928.61400
  -5651911.50406  22997940.93806  -4393898.22247  22997937.65347       873.26500
 -17761916.30107  20583367.89207 -13815458.34748  20583363.27148       243.11000
  -4792972.30106  22763107.67306  -3725821.72347  22763105.58747      3613.82400
   4854073.86307  21659486.19607   3780491.68048  21659483.67748     -1932.03400
 08 11 11  0 39 44.9970000  0  9  3  6 13 16 19 21 23 25 31
 -23251271.55108  19414915.68108 -18099081.60849  19414913.33349      2403.80800
 -23473687.41807  19415290.67307 -18275766.17848  19415288.29048      1279.71300
  -9314407.39806  21507403.52406  -7520065.05947  21507401.36847      1986.90900
  -4842049.07807  19977906.71207  -3764987.02148  19977903.58348      -457.45700
  -8585232.33206  21717363.77406  -6683693.41347  21717360.42747      3923.40100
  -5664887.07406  22995471.06306  -4404009.06547  22995468.42747       865.03800
 -17765399.69107  20582704.68107 -13818172.69048  20582699.83748       232.22600
  -4847149.03906  22752798.53206  -3768037.36947  22752796.29047      3611.78300
   4883136.72707  21665016.39207   3803138.03648  21665014.06748     -1937.52400
 08 11 11  0 39 59.9970000  0  9  3  6 13 16 19 21 23 25 31
 -23287193.42608  19408080.04808 -18127072.67849  19408077.77449      2394.79200
 -23492747.68007  19411663.58707 -18290618.33548  19411661.81748      1270.68400
  -9344056.36707  21501761.54007  -7543168.12447  21501759.30647      1976.59800
  -4835131.90607  19979222.99307  -3759597.00948  19979219.63048      -461.14500
  -8644004.88306  21706179.82106  -6729490.20547  21706175.94247      3918.17000
  -5677738.96106  22993025.77406  -4414023.52747  22993022.37647       856.79200
 -17768719.93407  20582072.78207 -13820759.89248  20582068.29848       221.34900
  -4901294.96906  22742494.94606  -3810228.99147  22742492.89247      3609.72900
   4912282.07407  21670563.06307   3825848.67748  21670559.66548     -1943.02300
 08 11 11  0 40 14.9970000  0  9  3  6 13 16 19 21 23 25 31
 -23322979.41807  19401270.36007 -18154957.87349  19401268.15749      2385.73300
 -23511672.14107  19408062.51707 -18305364.66748  19408060.72448      1261.63100
  -9373550.00806  21496148.97806  -7566150.17447  21496146.66947      1966.24300
  -4828159.21107  19980550.20407  -3754163.74848  19980546.86448      -464.84600
  -8702698.35206  21695010.87606  -6775225.38047  21695006.98547      3912.89800
  -5690466.89806  22990603.89206  -4423941.38847  22990601.19647       848.52900
 -17771876.89106  20581472.30606 -13823219.84948  20581467.48148       210.46400
  -4955409.46106  22732196.50906  -3852396.11847  22732195.02447      3607.63300
   4941509.90207  21676124.67307   3848623.58948  21676121.50148     -1948.52200
 08 11 11  0 40 29.9970000  0  9  3  6 13 16 19 21 23 25 31
 -23358629.13708  19394486.50908 -18182736.88148  19394484.02848      2376.64800
 -23530460.89807  19404487.51707 -18320005.25048  19404485.32548      1252.58400
  -9402887.93407  21490566.68807  -7589010.88947  21490563.98547      1955.86200
  -4821130.98807  19981887.50907  -3748687.21548  19981884.09548      -468.54800
  -8761312.53506  21683857.32106  -6820898.76647  21683853.08747      3907.61200
  -5703070.58606  22988205.53206  -4433762.45447  22988202.91147       840.24600
 -17774870.56607  20580902.61807 -13825552.59548  20580897.97048       199.57800
  -5009492.16406  22721905.82106  -3894538.46447  22721903.32547      3605.51400
   4970820.21907  21681702.12607   3871462.80448  21681699.31048     -1954.02100
 08 11 11  0 40 44.9970000  0  9  3  6 13 16 19 21 23 25 31
 -23394142.72307  19387728.09507 -18210409.81149  19387726.54849      2367.57200
 -23549113.91007  19400938.11807 -18334540.07248  19400935.87248      1243.53400
  -9432070.10906  21485013.25906  -7611750.24747  21485010.33747      1945.47800
  -4814047.28907  19983235.70407  -3743167.46448  19983231.61848      -472.24700
  -8819847.02006  21672718.54006  -6866510.06847  21672714.14947      3902.29900
  -5715550.00806  22985830.71206  -4443486.65947  22985827.94247       831.96100
 -17777700.98007  20580364.26707 -13827758.12748  20580359.09948       188.69400
  -5063542.85506  22711620.36006  -3936655.87047  22711618.09547      3603.37900
   5000213.05507  21687295.19607   3894366.28048  21687293.07548     -1959.52200
 08 11 11  0 40 59.9970000  0  9  3  6 13 16 19 21 23 25 31
 -23429520.17607  19380996.03207 -18237976.64548  19380993.82948      2358.49700
 -23567631.39107  19397414.10307 -18348969.26248  19397411.71648      1234.49900
  -9461096.70706  21479489.73506  -7634368.35947  21479486.27447      1935.10700
  -4806908.53507  19984594.02407  -3737604.80648  19984590.32948      -475.91700
  -8878301.77306  21661594.15706  -6912059.21747  21661590.62247      3896.98400
  -5727905.10206  22983479.60306  -4453114.01447  22983476.53247       823.67300
 -17780368.37907  20579856.28207 -13829836.62148  20579851.69248       177.82700
  -5117561.55506  22701340.26706  -3978748.36747  22701338.36447      3601.24700
   5029688.01207  21692904.48507   3917333.75048  21692902.18548     -1964.99700
 08 11 11  0 41 14.9970000  0  9  3  6 13 16 19 21 23 25 31
 -23464761.55507  19374289.64207 -18265437.47149  19374287.76349      2349.42500
 -23586013.48407  19393916.02407 -18363292.97349  19393913.96249      1225.47300
  -9489967.28906  21473995.42306  -7656864.92547  21473992.44647      1924.70500
  -4799714.91007  19985962.89207  -3731999.37848  19985959.68148      -479.57500
  -8936676.83606  21650486.16506  -6957546.27148  21650482.41948      3891.67100
  -5740136.16806  22981151.89906  -4462644.71747  22981149.11447       815.40400
 -17782873.12107  20579380.11007 -13831788.38248  20579375.57548       166.98300
  -5171548.15606  22691067.11006  -4020815.81047  22691065.24347      3599.10700
   5059244.72307  21698528.72807   3940364.93748  21698526.53248     -1970.44700
 08 11 11  0 41 29.9970000  0  9  3  6 13 16 19 21 23 25 31
 -23499867.43008  19367609.23508 -18292792.69848  19367607.04448      2340.39200
 -23604260.92607  19390443.57907 -18377511.75348  19390441.31348      1216.49600
  -9518682.47306  21468531.21206  -7679240.39347  21468528.61047      1914.34600
  -4792466.97707  19987341.80607  -3726351.63848  19987338.86048      -483.19600
  -8994972.37506  21639393.32906  -7002971.35448  21639389.94248      3886.36900
  -5752243.53906  22978847.57906  -4472079.04447  22978845.17747       807.15800
 -17785215.93407  20578934.19607 -13833613.96148  20578930.33748       156.18800
  -5225503.08206  22680800.01706  -4062858.61047  22680798.13047      3596.99500
   5088882.66007  21704168.79807   3963459.41548  21704165.62648     -1975.86300
 08 11 11  0 41 44.9970000  0  9  3  6 13 16 19 21 23 25 31
 -23534836.01608  19360955.02408 -18320040.94749  19360953.17749      2331.23900
 -23622372.00407  19386997.03207 -18391624.27849  19386994.64649      1207.40500
  -9547240.48406  21463096.86806  -7701493.41447  21463094.43147      1903.86700
  -4785163.23407  19988731.82907  -3720660.41748  19988728.63848      -486.91600
  -9053186.63707  21628315.28207  -7048333.09948  21628311.99348      3880.95100
  -5764225.49606  22976568.00106  -4481415.61447  22976565.12247       798.79700
 -17787395.27707  20578519.95407 -13835312.16348  20578515.22048       145.29000
  -5279424.46506  22670539.23506  -4104875.25647  22670536.96247      3594.75900
   5118603.25407  21709824.59507   3986618.29648  21709821.20048     -1981.37300
 08 11 11  0 41 59.9970000  0  9  3  6 13 16 19 21 23 25 31
 -23569668.03107  19354326.70407 -18347182.77448  19354324.93848      2322.13400
 -23640347.75007  19383576.48507 -18405631.34748  19383574.01748      1198.38300
  -9575642.21906  21457692.34506  -7723624.61847  21457690.13847      1893.44900
  -4777804.71907  19990132.15707  -3714926.51348  19990128.65348      -490.56800
  -9111320.27006  21617252.06306  -7093632.00948  21617249.20448      3875.57600
  -5776082.90206  22974311.63406  -4490655.13247  22974308.93547       790.49400
 -17789412.24207  20578135.75907 -13836883.83548  20578130.75548       134.46400
  -5333312.93006  22660284.78206  -4146866.27447  22660281.97447      3592.56400
   5148405.53107  21715495.70407   4009840.82547  21715492.61847     -1986.81800
 08 11 11  0 42 14.9970000  0  9  3  6 13 16 19 21 23 25 31
 -23604362.55908  19347724.43808 -18374217.47749  19347722.82949      2312.96800
 -23658187.24207  19380181.72007 -18419532.24049  19380179.25149      1189.29900
  -9603886.55906  21452317.36006  -7745633.22447  21452315.17347      1882.95600
  -4770390.66807  19991542.82907  -3709149.32948  19991539.52148      -494.27000
  -9169371.77006  21606205.67306  -7138866.94748  21606202.00948      3870.10000
  -5787814.66006  22972079.36806  -4499796.78247  22972076.06047       782.11700
 -17791265.95707  20577783.24307 -13838328.29948  20577777.82548       123.58100
  -5387167.38706  22650036.47806  -4188830.78347  22650034.12647      3590.29700
   5178290.27307  21721182.59507   4033127.62048  21721179.62648     -1992.31600
 08 11 11  0 42 29.9970000  0  9  3  6 13 16 19 21 23 25 31
 -23638919.11707  19341148.51707 -18401144.66449  19341146.60649      2303.77100
 -23675890.14807  19376812.77407 -18433326.71148  19376811.07148      1180.19400
  -9631972.95306  21446972.85306  -7767518.72247  21446970.10347      1872.42600
  -4762920.65607  19992964.47807  -3703328.54248  19992961.06748      -498.00100
  -9227340.84006  21595174.48506  -7184037.64147  21595171.55647      3864.60500
  -5799420.22706  22969870.73506  -4508840.08547  22969867.75147       773.70400
 -17792956.14807  20577461.38407 -13839645.32948  20577456.21248       112.67900
  -5440987.19506  22639795.22806  -4230768.27047  22639792.58347      3587.98700
   5208257.70307  21726885.36007   4056478.85847  21726882.78247     -1997.82900
 08 11 11  0 42 44.9970000  0  9  3  6 13 16 19 21 23 25 31
 -23673338.45708  19334598.85308 -18427964.92749  19334596.97049      2294.62300
 -23693457.18007  19373469.58707 -18447015.30748  19373468.22048      1171.13500
  -9659901.90606  21441657.84506  -7789281.53947  21441655.07147      1861.93000
  -4755395.52307  19994396.52407  -3697464.82548  19994393.58748      -501.67600
  -9285227.87906  21584158.59506  -7229144.40248  21584155.68848      3859.13600
  -5810900.30506  22967686.04806  -4517785.60047  22967683.35347       765.33900
 -17794483.69907  20577170.55607 -13840835.63248  20577166.30248       101.83700
  -5494772.75406  22629559.89206  -4272679.09747  22629557.52847      3585.70400
   5238307.00807  21732603.29007   4079893.88848  21732600.23948     -2003.28700
 08 11 11  0 42 59.9970000  0  9  3  6 13 16 19 21 23 25 31
 -23707620.85508  19328075.00108 -18454678.48649  19328072.92749      2285.49300
 -23710888.96907  19370152.89207 -18460598.51048  19370150.74748      1162.11900
  -9687673.84006  21436373.12606  -7810922.02647  21436370.21647      1851.46200
  -4747815.92207  19995838.82907  -3691558.64948  19995835.73948      -505.30700
  -9343033.18807  21573158.89907  -7274187.48348  21573155.62248      3853.68700
  -5822255.49206  22965524.73506  -4526633.77747  22965522.39947       757.01300
 -17795849.24607  20576910.61007 -13841899.70248  20576906.45448        91.03600
  -5548524.52706  22619330.83706  -4314563.59247  22619329.05647      3583.45200
   5268437.59806  21738337.20406   4103372.24948  21738333.87248     -2008.70600
 08 11 11  0 43 14.9970000  0  9  3  6 13 16 19 21 23 25 31
 -23741766.38707  19321577.73507 -18481285.39949  19321575.36049      2276.36900
 -23728185.73007  19366861.07907 -18474076.50548  19366859.45848      1153.11700
  -9715288.78906  21431117.73506  -7832440.17247  21431115.78647      1840.99700
  -4740182.10207  19997291.60307  -3685610.22648  19997287.73148      -508.92100
  -9400756.65606  21562174.22006  -7319166.79448  21562170.80648      3848.23100
  -5833485.75006  22963388.16506  -4535384.63447  22963385.09147       748.68400
 -17797053.11307  20576681.84507 -13842837.79048  20576677.14648        80.25800
  -5602242.32006  22609108.66506  -4356421.57147  22609106.14247      3581.18600
   5298649.15206  21744086.62606   4126913.70148  21744083.70048     -2014.10400
 08 11 11  0 43 29.9970000  0  9  3  6 13 16 19 21 23 25 31
 -23775774.90207  19315105.81307 -18507785.54549  19315103.49349      2267.23400
 -23745347.59807  19363595.55607 -18487449.39148  19363593.72448      1144.12400
  -9742746.63706  21425893.31306  -7853835.90047  21425891.26347      1830.52300
  -4732494.27707  19998754.51707  -3679619.71448  19998751.15748      -512.52200
  -9458398.05106  21551205.68806  -7364082.17747  21551201.90747      3842.76000
  -5844591.05106  22961274.93806  -4544038.12347  22961271.93547       740.35300
 -17798095.43007  20576483.50107 -13843649.99648  20576478.35348        69.48800
  -5655926.06606  22598893.11006  -4398253.05147  22598890.48147      3578.91600
   5328941.37507  21749850.61007   4150518.02048  21749848.86848     -2019.48200
 08 11 11  0 43 44.9970000  0  9  3  6 13 16 19 21 23 25 31
 -23809645.97307  19308660.42307 -18534178.58549  19308658.64649      2258.07100
 -23762374.05907  19360355.35307 -18500716.76948  19360353.70448      1135.09700
  -9770046.82406  21420698.44606  -7875108.78247  21420696.31747      1820.01300
  -4724752.02307  20000227.35307  -3673586.78148  20000224.78648      -516.15000
  -9515956.79706  21540252.39906  -7408933.14447  21540248.77447      3837.25000
  -5855570.86706  22959185.28206  -4552593.84447  22959182.28247       731.98800
 -17798975.91407  20576315.75107 -13844336.08848  20576311.27848        58.69900
  -5709575.03506  22588684.19606  -4440057.45546  22588681.23546      3576.59800
   5359314.68807  21755630.14207   4174185.52048  21755628.75948     -2024.88800
 08 11 11  0 43 59.9970000  0  9  3  6 13 16 19 21 23 25 31
 -23843379.81308  19302241.01708 -18560464.70649  19302238.89949      2248.92300
 -23779265.52707  19357140.78207 -18513878.94648  19357139.37248      1126.09800
  -9797189.47307  21415533.27407  -7896258.89347  21415531.43847      1809.51000
  -4716955.57807  20001711.23507  -3667511.63548  20001708.23548      -519.76300
  -9573432.79706  21529314.97006  -7453719.61747  21529311.31047      3831.73300
  -5866425.32806  22957119.47806  -4561051.86047  22957116.96247       723.63100
 -17799694.91407  20576178.93107 -13844896.36348  20576174.88448        47.93300
  -5763189.25006  22578481.64906  -4481834.76946  22578478.95046      3574.28100
   5389768.80506  21761425.29006   4197915.97947  21761423.29047     -2030.27400
 08 11 11  0 44 14.9970000  0  9  3  6 13 16 19 21 23 25 31
 -23876976.36307  19295847.87607 -18586643.82249  19295846.19249      2239.77000
 -23796022.11307  19353952.16507 -18526936.02148  19353950.69248      1117.10600
  -9824174.53906  21410398.15706  -7917286.22347  21410396.33347      1799.00400
  -4709105.28107  20003205.32907  -3661394.52048  20003201.91148      -523.35300
  -9630826.02306  21518393.26706  -7498441.61448  21518389.85348      3826.21500
  -5877154.52306  22955078.50906  -4569412.28547  22955075.10647       715.28000
 -17800252.93407  20576072.76707 -13845331.20348  20576068.61448        37.20100
  -5816768.75806  22568285.46206  -4523585.04346  22568282.65346      3571.96700
   5420303.39806  21767236.08706   4221709.15648  21767233.54448     -2035.64000
 08 11 11  0 44 29.9970000  0  9  3  6 13 16 19 21 23 25 31
 -23910435.23408  19289480.67308 -18612715.67249  19289479.19249      2230.59100
 -23812643.59007  19350789.25907 -18539887.82548  19350787.52148      1108.09800
  -9851001.62106  21405293.00106  -7938190.45047  21405291.22047      1788.47200
  -4701200.90607  20004709.14207  -3655235.27648  20004705.80648      -526.95800
  -9688135.86706  21507487.51706  -7543098.63247  21507484.07547      3820.65600
  -5887758.06606  22953060.42306  -4577674.78547  22953057.49747       706.90300
 -17800649.68807  20575997.28207 -13845640.37048  20575993.00148        26.45000
  -5870312.86706  22558096.68806  -4565307.68447  22558094.62247      3569.60700
   5450918.65206  21773062.29006   4245565.17247  21773059.43147     -2041.01700
 08 11 11  0 44 44.9970000  0  9  3  6 13 16 19 21 23 25 31
 -23943756.22307  19283140.23507 -18638680.08549  19283138.28249      2221.39900
 -23829129.95707  19347652.23507 -18552734.34848  19347650.51748      1099.09100
  -9877670.50006  21400218.54006  -7958971.39647  21400216.62247      1777.92500
  -4693242.50407  20006223.79007  -3649033.92948  20006219.94248      -530.56000
  -9745362.00806  21496598.00906  -7587690.40948  21496594.75948      3815.07600
  -5898235.91406  22951066.70406  -4585839.33647  22951063.43547       698.52300
 -17800885.31607  20575952.79807 -13845823.98648  20575947.60348        15.70900
  -5923821.33206  22547914.47006  -4607002.57147  22547912.67347      3567.23100
   5481614.49606  21778903.44606   4269483.98548  21778900.89648     -2046.39000
 08 11 11  0 44 59.9970000  0  9  3  6 13 16 19 21 23 25 31
 -23976939.04308  19276825.93808 -18664536.82648  19276823.63448      2212.18800
 -23845480.76207  19344540.55607 -18565475.21848  19344538.57948      1090.05400
  -9904180.59006  21395173.54006  -7979628.60447  21395171.83347      1767.33900
  -4685229.63307  20007748.71207  -3642790.13248  20007744.88448      -534.19100
  -9802503.69906  21485724.82106  -7632216.38848  21485721.14248      3809.44600
  -5908587.52706  22949096.88406  -4593905.53647  22949093.83347       690.10800
 -17800959.30107  20575938.52407 -13845881.64848  20575933.40348         4.93200
  -5977293.42206  22537739.07106  -4648669.11947  22537736.99747      3564.80600
   5512391.22306  21784759.54806   4293465.82547  21784757.56347     -2051.78200
 08 11 11  0 45 14.9970000  0  9  3  6 13 16 19 21 23 25 31
 -24009984.49208  19270537.61808 -18690286.53549  19270535.28249      2203.03000
 -23861697.08607  19341455.17307 -18578111.32348  19341452.50548      1081.08800
  -9930532.82406  21390159.18106  -8000162.81847  21390156.86847      1756.81600
  -4677163.50007  20009283.74307  -3636504.83848  20009280.21648      -537.74200
  -9859561.80906  21474866.29006  -7676677.24648  21474863.50148      3803.87400
  -5918813.64806  22947151.18806  -4601873.94847  22947147.68847       681.74100
 -17800872.83207  20575954.97007 -13845814.26848  20575950.13848        -5.76500
  -6030729.95706  22527570.58706  -4690307.95947  22527568.34147      3562.43600
   5543247.66406  21790631.85306   4317509.78148  21790628.82548     -2057.09600
 08 11 11  0 45 29.9970000  0  9  3  6 13 16 19 21 23 25 31
 -24042892.25808  19264275.29808 -18715928.94849  19264272.92749      2193.85100
 -23877778.63307  19338394.81307 -18590642.39448  19338392.41948      1072.10300
  -9956726.56606  21385174.72806  -8020573.49647  21385172.58347      1746.24900
  -4669043.60507  20010828.61807  -3630177.64548  20010825.00548      -541.32600
  -9916535.63706  21464024.99306  -7721072.43248  21464022.44648      3798.25500
  -5928913.75806  22945228.49306  -4609744.15547  22945226.40747       673.34100
 -17800625.67207  20576001.86807 -13845621.68548  20575996.95448       -16.47700
  -6084130.24606  22517408.54806  -4731918.54247  22517406.22847      3560.01900
   5574184.18806  21796519.07906   4341616.15048  21796515.39248     -2062.43500
 08 11 11  0 45 44.9970000  0  9  3  6 13 16 19 21 23 25 31
 -24075661.89108  19258039.39908 -18741463.72349  19258037.31749      2184.64200
 -23893725.39107  19335360.03207 -18603068.43748  19335358.27448      1063.11700
  -9982761.68406  21380219.77406  -8040860.60347  21380217.96247      1735.67400
  -4660870.15207  20012383.90707  -3623808.73448  20012380.53248      -544.89700
  -9973425.00806  21453199.20406  -7765401.80548  21453195.93848      3792.62500
  -5938887.79306  22943330.69606  -4617516.13347  22943328.52447       664.93600
 -17800217.91007  20576079.52407 -13845303.96948  20576075.06048       -27.18400
  -6137494.07806  22507253.72806  -4773500.73847  22507251.85347      3557.58900
   5605200.79706  21802421.36006   4365784.89848  21802417.61448     -2067.77400
 08 11 11  0 45 59.9970000  0  9  3  6 13 16 19 21 23 25 31
 -24108293.24608  19251829.98508 -18766890.75049  19251828.01349      2175.42400
 -23909537.09407  19332351.25107 -18615389.24748  19332349.49348      1054.11400
 -10008637.73806  21375296.03206  -8061023.77647  21375293.63447      1725.07000
  -4652642.82807  20013949.61807  -3617397.82448  20013946.40748      -548.48800
 -10030229.28906  21442389.47806  -7809664.86547  21442386.36047      3786.95200
  -5948735.51606  22941457.25106  -4625189.68147  22941453.88847       656.51500
 -17799649.48407  20576187.69607 -13844861.04748  20576183.35648       -37.89500
  -6190820.92206  22497106.47806  -4815054.11347  22497104.09547      3555.12300
   5636297.56306  21808338.63406   4390016.12947  21808335.92747     -2073.11800
 08 11 11  0 46 14.9970000  0  9  3  6 13 16 19 21 23 25 31
 -24140786.89807  19245646.56307 -18792210.48149  19245644.32549      2166.24300
 -23925214.57407  19329367.85307 -18627605.47448  19329366.11848      1045.16500
 -10034355.57006  21370402.33706  -8081063.64547  21370399.72847      1714.52200
  -4644362.58607  20015525.31307  -3610945.69048  20015522.21248      -552.01600
 -10086948.93407  21431596.50107  -7853862.00048  21431592.36048      3781.31000
  -5958457.48006  22939607.04006  -4632765.20147  22939604.25547       648.13100
 -17798921.38707  20576326.30607 -13844293.70148  20576321.24348       -48.54000
  -6244111.31306  22486965.14906  -4856579.07947  22486963.03647      3552.69300
   5667473.52306  21814271.36806   4414309.07948  21814268.53248     -2078.39700
 08 11 11  0 46 29.9970000  0  9  3  6 13 16 19 21 23 25 31
 -24173142.53908  19239489.64908 -18817422.67049  19239487.37649      2157.04300
 -23940757.80907  19326409.97807 -18639717.08948  19326408.04048      1036.21600
 -10059914.57006  21365538.72806  -8100979.74347  21365535.86447      1703.93300
  -4636029.33607  20017111.17307  -3604452.25848  20017108.00148      -555.55000
 -10143583.55507  21420818.97807  -7897992.85248  21420815.73948      3775.64100
  -5968053.46906  22937780.92306  -4640242.60147  22937778.17347       639.73300
 -17798033.54307  20576495.34507 -13843601.89048  20576490.28248       -59.19000
  -6297364.81306  22476831.40706  -4898075.28247  22476829.34947      3550.23300
   5698728.82006  21820219.00906   4438663.83047  21820216.30647     -2083.68600
 08 11 11  0 46 44.9970000  0  9  3  6 13 16 19 21 23 25 31
 -24205359.44908  19233358.69608 -18842526.76849  19233357.00149      2147.79400
 -23956166.07807  19323477.52407 -18651723.52648  19323476.07948      1027.21800
 -10085314.00407  21360705.11007  -8120771.52547  21360702.25947      1693.29600
  -4627642.35907  20018707.20407  -3597916.95948  20018703.86048      -559.13200
 -10200132.38306  21410057.88406  -7942056.85848  21410055.23948      3769.92200
  -5977522.82406  22935979.12606  -4647621.32747  22935976.09547       631.29000
 -17796985.37507  20576695.00107 -13842785.15548  20576690.35648       -69.87800
  -6350580.50406  22466704.54806  -4939542.03647  22466702.57547      3547.71300
   5730063.99606  21826181.60306   4463080.81648  21826179.27148     -2089.01200
 08 11 11  0 46 59.9970000  0  9  3  6 13 16 19 21 23 25 31
 -24237438.51208  19227254.37608 -18867523.44749  19227252.35649      2138.60400
 -23971440.14507  19320571.34507 -18663625.38848  19320569.24748      1018.27100
 -10110554.57406  21355901.75906  -8140439.47447  21355899.12647      1682.70500
  -4619202.54307  20020313.22007  -3591340.48548  20020309.56048      -562.65400
 -10256595.92207  21399313.87607  -7986054.41148  21399310.26748      3764.23600
  -5986866.19906  22934200.75906  -4654901.85047  22934198.17747       622.89200
 -17795777.77307  20576924.24307 -13841844.16548  20576920.08748       -80.50700
  -6403758.91006  22456585.02406  -4980979.75847  22456582.62647      3545.22700
   5761478.13306  21832159.72006   4487559.34848  21832157.42348     -2094.27600
 08 11 11  0 47 14.9970000  0  9  3  6 13 16 19 21 23 25 31
 -24269379.30108  19221175.99308 -18892412.37949  19221174.19649      2129.38600
 -23986579.91807  19317690.61007 -18675422.61248  19317688.48948      1009.31800
 -10135635.87506  21351128.99306  -8159983.36147  21351126.28247      1672.08700
  -4610709.72307  20021929.24307  -3584722.70948  20021925.65348      -566.18800
 -10312973.56607  21388585.61007  -8029985.04048  21388581.79848      3758.51000
  -5996083.30506  22932446.76706  -4662084.01847  22932443.84547       614.47400
 -17794410.62507  20577184.55607 -13840778.88048  20577180.48948       -91.14300
  -6456899.62506  22446472.97806  -5022388.09747  22446470.27147      3542.71400
   5792971.38706  21838152.64206   4512099.50348  21838150.85648     -2099.55000
 08 11 11  0 47 29.9970000  0  9  3  6 13 16 19 21 23 25 31
 -24301182.44908  19215124.07108 -18917194.05849  19215122.51349      2120.21000
 -24001586.15207  19314834.40707 -18687115.78948  19314833.18848      1000.41600
 -10160558.49206  21346386.91506  -8179403.59147  21346384.34147      1661.50800
  -4602164.72707  20023555.69607  -3578064.27548  20023552.03648      -569.66600
 -10369265.76607  21377873.25907  -8073849.08448  21377869.62648      3752.81300
  -6005174.75006  22930717.15706  -4669168.25247  22930713.38847       606.09600
 -17792884.97307  20577474.95407 -13839590.05248  20577470.75948      -101.71000
  -6510003.10506  22436367.45406  -5063767.42847  22436365.52447      3540.23200
   5824542.91006  21844160.47006   4536700.67247  21844158.45447     -2104.76800
 08 11 11  0 47 44.9970000  0  9  3  6 13 16 19 21 23 25 31
 -24332847.05507  19209098.64907 -18941867.76849  19209097.27149      2110.97400
 -24016458.18007  19312004.92307 -18698704.38148  19312002.90748       991.46800
 -10185321.77006  21341674.10306  -8198699.66447  21341672.35647      1650.88500
  -4593566.82007  20025191.47007  -3571364.62148  20025188.86448      -573.19400
 -10425471.43807  21367177.60307  -8117645.69248  21367174.02448      3747.04500
  -6014139.83206  22929010.61006  -4676153.99147  22929007.75547       597.67200
 -17791200.18407  20577795.88407 -13838277.22648  20577791.53248      -112.31900
  -6563068.28906  22426269.69606  -5105116.90847  22426268.02147      3537.67900
   5856193.28106  21850183.65706   4561363.26448  21850181.06348     -2110.02500
 08 11 11  0 47 59.9970000  0  9  3  6 13 16 19 21 23 25 31
 -24364373.13308  19203099.09508 -18966433.53949  19203097.91149      2101.73900
 -24031196.14807  19309200.07907 -18710188.51148  19309197.97048       982.53100
 -10209925.50806  21336991.64206  -8217871.39447  21336990.07147      1640.24900
  -4584916.26607  20026837.57907  -3564623.91148  20026834.57148      -576.70400
 -10481590.61707  21356498.93807  -8161374.92148  21356494.86848      3741.27900
  -6022978.68806  22927328.04806  -4683041.39647  22927325.39947       589.25700
 -17789356.50807  20578146.48507 -13836840.60948  20578142.15748      -122.91200
  -6616095.04306  22416179.01706  -5146436.45947  22416177.19647      3535.11700
   5887922.28106  21856221.00106   4586087.15447  21856218.84547     -2115.26700
 08 11 11  0 48 14.9970000  0  9  3  6 13 16 19 21 23 25 31
 -24395760.57807  19197126.75107 -18990891.30949  19197124.64649      2092.49600
 -24045799.91007  19306421.39207 -18721568.05148  19306418.72448       973.58400
 -10234369.25406  21332340.31306  -8236918.48947  21332338.27447      1629.58300
  -4576213.02007  20028493.79807  -3557842.16348  20028490.73948      -580.21600
 -10537622.87107  21345836.54007  -8205036.41248  21345832.11448      3735.48400
  -6031690.60206  22925671.29006  -4689829.90547  22925668.12247       580.79400
 -17787353.87107  20578527.54807 -13835280.11148  20578522.59548      -133.50900
  -6669082.94906  22406095.84506  -5187725.73847  22406093.73547      3532.52700
   5919730.05906  21862273.82906   4610872.37947  21862271.91547     -2120.51800
 08 11 11  0 48 29.9970000  0  9  3  6 13 16 19 21 23 25 31
 -24427009.38308  19191180.41508 -19015241.03748  19191178.02448      2083.25400
 -24060269.78507  19303667.67307 -18732843.27648  19303665.23548       964.65800
 -10258653.23407  21327719.93807  -8255841.06947  21327717.27147      1618.93200
  -4567457.25807  20030159.90707  -3551019.49748  20030156.43548      -583.71700
 -10593568.14107  21335190.02407  -8248630.13448  21335186.24348      3729.68500
  -6040275.96106  22924037.14206  -4696519.82047  22924034.36847       572.35700
 -17785192.53107  20578938.86007 -13833595.97348  20578934.05648      -144.08900
  -6722032.05906  22396019.75906  -5228984.75147  22396018.13047      3529.94100
   5951616.17206  21868341.50106   4635718.68047  21868339.54847     -2125.74100
 08 11 11  0 48 44.9970000  0  9  3  6 13 16 19 21 23 25 31
 -24458119.63307  19185259.83707 -19039482.80149  19185258.05249      2074.01700
 -24074605.95307  19300939.45407 -18744014.32948  19300937.37648       955.74500
 -10282777.64106  21323128.44606  -8274639.29647  21323126.54847      1608.29400
  -4558649.16807  20031836.22807  -3544156.05048  20031833.00548      -587.20600
 -10649426.39507  21324560.77407  -8292156.02548  21324556.78648      3723.88400
  -6048734.87106  22922427.77406  -4703111.15247  22922424.58747       563.92700
 -17782872.94507  20579380.14207 -13831788.50148  20579376.10648      -154.63900
  -6774942.25806  22385951.14206  -5270213.47347  22385949.69247      3527.34700
   5983580.32006  21874424.58706   4660625.78647  21874422.16947     -2130.94300
 08 11 11  0 48 59.9970000  0  9  3  6 13 16 19 21 23 25 31
 -24489090.93007  19179366.33707 -19063616.27048  19179364.69648      2064.75300
 -24088808.20707  19298236.64207 -18755081.00848  19298235.02848       946.81700
 -10306741.93406  21318568.64906  -8293312.75847  21318566.22047      1597.62000
  -4549788.59407  20033522.10307  -3537251.71748  20033519.61448      -590.70500
 -10705197.03506  21313947.11006  -8335613.66248  21313943.82548      3718.04300
  -6057067.03906  22920842.27406  -4709603.74547  22920838.85347       555.47800
 -17780395.00407  20579851.62607 -13829857.64048  20579847.80248      -165.19600
  -6827813.00406  22375889.67306  -5311411.42947  22375888.92747      3524.71600
   6015622.75406  21880521.51706   4685593.90147  21880519.59547     -2136.16200
 08 11 11  0 49 14.9970000  0  9  3  6 13 16 19 21 23 25 31
 -24519923.30907  19173499.02407 -19087641.51149  19173497.36449      2055.49200
 -24102876.59807  19295559.39207 -18766043.39348  19295557.62648       937.89300
 -10330545.96506  21314039.00106  -8311861.37047  21314036.70047      1586.93500
  -4540875.71907  20035218.53207  -3530306.62348  20035215.43848      -594.19200
 -10760879.75807  21303351.45407  -8379002.77148  21303347.89948      3712.18200
  -6065272.30906  22919281.39206  -4715997.47047  22919277.51347       547.01800
 -17777758.91007  20580353.64207 -13827803.54748  20580349.79848      -175.74000
  -6880643.93806  22365836.55606  -5352578.37347  22365835.34947      3522.06200
   6047743.26606  21886634.17306   4710622.87447  21886631.71647     -2141.36700
 08 11 11  0 49 29.9970000  0  9  3  6 13 16 19 21 23 25 31
 -24550616.60207  19167658.01707 -19111558.35948  19167656.52148      2046.22000
 -24116810.98407  19292908.36007 -18776901.34448  19292906.37648       928.95900
 -10354189.38706  21309539.49306  -8330284.79347  21309537.30647      1576.22800
  -4531910.08607  20036924.59507  -3523320.42148  20036921.36048      -597.70900
 -10816474.16406  21292772.15706  -8422323.08248  21292768.26348      3706.29400
  -6073350.35206  22917743.57106  -4722292.02447  22917740.60647       538.53600
 -17774964.48407  20580884.93807 -13825626.08648  20580880.98148      -186.29500
  -6933434.71506  22355790.65706  -5393714.04647  22355789.41147      3519.38500
   6079942.07006  21892761.29806   4735712.81847  21892759.18847     -2146.58700
 08 11 11  0 49 44.9970000  0  9  3  6 13 16 19 21 23 25 31
 -24581170.72708  19161844.15708 -19135366.78649  19161842.52149      2036.94200
 -24130611.53907  19290282.04007 -18787655.02248  19290280.04048       920.03700
 -10377672.27306  21305071.06306  -8348583.16047  21305068.77847      1565.52600
  -4522892.09007  20038640.37607  -3516293.41048  20038636.91548      -601.20000
 -10871980.15207  21282209.39907  -8465574.50048  21282205.69648      3700.39900
  -6081301.24606  22916230.18106  -4728487.52747  22916227.51347       530.06000
 -17772011.97707  20581447.08707 -13823325.44048  20581443.27148      -196.83400
  -6986185.18406  22345752.97806  -5434818.30947  22345750.91547      3516.69800
   6112218.82006  21898903.90706   4760863.50047  21898900.86447     -2151.78300
 08 11 11  0 49 59.9970000  0  9  3  6 13 16 19 21 23 25 31
 -24611585.80107  19156056.47807 -19159066.85149  19156054.80249      2027.67200
 -24144278.51607  19287681.48507 -18798304.60048  19287678.95848       911.13200
 -10400994.76206  21300633.00906  -8366756.53247  21300630.62647      1554.83300
  -4513822.02707  20040366.47807  -3509225.84348  20040362.96248      -604.67100
 -10927397.65607  21271664.22807  -8508756.97948  21271659.82148      3694.50000
  -6089125.09806  22914741.74306  -4734584.03547  22914738.22847       521.59000
 -17768901.81607  20582038.67307 -13820901.94548  20582034.53648      -207.34400
  -7038895.30906  22335722.80606  -5475891.12947  22335720.76347      3514.00800
   6144573.13706  21905060.18806   4786074.62747  21905058.11447     -2156.95400
 08 11 11  0 50 14.9970000  0  9  3  6 13 16 19 21 23 25 31
 -24641861.82808  19150295.17308 -19182658.56749  19150293.38849      2018.40200
 -24157812.28107  19285105.67307 -18808850.39548  19285103.63848       902.25100
 -10424156.96106  21296225.05606  -8384805.01047  21296222.69247      1544.14700
  -4504700.15607  20042102.59507  -3502117.89148  20042098.77148      -608.12500
 -10982726.76607  21261135.64207  -8551870.56548  21261131.25148      3688.60700
  -6096822.18806  22913277.07906  -4740581.74947  22913273.56747       513.13900
 -17765634.44107  20582660.78207 -13818355.95848  20582656.18848      -217.82500
  -7091565.06606  22325700.00906  -5516932.47047  22325697.75547      3511.31700
   6177004.79706  21911232.44606   4811346.04447  21911229.24747     -2162.11100
 08 11 11  0 50 29.9970000  0  9  3  6 13 16 19 21 23 25 31
 -24671998.03908  19144560.37608 -19206141.32849  19144558.25549      2009.08100
 -24171211.88707  19282556.14907 -18819291.63648  19282554.03648       893.30700
 -10447157.74206  21291847.97006  -8402727.67247  21291845.82147      1533.38500
  -4495525.57807  20043848.13407  -3494968.85848  20043845.31048      -611.63900
 -11037966.17207  21250623.55607  -8594914.25448  21250619.20048      3682.62700
  -6104391.52006  22911836.59506  -4746479.93047  22911833.27147       504.62200
 -17762209.06307  20583312.58707 -13815686.85048  20583307.84948      -228.35900
  -7144193.24206  22315685.21206  -5557941.40847  22315683.45847      3508.54500
   6209514.60206  21917418.08706   4836678.34447  21917415.59547     -2167.32000
 08 11 11  0 50 44.9970000  0  9  3  6 13 16 19 21 23 25 31
 -24701994.70308  19138852.20408 -19229515.36949  19138849.88049      1999.77800
 -24184477.88307  19280031.50107 -18829628.77748  19280029.41548       884.40000
 -10469997.42606  21287501.75106  -8420524.84147  21287499.57947      1522.64600
  -4486298.85207  20045603.86807  -3487779.20948  20045600.95448      -615.11500
 -11093116.11307  21240128.79807  -8637888.24348  21240124.34148      3676.66300
  -6111833.50006  22910420.04806  -4752278.86247  22910415.96247       496.13200
 -17758626.37107  20583994.14207 -13812895.15548  20583989.64648      -238.84600
  -7196780.06606  22305678.36006  -5598918.12747  22305676.39247      3505.78800
   6242101.86706  21923620.00906   4862070.97547  21923617.09547     -2172.48400
 08 11 11  0 50 59.9970000  0  9  3  6 13 16 19 21 23 25 31
 -24731851.49608  19133170.48508 -19252780.40048  19133168.66948      1990.45300
 -24197610.07807  19277532.47007 -18839861.64348  19277530.44648       875.48000
 -10492675.71506  21283186.50906  -8438196.22247  21283183.86047      1511.88600
  -4477019.79307  20047369.39907  -3480548.77448  20047366.39248      -618.60400
 -11148175.94907  21229651.58707  -8680791.99648  21229647.52448      3670.65600
  -6119147.71506  22909028.22006  -4757978.22947  22909024.90347       487.61400
 -17754886.25807  20584706.08707 -13809980.77648  20584701.48548      -249.34100
  -7249324.98406  22295679.04006  -5639862.18647  22295677.04047      3502.99500
   6274766.87506  21929835.64206   4887524.22647  21929832.94647     -2177.66700
 08 11 11  0 51 14.9970000  0  9  3  6 13 16 19 21 23 25 31
 -24761568.44108  19127515.54808 -19275936.46749  19127513.60649      1981.13000
 -24210608.32807  19275058.95407 -18849990.15248  19275056.99748       866.55000
 -10515192.23406  21278902.05606  -8455741.56747  21278899.11447      1501.10100
  -4467688.27007  20049145.68107  -3473277.47748  20049142.18148      -622.10200
 -11203145.39806  21219191.04006  -8723625.33648  21219187.59548      3664.63000
  -6126333.83206  22907660.70406  -4763577.81147  22907657.68147       479.07400
 -17750988.66007  20585447.43807 -13806943.69548  20585442.70048      -259.84000
  -7301827.57806  22285688.14206  -5680773.30447  22285685.64647      3500.17300
   6307509.49606  21936066.18106   4913037.93047  21936064.44647     -2182.84100
 08 11 11  0 51 29.9970000  0  9  3  6 13 16 19 21 23 25 31
 -24791145.01607  19121887.43107 -19298983.14149  19121885.52449      1971.77200
 -24223472.64107  19272611.10307 -18860014.27348  19272608.95848       857.62100
 -10537546.97306  21274647.93806  -8473160.83347  21274645.08747      1490.31600
  -4458304.25807  20050931.11007  -3465965.25448  20050927.27148      -625.60100
 -11258024.09406  21208747.89906  -8766387.93448  21208745.17748      3658.58000
  -6133391.70706  22906317.88406  -4769077.44647  22906314.87247       470.52500
 -17746933.68407  20586219.25107 -13803783.97848  20586214.68848      -270.33200
  -7354287.46106  22275705.64906  -5721651.12547  22275702.83347      3497.32600
   6340330.10906  21942311.82906   4938612.42247  21942309.73547     -2188.04100
 08 11 11  0 51 44.9970000  0  9  3  6 13 16 19 21 23 25 31
 -24820581.87908  19116285.94608 -19321920.97149  19116284.34549      1962.45800
 -24236203.59407  19270188.60307 -18869934.50248  19270186.12648       848.73000
 -10559740.16806  21270424.43106  -8490454.23347  21270422.46247      1479.54600
  -4448868.24607  20052726.87607  -3458612.52448  20052723.16948      -629.06700
 -11312812.34806  21198322.52406  -8809080.08448  21198318.71648      3652.55000
  -6140321.89106  22904998.89206  -4774477.60247  22904995.87247       462.01200
 -17742722.10907  20587020.45407 -13800502.25548  20587016.27448      -280.77200
  -7406704.90606  22265730.65706  -5762495.86747  22265728.55647      3494.49600
   6373227.57406  21948572.34506   4964246.77847  21948569.39947     -2193.16400
 08 11 11  0 51 59.9970000  0  9  3  6 13 16 19 21 23 25 31
 -24849878.56607  19110710.80607 -19344749.55749  19110709.22449      1953.11300
 -24248801.16407  19267791.47007 -18879750.78048  19267789.22848       839.83800
 -10581771.60906  21266232.24306  -8507621.58447  21266229.54047      1468.76300
  -4439380.19107  20054532.27407  -3451219.21848  20054528.85348      -632.53700
 -11367509.79306  21187913.93806  -8851701.46248  21187909.39948      3646.49600
  -6147124.17206  22903704.56306  -4779778.09047  22903701.43547       453.48500
 -17738353.80907  20587851.85307 -13797098.38948  20587847.32948      -291.22000
  -7459079.58606  22255764.09506  -5803307.30047  22255762.09947      3491.64500
   6406201.93406  21954847.09506   4989941.08047  21954844.53247     -2198.29100
 08 11 11  0 52 14.9970000  0  9  3  6 13 16 19 21 23 25 31
 -24879034.88708  19105162.41508 -19367468.78249  19105160.37249      1943.75500
 -24261264.95307  19265419.54807 -18889462.82448  19265417.39248       830.91900
 -10603640.95306  21262070.51706  -8524662.63347  21262067.96247      1457.95600
  -4429839.79707  20056348.15707  -3443785.16748  20056345.06348      -636.02600
 -11422115.82806  21177522.79806  -8894251.63448  21177518.66148      3640.40200
  -6153798.20306  22902434.82106  -4784978.62447  22902431.54847       444.93500
 -17733828.66407  20588712.97807 -13793572.32248  20588708.09548      -301.67600
  -7511410.87906  22245805.57106  -5844084.92647  22245803.32947      3488.75300
   6439253.65206  21961136.66506   5015695.63947  21961134.48547     -2203.44800
 08 11 11  0 52 29.9970000  0  9  3  6 13 16 19 21 23 25 31
 -24908050.57407  19099641.03207 -19390078.39348  19099638.46648      1934.37900
 -24273594.96907  19263073.18807 -18899070.61248  19263070.78648       822.00100
 -10625347.89506  21257940.31306  -8541577.12247  21257936.86047      1447.12900
  -4420247.11707  20058173.36807  -3436310.35348  20058170.05248      -639.51200
 -11476630.09806  21167148.84506  -8936730.26448  21167145.09548      3634.28500
  -6160343.79706  22901189.10306  -4790079.08247  22901185.68147       436.37300
 -17729146.73007  20589604.30607 -13789924.06048  20589599.52448      -312.12900
  -7563698.40606  22235855.53206  -5884828.39847  22235853.47047      3485.83500
   6472382.56306  21967440.60306   5041510.36547  21967438.16947     -2208.59400
 08 11 11  0 52 44.9970000  0  9  3  6 13 16 19 21 23 25 31
 -24936926.43007  19094146.05607 -19412579.07349  19094143.55249      1925.05700
 -24285792.21107  19260752.42307 -18908574.95648  19260750.21248       813.14900
 -10646893.11706  21253839.99306  -8558365.62447  21253837.11047      1436.34800
  -4410602.95707  20060008.67307  -3428795.43248  20060005.19648      -642.94400
 -11531053.07006  21156792.38406  -8979137.78248  21156787.91148      3628.19800
  -6166761.69106  22899967.25906  -4795080.06147  22899964.72047       427.86000
 -17724309.07007  20590524.93807 -13786154.47848  20590520.72848      -322.51100
  -7615942.74206  22225913.76706  -5925538.27547  22225911.70047      3482.95600
   6505587.86306  21973759.97006   5067384.57548  21973757.61448     -2213.68700
 08 11 11  0 52 59.9970000  0  9  3  6 13 16 19 21 23 25 31
 -24965661.53507  19088677.68807 -19434970.05548  19088675.69248      1915.67400
 -24297855.66807  19258456.61007 -18917975.04748  19258454.73548       804.23000
 -10668275.59006  21249771.17306  -8575027.29047  21249768.30647      1425.49800
  -4400906.47707  20061853.72007  -3421239.72148  20061849.81048      -646.43200
 -11585383.68006  21146453.66506  -9021473.30748  21146449.69648      3622.04100
  -6173050.85505  22898770.64205  -4799980.70247  22898768.17747       419.27800
 -17719314.85907  20591475.04007 -13782262.88048  20591470.99748      -332.94700
  -7668142.60206  22215980.60306  -5966213.49947  22215977.96247      3479.99100
   6538870.22706  21980093.07106   5093318.86947  21980091.23947     -2218.82400
 08 11 11  0 53 14.9970000  0  9  3  6 13 16 19 21 23 25 31
 -24994256.57807  19083236.38407 -19457251.91149  19083234.68849      1906.33600
 -24309786.33207  19256186.22807 -18927271.67548  19256184.30248       795.37800
 -10689496.15206  21245732.63406  -8591562.78747  21245730.51347      1414.70400
  -4391158.62107  20063708.25907  -3413643.99448  20063704.48948      -649.85700
 -11639622.56306  21136132.55606  -9063737.37448  21136129.08748      3615.92600
  -6179212.14806  22897598.43106  -4804781.70647  22897595.34147       410.75300
 -17714165.17607  20592455.24307 -13778250.15948  20592450.82948      -343.31200
  -7720298.64106  22206056.26706  -6006854.57347  22206053.09547      3477.06900
   6572228.74206  21986440.82106   5119312.48847  21986439.32547     -2223.90100
 08 11 11  0 53 29.9970000  0  9  3  6 13 16 19 21 23 25 31
 -25022711.67607  19077821.78207 -19479424.69048  19077819.96648      1897.00700
 -24321584.57407  19253941.00907 -18936465.09448  19253939.15348       786.54900
 -10710555.02306  21241725.33706  -8607972.30347  21241722.60347      1403.92500
  -4381359.73407  20065573.53207  -3406008.50748  20065569.87648      -653.25900
 -11693769.75406  21125828.24306  -9105929.98148  21125824.51748      3609.81300
  -6185245.67606  22896450.24306  -4809483.13447  22896447.15747       402.23500
 -17708860.55907  20593464.77407 -13774116.69048  20593459.54048      -353.64100
  -7772410.91006  22196139.49306  -6047461.50447  22196136.66547      3474.15100
   6605662.94906  21992802.74306   5145365.09347  21992801.01347     -2228.94700
 08 11 11  0 53 44.9970000  0  9  3  6 13 16 19 21 23 25 31
 -25051026.39108  19072433.89208 -19501488.11649  19072431.55249      1887.64800
 -24333249.99607  19251720.96207 -18945555.04348  19251719.08748       777.69500
 -10731451.60506  21237748.97806  -8624255.36647  21237746.18147      1393.10500
  -4371509.35207  20067447.72007  -3398332.88148  20067444.56048      -656.69200
 -11747824.58206  21115542.20406  -9148050.63748  21115538.20048      3603.65500
  -6191151.14806  22895326.94606  -4814084.84647  22895323.26347       393.69800
 -17703400.58207  20594503.78207 -13769862.18448  20594499.00148      -363.99800
  -7824478.71106  22186230.85306  -6088033.84947  22186228.12647      3471.18700
   6639173.27306  21999179.94606   5171476.99247  21999177.81347     -2234.02200
 08 11 11  0 53 59.9970000  0  9  3  6 13 16 19 21 23 25 31
 -25079200.81608  19067072.47808 -19523442.20249  19067070.47849      1878.29500
 -24344782.80907  19249526.81307 -18954541.63748  19249524.40348       768.85400
 -10752185.75406  21233803.33706  -8640411.83447  21233800.72047      1382.27700
  -4361607.47307  20069331.88407  -3390617.12348  20069328.75148      -660.12500
 -11801786.77706  21105273.25106  -9190099.08848  21105269.39948      3597.48000
  -6196928.41806  22894227.79006  -4818586.58847  22894224.08347       385.15100
 -17697785.64107  20595572.21207 -13765486.89748  20595567.65748      -374.32900
  -7876501.76206  22176331.46206  -6128571.24947  22176328.83747      3468.20300
   6672759.38306  22005571.17306   5197647.98747  22005569.47847     -2239.07400
 08 11 11  0 54 14.9970000  0  9  3  6 13 16 19 21 23 25 31
 -25107235.04708  19061737.78208 -19545287.05649  19061735.18549      1868.94900
 -24356183.15207  19247357.26707 -18963425.03248  19247355.31048       760.02300
 -10772757.58206  21229888.42306  -8656441.83347  21229886.37247      1371.45500
  -4351654.45707  20071225.85307  -3382861.53648  20071222.41148      -663.53400
 -11855656.37106  21095022.36006  -9232075.41448  21095018.90748      3591.30600
  -6202577.64105  22893151.79005  -4822988.61447  22893149.07147       376.61500
 -17692016.02007  20596669.98507 -13760991.11048  20596665.26348      -384.64100
  -7928479.96106  22166440.08706  -6169073.79947  22166437.32947      3465.21300
   6706421.08606  22011976.89906   5223877.85647  22011974.57147     -2244.11400
 08 11 11  0 54 29.9970000  0  9  3  6 13 16 19 21 23 25 31
 -25135128.91408  19056429.46208 -19567022.53348  19056427.04448      1859.59100
 -24367450.93807  19245213.08707 -18972205.10148  19245211.13448       751.18600
 -10793166.91006  21226005.30606  -8672345.19447  21226002.62647      1360.62200
  -4341650.22707  20073129.75107  -3375066.03248  20073126.41148      -666.94900
 -11909432.77006  21084789.06306  -9273979.09448  21084785.58748      3585.09300
  -6208098.52005  22892101.77405  -4827290.57647  22892098.57147       368.05900
 -17686091.66807  20597797.16507 -13756374.74448  20597792.34148      -394.95700
  -7980412.94506  22156557.64206  -6209541.05647  22156554.91947      3462.19900
   6740158.36306  22018397.10306   5250166.61947  22018394.69647     -2249.15200
 08 11 11  0 54 44.9970000  0  9  3  6 13 16 19 21 23 25 31
 -25162883.03107  19051147.84507 -19588649.11449  19051145.73549      1850.27400
 -24378586.94107  19243093.81307 -18980882.52048  19243092.15748       742.40000
 -10813414.32007  21222152.10307  -8688122.40647  21222150.37247      1349.82700
  -4331595.50807  20075043.14907  -3367231.19748  20075039.94248      -670.31500
 -11963116.41007  21074573.46207  -9315810.50648  21074569.85348      3578.90900
  -6213491.77006  22891075.05606  -4831493.12247  22891072.19647       359.55000
 -17680013.54307  20598953.88407 -13751638.55448  20598949.19248      -405.20800
  -8032301.11706  22146683.79006  -6249973.36247  22146681.50547      3459.21100
   6773970.39106  22024831.11006   5276513.61147  22024828.38047     -2254.13500
 08 11 11  0 54 59.9970000  0  9  3  6 13 16 19 21 23 25 31
 -25190496.77307  19045892.97007 -19610166.30248  19045891.07148      1840.91600
 -24389590.91807  19240999.91507 -18989457.02548  19240997.90348       733.59800
 -10833499.24607  21218330.04807  -8703772.99447  21218328.02847      1338.99500
  -4321489.59007  20076965.96207  -3359356.45948  20076963.04048      -673.72800
 -12016706.77007  21064375.69607  -9357569.21448  21064371.38448      3572.69100
  -6218756.84805  22890072.97805  -4835595.78647  22890069.91147       351.00500
 -17673781.48407  20600140.00107 -13746782.40548  20600135.35648      -415.47100
  -8084143.77306  22136818.18106  -6290370.23147  22136815.50947      3456.17700
   6807857.48406  22031279.48506   5302919.14047  22031277.04847     -2259.14000
 08 11 11  0 55 14.9970000  0  9  3  6 13 16 19 21 23 25 31
 -25217969.96508  19040665.50108 -19631573.98949  19040663.12649      1831.54600
 -24400462.68807  19238930.79007 -18997928.54048  19238929.30248       724.78500
 -10853421.56607  21214539.09507  -8719296.88447  21214537.30247      1328.15500
  -4311332.93807  20078898.59507  -3351442.18048  20078895.34948      -677.11000
 -12070203.47707  21054195.34507  -9399254.96548  21054191.42748      3566.44700
  -6223893.65205  22889095.31305  -4839598.48547  22889091.74347       342.45400
 -17667395.46507  20601355.14207 -13741806.30548  20601350.02148      -425.73500
  -8135940.51606  22126961.59506  -6330731.31747  22126959.09147      3453.11600
   6841819.59406  22037742.73506   5329383.08047  22037740.37647     -2264.14100
 08 11 11  0 55 29.9970000  0  9  3  6 13 16 19 21 23 25 31
 -25245302.53507  19035463.84507 -19652872.09349  19035462.08749      1822.17100
 -24411201.98807  19236887.36007 -19006296.82348  19236885.92748       715.95300
 -10873180.86307  21210778.61807  -8734693.72947  21210776.61847      1317.28600
  -4301125.12907  20080841.50107  -3343488.05248  20080838.24748      -680.52100
 -12123606.02307  21044033.24307  -9440867.34548  21044029.36048      3560.17000
  -6228901.61705  22888142.26705  -4843500.80347  22888139.48147       333.86400
 -17660855.30507  20602599.84507 -13736710.08048  20602594.17748      -436.01100
  -8187690.75006  22117113.92306  -6371056.17247  22117111.29847      3450.01600
   6875857.03506  22044219.65706   5355905.74847  22044218.25147     -2269.16300
 08 11 11  0 55 44.9970000  0  9  3  6 13 16 19 21 23 25 31
 -25272494.76608  19030289.77408 -19674060.84149  19030288.12249      1812.81500
 -24421809.52307  19234868.57907 -19014562.42948  19234866.76348       707.16900
 -10892777.39806  21207049.76706  -8749963.77547  21207047.48547      1306.43600
  -4290866.75007  20082793.29007  -3335494.52648  20082790.34548      -683.89200
 -12176914.55107  21033889.00107  -9482406.45948  21033885.52148      3553.90200
  -6233781.51205  22887214.25905  -4847303.36147  22887211.62247       325.32600
 -17654161.85507  20603873.58707 -13731494.42448  20603868.43548      -446.23000
  -8239394.69506  22107274.76706  -6411344.95047  22107272.28247      3446.93000
   6909969.21106  22050711.22006   5382486.60647  22050709.95847     -2274.14500
 08 11 11  0 55 59.9970000  0  9  3  6 13 16 19 21 23 25 31
 -25299546.73408  19025141.75908 -19695140.29649  19025140.41949      1803.46500
 -24432285.59807  19232875.42307 -19022725.60048  19232873.47848       698.40500
 -10912211.53106  21203351.73506  -8765107.25747  21203349.11847      1295.60900
  -4280558.03107  20084754.93807  -3327461.76048  20084751.97848      -687.24800
 -12230129.14506  21023762.44606  -9523872.36648  21023759.27848      3547.64000
  -6238533.61305  22886310.04005  -4851006.28947  22886307.18547       316.80700
 -17647315.51207  20605176.47007 -13726159.62148  20605171.02848      -456.42300
  -8291052.45706  22097444.28206  -6451597.72547  22097441.84547      3443.85100
   6944155.64806  22057216.97006   5409125.37847  22057215.14647     -2279.09600
 08 11 11  0 56 14.9970000  0  9  3  6 13 16 19 21 23 25 31
 -25326459.33607  19020020.40707 -19716111.14749  19020018.97049      1794.17300
 -24442631.00007  19230906.50907 -19030786.94548  19230904.59148       689.69300
 -10931483.90206  21199683.92306  -8780124.69148  21199681.25548      1284.82500
  -4270199.66007  20086726.29807  -3319390.29948  20086723.40348      -690.55800
 -12283250.27306  21013654.00106  -9565265.44548  21013650.75948      3541.40900
  -6243158.39805  22885429.98505  -4854610.05447  22885427.14647       308.31900
 -17640317.03507  20606507.98507 -13720706.28548  20606502.97848      -466.56500
  -8342664.45706  22087622.54006  -6491814.82947  22087620.81047      3440.80000
   6978415.50006  22063736.38406   5435821.35448  22063734.16548     -2283.99000
 08 11 11  0 56 29.9970000  0  9  3  6 13 16 19 21 23 25 31
 -25353231.98808  19014925.80608 -19736972.95749  19014923.72049      1784.84300
 -24452845.45707  19228962.64907 -19038746.26148  19228960.73548       680.96400
 -10950594.07806  21196048.21206  -8795015.74747  21196044.70047      1274.01200
  -4259791.34407  20088706.68807  -3311279.92348  20088704.06348      -693.88800
 -12336277.36706  21003562.97006  -9606585.24548  21003559.81748      3535.14000
  -6247655.25806  22884574.04806  -4858114.10847  22884571.44247       299.79100
 -17633166.43807  20607868.52407 -13715134.39848  20607864.60648      -476.70700
  -8394229.94506  22077810.25906  -6531995.71447  22077808.47847      3437.69900
   7012748.93406  22070269.55606   5462574.66247  22070267.33747     -2288.89600
 08 11 11  0 56 44.9970000  0  9  3  6 13 16 19 21 23 25 31
 -25379864.68408  19009857.73508 -19757725.70049  19009855.62249      1775.51300
 -24462929.09807  19227044.01707 -19046603.64348  19227042.00548       672.24300
 -10969541.95706  21192442.53206  -8809780.33647  21192439.34147      1263.19200
  -4249333.15607  20090696.94607  -3303130.69948  20090694.20448      -697.21200
 -12389210.22706  20993489.96206  -9647831.61548  20993486.76748      3528.85700
  -6252024.50006  22883742.98506  -4861518.70147  22883740.11847       291.28300
 -17625863.85907  20609258.25907 -13709444.09848  20609253.92748      -486.83900
  -8445748.75806  22068006.71206  -6572140.22147  22068003.96647      3434.58800
   7047155.85206  22076816.44606   5489385.22047  22076814.56047     -2293.79500
 08 11 11  0 56 59.9970000  0  9  3  6 13 16 19 21 23 25 31
 -25406357.57407  19004816.24307 -19778369.51349  19004814.39949      1766.19300
 -24472882.18407  19225149.98507 -19054359.29348  19225148.09548       663.53900
 -10988327.57006  21188867.19606  -8824418.46447  21188864.67747      1252.37400
  -4238825.39507  20092696.89907  -3294942.83848  20092693.55648      -700.51700
 -12442048.75006  20983435.53206  -9689004.49448  20983431.82948      3522.56800
  -6256266.31306  22882935.88406  -4864823.98947  22882932.72847       282.78800
 -17618409.82407  20610676.48507 -13703635.76748  20610671.76748      -496.93600
  -8497220.79706  22058212.02406  -6612248.26947  22058209.33747      3431.46900
   7081635.88306  22083377.90706   5516252.75047  22083375.89947     -2298.66900
 08 11 11  0 57 14.9970000  0  9  3  6 13 16 19 21 23 25 31
 -25432710.24207  18999801.46207 -19798904.06849  18999800.16149      1756.84500
 -24482704.39107  19223280.98507 -19062012.96248  19223278.81348       654.81400
 -11006950.58606  21185323.28206  -8838929.89947  21185321.03247      1241.53400
  -4228267.60907  20094705.61007  -3286715.98548  20094702.31748      -703.85200
 -12494792.37506  20973398.51706  -9730103.41248  20973395.00548      3516.24200
  -6260380.16006  22882152.51706  -4868029.57147  22882149.81747       274.25700
 -17610804.27306  20612123.64906 -13697709.37448  20612119.62648      -507.03700
  -8548645.44106  22048426.32906  -6652319.41747  22048424.22047      3428.31000
   7116189.24606  22089953.49306   5543177.41547  22089951.33347     -2303.55800
 08 11 11  0 57 29.9970000  0  9  3  6 13 16 19 21 23 25 31
 -25458923.60208  18994813.08708 -19819330.04949  18994811.68849      1747.55700
 -24492396.75807  19221436.54807 -19069565.44348  19221434.67748       646.15800
 -11025411.72706  21181810.07906  -8853315.21547  21181808.04847      1230.74300
  -4217660.85207  20096724.16507  -3278450.97448  20096720.34948      -707.11700
 -12547441.64106  20963379.80606  -9771128.80148  20963376.44248      3509.95100
  -6264366.76205  22881394.10305  -4871136.02347  22881391.49347       265.77300
 -17603047.91007  20613600.14207 -13691665.47248  20613595.79048      -517.09100
  -8600023.20306  22038649.73506  -6692354.05447  22038647.16947      3425.18400
   7150814.99606  22096542.24306   5570158.51447  22096540.09547     -2308.38300
 08 11 11  0 57 44.9970000  0  9  3  6 13 16 19 21 23 25 31
 -25484997.46107  18989851.75107 -19839647.35149  18989850.34549      1738.25700
 -24501959.23007  19219616.73507 -19077016.71348  19219615.05648       637.49800
 -11043710.89106  21178327.86806  -8867574.31147  21178325.85647      1219.94400
  -4207004.97307  20098751.74307  -3270147.70748  20098748.61848      -710.39200
 -12599996.36706  20953378.92306  -9812080.53548  20953375.50548      3503.64800
  -6268226.05106  22880659.89206  -4874143.25147  22880657.19247       257.28600
 -17595141.06307  20615104.62607 -13685504.28248  20615100.31748      -527.12300
  -8651353.83606  22028881.72006  -6732351.90547  22028879.26347      3422.04200
   7185513.14806  22103145.32906   5597196.01047  22103142.33347     -2313.21000
 08 11 11  0 57 59.9970000  0  9  3  6 13 16 19 21 23 25 31
 -25510931.00408  18984916.85308 -19859855.29949  18984915.20849      1728.90300
 -24511391.19907  19217822.09507 -19084366.30348  19217819.91948       628.79800
 -11061847.50807  21174877.01707  -8881706.72747  21174874.56347      1209.10800
  -4196299.48807  20100788.86807  -3261805.77448  20100785.35648      -713.69900
 -12652455.50806  20943396.47806  -9852957.77548  20943392.48948      3497.27600
  -6271957.21106  22879949.28206  -4877050.65947  22879947.11047       248.74400
 -17587083.30906  20616637.83706 -13679225.52748  20616634.04048      -537.18400
  -8702636.36706  22019122.65706  -6772312.32447  22019120.05247      3418.83500
   7220284.18006  22109761.83706   5624290.30847  22109759.36047     -2318.06900
 08 11 11  0 58 14.9970000  0  9  3  6 13 16 19 21 23 25 31
 -25536725.13307  18980008.32907 -19879954.61449  18980006.55649      1719.60900
 -24520693.37107  19216051.90707 -19091614.74448  19216049.77848       620.14500
 -11079821.92207  21171456.38407  -8895712.76947  21171454.04447      1198.29400
  -4185545.06607  20102835.64207  -3253425.70648  20102832.25548      -716.96100
 -12704819.60206  20933432.04806  -9893760.96248  20933427.75148      3490.94000
  -6275561.05906  22879263.73506  -4879858.83347  22879261.08347       240.25700
 -17578875.46907  20618200.02407 -13672829.82848  20618196.03648      -547.18900
  -8753871.24606  22009373.36006  -6812235.58847  22009371.03247      3415.65900
   7255127.17606  22116392.43106   5651440.64947  22116390.59947     -2322.86600
 08 11 11  0 58 29.9970000  0  9  3  6 13 16 19 21 23 25 31
 -25562379.66807  18975126.36007 -19899945.16649  18975124.34949      1710.30200
 -24529866.06607  19214306.01707 -19098762.29448  19214303.76348       611.51300
 -11097634.13707  21168066.94607  -8909592.38947  21168064.14947      1187.48100
  -4174741.84407  20104891.46207  -3245007.61548  20104887.96248      -720.21500
 -12757088.44106  20923485.57106  -9934489.92448  20923481.45048      3484.58900
  -6279037.55106  22878601.90706  -4882567.77947  22878599.98947       231.76600
 -17570517.75807  20619790.32107 -13666317.33448  20619786.12248      -557.18100
  -8805058.10506  21999633.21206  -6852121.44247  21999630.18547      3412.45700
   7290042.05506  22123037.02406   5678647.04347  22123034.91147     -2327.65900
 08 11 11  0 58 44.9970000  0  9  3  6 13 16 19 21 23 25 31
 -25587894.52307  18970271.29007 -19919826.87249  18970269.16149      1700.99000
 -24538909.31607  19212585.22807 -19105808.99048  19212583.27448       602.88300
 -11115284.13307  21164708.32107  -8923345.63147  21164705.38847      1176.66600
  -4163889.88707  20106956.33707  -3236551.55148  20106952.94648      -723.46400
 -12809261.78906  20913556.64206  -9975144.47048  20913552.84948      3478.22300
  -6282386.73006  22877965.22006  -4885177.53747  22877962.26347       223.27900
 -17562010.45707  20621409.45407 -13659688.29248  20621404.79848      -567.15300
  -8856196.91006  21989901.34506  -6891969.85647  21989898.81347      3409.25400
   7325028.62106  22129694.18806   5705909.28047  22129692.47447     -2332.43800
 08 11 11  0 58 59.9970000  0  9  3  6 13 16 19 21 23 25 31
 -25613269.43007  18965442.61807 -19939599.52149  18965440.58749      1691.66000
 -24547822.78507  19210889.00907 -19112754.53848  19210887.16548       594.23100
 -11132771.41007  21161379.96207  -8936972.08547  21161377.47847      1165.81800
  -4152988.73407  20109030.72007  -3228057.15648  20109027.57148      -726.74300
 -12861338.96906  20903646.91506 -10015724.08848  20903643.18548      3471.81200
  -6285608.17606  22877351.41506  -4887687.74047  22877348.89947       214.76300
 -17553353.34007  20623056.68807 -13652942.50048  20623052.29048      -577.14100
  -8907286.77306  21980178.98506  -6931780.09947  21980176.59147      3405.99100
   7360087.22306  22136365.32906   5733227.62247  22136363.44247     -2337.24000
 08 11 11  0 59 14.9970000  0  9  3  6 13 16 19 21 23 25 31
 -25638504.18007  18960640.19607 -19959262.95449  18960638.54849      1682.31700
 -24556606.59807  19209217.78207 -19119599.06948  19209215.79848       585.58700
 -11150096.00807  21158083.72807  -8950471.79347  21158080.88447      1154.97300
  -4142038.52007  20111114.92307  -3219524.53148  20111111.75948      -730.01400
 -12913319.84006  20893755.93806 -10056228.64548  20893751.46648      3465.39100
  -6288701.87905  22876762.87605  -4890098.44147  22876760.49347       206.24700
 -17544546.54707  20624732.78207 -13646080.08348  20624727.95448      -587.12000
  -8958327.46906  21970466.46206  -6971552.04947  21970464.14947      3402.71300
   7395217.66406  22143051.80606   5760601.95247  22143048.42747     -2342.02900
 08 11 11  0 59 29.9960000  0  9  3  6 13 16 19 21 23 25 31
 -25663597.39507  18955864.76207 -19978816.09849  18955863.71949      1672.88100
 -24565260.45707  19207571.02707 -19126342.33148  19207568.88748       576.92400
 -11167256.89107  21154818.16807  -8963843.91047  21154816.16047      1144.05900
  -4131040.23007  20113207.40207  -3210954.43648  20113204.41048      -733.21900
 -12965200.91406  20883882.86306 -10096655.46448  20883879.12148      3458.73800
  -6291667.81306  22876198.84806  -4892409.57147  22876196.44147       197.72900
 -17535591.33607  20626436.37107 -13639101.99648  20626432.34048      -597.01400
  -9009315.57806  21960763.70706  -7011283.03947  21960761.32047      3399.20700
   7430417.25006  22149749.44106   5788030.19047  22149746.87547     -2346.63900
 08 11 11  0 59 44.9960000  0  9  3  6 13 16 19 21 23 25 31
 -25688552.96107  18951116.17607 -19998261.98949  18951114.62149      1663.70400
 -24573786.16807  19205948.43407 -19132985.74448  19205946.51648       568.38100
 -11184256.86707  21151583.25407  -8977090.65647  21151581.05547      1133.33200
  -4119993.00407  20115309.41807  -3202346.21248  20115306.59448      -736.48200
 -13016989.40606  20874027.60606 -10137010.12448  20874023.99248      3452.56600
  -6294506.77706  22875658.60606  -4894621.73747  22875655.07847       189.26400
 -17526487.14807  20628169.69107 -13632007.85648  20628165.17648      -606.94600
  -9060258.18006  21951069.57406  -7050978.59447  21951066.29347      3396.17300
   7465689.96505  22156461.83205   5815515.39547  22156459.87547     -2351.51400
 08 11 11  0 59 59.9960000  0  9  3  6 13 16 19 21 23 25 31
 -25713368.60507  18946394.16807 -20017598.85249  18946392.47749      1654.37600
 -24582182.90207  19204350.77707 -19139528.66248  19204348.79748       559.78200
 -11201094.41807  21148378.85607  -8990210.82347  21148377.10947      1122.50300
  -4108897.13707  20117421.14507  -3193700.08548  20117417.77748      -739.72400
 -13068681.30906  20864191.37106 -10177289.50748  20864187.10248      3446.12700
  -6297218.18406  22875142.91806  -4896734.50447  22875138.75047       180.76000
 -17517234.38307  20629930.34807 -13624797.91748  20629925.71548      -616.85100
  -9111151.21106  21941385.05906  -7090635.47147  21941382.32047      3392.86900
   7501033.84006  22163187.46506   5843056.06147  22163185.36347     -2356.25800
 08 11 11  1  0 14.9960000  0  9  3  6 13 16 19 21 23 25 31
 -25738043.53107  18941698.75407 -20036826.06949  18941696.42249      1644.99500
 -24590449.66007  19202777.72307 -19145970.28548  19202775.32448       551.11700
 -11217768.29307  21145205.91807  -9003203.44847  21145203.96147      1111.59200
  -4097751.55507  20119542.37107  -3185015.22348  20119538.70748      -743.03900
 -13120275.12507  20854373.63707 -10217492.49148  20854369.86748      3439.58800
  -6299801.02706  22874650.91806  -4898747.13847  22874647.92247       172.19000
 -17507832.35207  20631719.12107 -13617471.66448  20631714.73448      -626.80200
  -9161993.34406  21931710.02006  -7130252.69247  21931707.73847      3389.47600
   7536449.68006  22169926.88706   5870652.77247  22169924.75447     -2361.05600
 08 11 11  1  0 29.9960000  0  9  3  6 13 16 19 21 23 25 31
 -25762578.32407  18937029.91007 -20055944.08649  18937027.96949      1635.65300
 -24598587.15207  19201229.08207 -19152311.16848  19201226.72748       542.49900
 -11234279.15607  21142064.37907  -9016069.04547  21142062.09447      1100.72400
  -4086557.07007  20121672.55907  -3176292.25048  20121669.21548      -746.29900
 -13171771.57406  20844573.91806 -10257619.59148  20844570.69948      3433.09700
  -6302255.88706  22874184.87106  -4900660.00547  22874181.16047       163.65700
 -17498281.77007  20633536.57407 -13610029.66348  20633532.32048      -636.70500
  -9212784.85506  21922044.63706  -7169830.48747  21922042.20347      3386.10100
   7571936.66006  22176679.86306   5898304.93947  22176677.34447     -2365.79900
 08 11 11  1  0 44.9960000  0  9  3  6 13 16 19 21 23 25 31
 -25786973.03107  18932387.62107 -20074952.94149  18932385.37549      1626.31400
 -24606595.59807  19199705.00407 -19158551.52548  19199703.19148       533.89600
 -11250627.07007  21138953.02707  -9028807.70047  21138950.87947      1089.86100
  -4075313.93807  20123811.84007  -3167531.38248  20123808.83648      -749.54200
 -13223170.32406  20834793.11306 -10297670.54748  20834789.57848      3426.58300
  -6304582.94506  22873741.45706  -4902473.28547  22873737.61347       155.13700
 -17488583.02707  20635382.06607 -13602472.22448  20635377.75848      -646.58300
  -9263525.69905  21912389.80905  -7209368.79247  21912386.78547      3382.72300
   7607494.56306  22183445.89506   5926012.38347  22183443.79747     -2370.52700
 08 11 11  1  0 59.9960000  0  9  3  6 13 16 19 21 23 25 31
 -25811227.38707  18927772.03507 -20093852.43449  18927770.06649      1616.95700
 -24614475.14807  19198205.71507 -19164691.42548  19198203.83248       525.30300
 -11266811.94907  21135873.53507  -9041419.30547  21135870.02347      1078.99200
  -4064022.04307  20125960.81607  -3158732.49048  20125958.14148      -752.79300
 -13274471.25006  20825030.30106 -10337645.27248  20825027.13348      3420.06200
  -6306782.08606  22873323.25406  -4904186.90347  22873319.18047       146.60900
 -17478736.24607  20637255.87907 -13594799.43048  20637251.61748      -656.45200
  -9314215.57006  21902743.62106  -7248867.37147  21902740.82447      3379.32500
   7643123.23806  22190225.90206   5953774.97347  22190223.90247     -2375.24500
 08 11 11  1  1 14.9960000  0  9  3  6 13 16 19 21 23 25 31
 -25835341.64107  18923183.22307 -20112642.76249  18923181.75849      1607.61700
 -24622225.93407  19196730.69107 -19170730.98948  19196728.91848       516.71900
 -11282833.89107  21132824.80907  -9053903.92447  21132821.29747      1068.12900
  -4052681.66807  20128118.54307  -3149895.84748  20128115.61348      -756.02500
 -13325674.22307  20815287.08207 -10377543.69648  20815283.89548      3413.53200
  -6308853.39506  22872928.39506  -4905800.90246  22872925.27346       138.08700
 -17468741.88707  20639158.13707 -13587011.63248  20639153.75448      -666.29100
  -9364854.28506  21893107.11306  -7288326.09647  21893104.30947      3375.91400
   7678822.45705  22197019.27005   5981592.49547  22197017.24247     -2379.94800
 08 11 11  1  1 29.9960000  0  9  3  6 13 16 19 21 23 25 31
 -25859316.04707  18918621.38707 -20131324.11049  18918619.40249      1598.29400
 -24629848.38707  19195280.25407 -19176670.56748  19195278.27748       508.16400
 -11298693.10907  21129806.88707  -9066261.76347  21129803.96147      1057.28100
  -4041293.00407  20130285.76207  -3141021.56548  20130283.06348      -759.24400
 -13376779.29307  20805562.06607 -10417365.80748  20805558.66448      3407.00500
  -6310797.12506  22872558.52706  -4907315.50147  22872554.78947       129.58200
 -17458600.39507  20641087.73807 -13579109.17248  20641083.35648      -676.09900
  -9415441.85506  21883480.27706  -7327744.94847  21883477.57447      3372.50500
   7714591.79705  22203826.02705   6009464.66847  22203823.84447     -2384.62300
 08 11 11  1  1 44.9960000  0  9  3  6 13 16 19 21 23 25 31
 -25883150.41807  18914085.67607 -20149896.33549  18914083.83249      1588.95800
 -24637342.48807  19193854.21507 -19182510.13048  19193852.47348       499.60700
 -11314389.41407  21126819.96507  -9078492.64947  21126816.87947      1046.42000
  -4029855.92207  20132462.34807  -3132109.56848  20132459.52748      -762.47200
 -13427785.98407  20795856.27707 -10457111.29348  20795852.57448      3400.44600
  -6312613.05506  22872213.21506  -4908730.52447  22872209.78947       121.06200
 -17448311.94107  20643045.30907 -13571092.21948  20643041.67248      -685.89700
  -9465977.79306  21873863.80906  -7367123.60447  21873861.24647      3369.06300
   7750431.52705  22210646.46505   6037391.69447  22210643.97347     -2389.31500
 08 11 11  1  1 59.9960000  0  9  3  6 13 16 19 21 23 25 31
 -25906844.03907  18909577.02007 -20168358.90349  18909574.98849      1579.57500
 -24644707.75007  19192452.44907 -19188249.28548  19192450.88348       491.01700
 -11329922.16007  21123863.85607  -9090596.07847  21123861.64547      1035.51600
  -4018369.94507  20134648.34007  -3123159.45548  20134645.42248      -765.73200
 -13478693.51207  20786168.61307 -10496779.49548  20786164.78148      3393.83500
  -6314300.54706  22871892.15206  -4910045.44747  22871889.03547       112.49900
 -17437875.89107  20645031.72307 -13562960.25848  20645027.67248      -695.73700
  -9516461.17206  21864257.29306  -7406461.28147  21864254.53547      3365.55900
   7786341.77706  22217479.67606   6065373.68547  22217477.86747     -2394.01700
 08 11 11  1  2 14.9960000  0  9  3  6 13 16 19 21 23 25 31
 -25930396.85907  18905094.92607 -20186711.75349  18905093.07049      1570.18800
 -24651944.09807  19191075.77007 -19193888.00848  19191073.96148       482.42300
 -11345291.41007  21120939.27707  -9102572.13747  21120936.88747      1024.61700
  -4006835.02007  20136842.86307  -3114171.20348  20136839.95748      -768.99500
 -13529501.70307  20776499.89507 -10536370.30448  20776495.97748      3387.21300
  -6315859.61706  22871595.55106  -4911260.31847  22871592.46947       103.93800
 -17427292.72307  20647045.16807 -13554713.65248  20647041.73148      -705.54500
  -9566891.84406  21854660.45706  -7445757.90047  21854658.19147      3362.04500
   7822322.47306  22224326.61306   6093410.55147  22224324.11747     -2398.71300
 08 11 11  1  2 29.9960000  0  9  3  6 13 16 19 21 23 25 31
 -25953809.68807  18900639.37107 -20204955.49749  18900637.36349      1560.85500
 -24659052.60507  19189722.99607 -19199427.09548  19189720.84848       473.90100
 -11360497.64507  21118046.06607  -9114421.14948  21118043.40648      1013.74900
  -3995251.97707  20139047.27707  -3105145.47548  20139043.91848      -772.20300
 -13580211.14107  20766850.10607 -10575884.13648  20766847.07448      3380.62900
  -6317291.10506  22871323.34806  -4912375.75947  22871320.23147        95.43300
 -17416563.37507  20649087.27707 -13546353.13148  20649083.70748      -715.29000
  -9617270.20706  21845073.78506  -7485013.74747  21845071.59047      3358.55800
   7858372.69506  22231187.29306   6121501.59847  22231184.23447     -2403.34800
 08 11 11  1  2 44.9960000  0  9  3  6 13 16 19 21 23 25 31
 -25977082.08207  18896211.12107 -20223089.83449  18896209.11349      1551.49300
 -24666032.72307  19188394.76207 -19204866.14248  19188392.66848       465.34100
 -11375540.42607  21115182.86307  -9126142.82447  21115180.89147      1002.85200
  -3983620.42607  20141260.77707  -3096081.92648  20141257.10648      -775.43700
 -13630821.23407  20757219.47307 -10615320.56348  20757216.23448      3374.00600
  -6318594.38706  22871075.34806  -4913391.32147  22871071.82847        86.88500
 -17405687.51207  20651156.52007 -13537878.44648  20651153.12548      -725.05800
  -9667595.47706  21835497.20706  -7524228.24547  21835495.05547      3355.01800
   7894492.75006  22238060.30906   6149647.06547  22238058.50847     -2408.00400
 08 11 11  1  2 59.9960000  0  9  3  6 13 16 19 21 23 25 31
 -26000214.36307  18891809.02707 -20241114.98048  18891807.28948      1542.15200
 -24672885.04707  19187090.77707 -19210205.61748  19187088.78948       456.82200
 -11390419.99207  21112351.72307  -9137737.28947  21112349.20747       991.97100
  -3971940.57407  20143482.80907  -3086980.74348  20143479.73148      -778.65700
 -13681331.78106  20747607.34806 -10654679.42948  20747604.44548      3367.37000
  -6319769.78106  22870851.05106  -4914307.25047  22870848.05947        78.36000
 -17394665.77707  20653254.09807 -13529290.10348  20653250.24648      -734.78200
  -9717867.77306  21825930.72306  -7563401.43947  21825928.37147      3351.48600
   7930682.33205  22244946.94905   6177846.68947  22244944.86347     -2412.63900
 08 11 11  1  3 14.9960000  0  9  3  6 13 16 19 21 23 25 31
 -26023206.37107  18887433.89507 -20259030.81249  18887432.35649      1532.80100
 -24679609.49607  19185810.84807 -19215445.44048  19185809.12548       448.29700
 -11405136.36307  21109551.45707  -9149204.61347  21109548.64147       981.09100
  -3960212.54307  20145714.97307  -3077842.02048  20145711.59048      -781.86900
 -13731742.54706  20738015.00406 -10693960.55748  20738011.82848      3360.71800
  -6320817.38306  22870651.44106  -4915123.50747  22870648.92647        69.84000
 -17383498.36707  20655379.38707 -13520588.24548  20655375.30148      -744.49400
  -9768086.69906  21816374.16806  -7602533.05947  21816371.53147      3347.92800
   7966941.37505  22251846.47305   6206100.49247  22251844.57847     -2417.27000
 08 11 11  1  3 29.9960000  0  9  3  6 13 16 19 21 23 25 31
 -26046058.00407  18883085.00407 -20276837.28049  18883083.89849      1523.44200
 -24686206.17607  19184555.85607 -19220585.71148  19184553.89548       439.77900
 -11419689.55107  21106782.20707  -9160544.74947  21106779.13347       970.21200
  -3948436.38307  20147955.86307  -3068665.78748  20147952.94548      -785.07700
 -13782053.20706  20728440.98806 -10733163.66648  20728438.10248      3354.04400
  -6321736.97306  22870476.22306  -4915840.06746  22870474.25846        61.30600
 -17372185.60507  20657531.93407 -13511773.10548  20657527.82448      -754.18400
  -9818251.98806  21806828.37906  -7641622.88847  21806825.44947      3344.35300
   8003269.72306  22258759.83206   6234408.23747  22258758.12547     -2421.89000
 08 11 11  1  3 44.9960000  0  9  3  6 13 16 19 21 23 25 31
 -26068769.45707  18878763.49607 -20294534.51849  18878761.60649      1514.09700
 -24692675.23807  19183324.87907 -19225626.53248  19183322.73848       431.27100
 -11434079.44107  21104043.83207  -9171757.65647  21104040.75847       959.32600
  -3936612.16807  20150205.91807  -3059452.12948  20150203.07048      -788.28100
 -13832263.74606  20718886.33206 -10772288.75948  20718882.88348      3347.36900
  -6322528.64806  22870326.37106  -4916456.95747  22870323.30547        52.77800
 -17360727.63707  20659712.35607 -13502844.82448  20659708.83248      -763.86500
  -9868363.43806  21797292.29306  -7680670.74147  21797290.33247      3340.76300
   8039667.11706  22265686.24606   6262769.78047  22265684.12147     -2426.49300
 08 11 11  1  3 59.9960000  0  9  3  6 13 16 19 21 23 25 31
 -26091340.82807  18874468.23807 -20312122.59449  18874465.92249      1504.75800
 -24699017.00407  19182118.16807 -19230568.16048  19182116.10248       422.78400
 -11448306.21507  21101336.23107  -9182843.43647  21101333.55547       948.45200
  -3924739.90207  20152465.30907  -3050201.01148  20152462.60648      -791.48400
 -13882374.00006  20709350.41006 -10811335.71148  20709346.91048      3340.68400
  -6323192.56306  22870199.68406  -4916974.30647  22870196.98147        44.26100
 -17349124.71107  20661920.05907 -13493803.60148  20661916.76248      -773.52800
  -9918420.84806  21787766.75406  -7719676.52047  21787764.58647      3337.16100
   8076133.15206  22272625.31606   6291184.85747  22272622.99247     -2431.06900
 08 11 11  1  4 14.9960000  0  9  3  6 13 16 19 21 23 25 31
 -26113771.97307  18870199.84807 -20329601.40149  18870197.31649      1495.41000
 -24705231.64107  19180935.19107 -19235410.73548  19180933.35248       414.30900
 -11462369.85507  21098659.84007  -9193802.12147  21098657.21947       937.57600
  -3912819.91007  20154733.34807  -3040912.70148  20154730.62948      -794.66600
 -13932384.01206  20699833.87106 -10850304.54648  20699830.00048      3334.00100
  -6323728.84406  22870097.54306  -4917392.21847  22870094.32447        35.75200
 -17337377.28907  20664155.88707 -13484649.77048  20664151.98148      -783.16100
  -9968424.06306  21778251.57406  -7758640.05147  21778249.21147      3333.54800
   8112667.64106  22279577.66806   6319653.23847  22279575.79747     -2435.63300
 08 11 11  1  4 29.9960000  0  9  3  6 13 16 19 21 23 25 31
 -26136062.42607  18865958.37107 -20346970.58449  18865956.25849      1486.03000
 -24711318.64807  19179777.18407 -19240153.85448  19179775.10948       405.80100
 -11476269.70707  21096014.38707  -9204633.18047  21096012.02747       926.65700
  -3900851.48007  20157010.66807  -3031586.64848  20157007.52048      -797.89500
 -13982292.79306  20690336.00406 -10889194.50148  20690333.14848      3327.25200
  -6324136.87106  22870020.49606  -4917710.16047  22870016.93847        27.20200
 -17325485.05907  20666418.59807 -13475383.10648  20666414.84048      -792.81500
 -10018372.08606  21768746.46506  -7797560.56847  21768744.25847      3329.86800
   8149271.25006  22286542.78506   6348175.48747  22286541.10647     -2440.24100
 08 11 11  1  4 44.9960000  0  9  3  6 13 16 19 21 23 25 31
 -26158212.06307  18861743.14507 -20364230.05249  18861741.33249      1476.64200
 -24717277.96107  19178643.06607 -19244797.47848  19178640.97748       397.28800
 -11490005.67607  21093400.83207  -9215336.53047  21093398.61747       915.73100
  -3888834.48007  20159297.81607  -3022222.75648  20159293.93448      -801.13300
 -14032100.09006  20680858.49606 -10928005.37948  20680855.30148      3320.48600
  -6324416.41006  22869966.87906  -4917927.96147  22869964.00047        18.63600
 -17313448.03907  20668709.34807 -13466003.60748  20668705.62948      -802.46800
 -10068264.54706  21759252.81606  -7836437.81647  21759249.69547      3326.16400
   8185943.86306  22293521.36306   6376751.50247  22293519.18447     -2444.84100
 08 11 11  1  4 59.9960000  0  9  3  6 13 16 19 21 23 25 31
 -26180221.85207  18857554.85607 -20381380.52349  18857552.72349      1467.31900
 -24723110.66007  19177533.18407 -19249342.41548  19177531.17648       388.84700
 -11503578.75807  21090818.15207  -9225912.96047  21090815.72747       904.87200
  -3876769.99607  20161593.51207  -3012821.86148  20161590.07848      -804.29900
 -14081806.71506  20671400.15206 -10966737.81348  20671396.14148      3313.77500
  -6324568.46106  22869938.27006  -4918046.49146  22869935.03946        10.13700
 -17301267.34407  20671027.16007 -13456512.16248  20671023.04348      -812.04600
 -10118102.23406  21749768.29306  -7875272.34147  21749766.39547      3322.51200
   8222684.32406  22300512.88706   6405380.39247  22300510.42647     -2449.36400
 08 11 11  1  5 14.9960000  0  9  3  6 13 16 19 21 23 25 31
 -26202091.42207  18853393.35607 -20398421.74249  18853391.43049      1457.97100
 -24728816.70307  19176447.15207 -19253788.68248  19176445.46148       380.40300
 -11516988.48007  21088266.31607  -9236362.10047  21088263.92647       893.98200
  -3864657.76607  20163898.42607  -3003383.77848  20163895.16848      -807.48200
 -14131412.08606  20661960.08206 -11005391.34348  20661956.91048      3307.02500
  -6324592.67206  22869933.47306  -4918065.35447  22869930.76247         1.61400
 -17288943.06307  20673372.52007 -13446908.83448  20673368.30148      -821.61900
 -10167884.47306  21740295.20706  -7914063.69447  21740292.77047      3318.81600
   8259492.86706  22307517.11306   6434062.33547  22307514.12147     -2453.90300
 08 11 11  1  5 29.9960000  0  9  3  6 13 16 19 21 23 25 31
 -26223820.93408  18849258.02008 -20415353.82649  18849256.52749      1448.63400
 -24734396.09807  19175385.14507 -19258136.23848  19175383.58648       371.96000
 -11530234.97707  21085745.76207  -9246684.04048  21085743.00848       883.10000
  -3852497.92207  20166212.23107  -2993908.58048  20166208.87548      -810.65600
 -14180915.88307  20652540.36307 -11043965.71348  20652536.13348      3300.25300
  -6324489.16406  22869953.82406  -4917984.70547  22869949.77747        -6.90100
 -17276475.50807  20675744.82407 -13437193.86748  20675740.86748      -831.17000
 -10217611.00806  21730832.64506  -7952811.62147  21730830.26247      3315.10200
   8296369.20706  22314535.02706   6462797.12847  22314531.78147     -2458.42300
 08 11 11  1  5 44.9960000  0  9  3  6 13 16 19 21 23 25 31
 -26245410.37908  18845150.00408 -20432176.77049  18845148.46149      1439.29600
 -24739849.12107  19174347.87907 -19262385.35248  19174345.71548       363.53500
 -11543318.47307  21083256.44107  -9256878.99248  21083253.17248       872.23300
  -3840290.66407  20168535.46507  -2984396.43748  20168532.00448      -813.81700
 -14230318.18006  20643139.12906 -11082461.00148  20643135.24648      3293.48600
  -6324258.08606  22869997.54306  -4917804.65547  22869994.28547       -15.40500
 -17263865.13307  20678144.76207 -13427367.61548  20678140.61748      -840.69200
 -10267281.76206  21721380.21506  -7991516.10247  21721378.52747      3311.38400
   8333313.08606  22321565.04306   6491584.51247  22321561.50847     -2462.92500
 08 11 11  1  5 59.9960000  0  9  3  6 13 16 19 21 23 25 31
 -26266860.06307  18841067.96507 -20448890.79949  18841066.47749      1429.97900
 -24745176.10907  19173334.16007 -19266536.25348  19173331.68048       355.13300
 -11556239.03507  21080797.48807  -9266946.96447  21080794.65647       861.37100
  -3828036.10207  20170867.34807  -2974847.42348  20170864.27048      -816.97100
 -14279619.05106  20633757.62106 -11120877.26148  20633753.09448      3286.72500
  -6323899.68806  22870065.05106  -4917525.38447  22870062.07447       -23.89300
 -17251112.32007  20680571.57407 -13417430.35748  20680567.23848      -850.18800
 -10316896.66406  21711939.20706  -8030177.06047  21711937.06647      3307.66000
   8370324.02006  22328608.50406   6520424.17047  22328604.66047     -2467.39600
 08 11 11  1  6 14.9960000  0  9  3  6 13 16 19 21 23 25 31
 -26288169.84807  18837012.86307 -20465495.82949  18837011.10249      1420.65200
 -24750377.00007  19172344.76207 -19270588.89848  19172342.14548       346.72600
 -11568996.39807  21078369.62107  -9276887.75847  21078367.14147       850.49100
  -3815734.00407  20173208.33207  -2965261.38648  20173205.28548      -820.14000
 -14328817.93006  20624394.94906 -11159214.05648  20624390.86348      3279.92500
  -6323413.63306  22870158.05106  -4917146.64447  22870154.80947       -32.40400
 -17238217.12907  20683025.49607 -13407382.18048  20683022.04748      -859.67900
 -10366455.12506  21702508.75406  -8068794.03647  21702506.03947      3303.89700
   8407402.27706  22335664.34806   6549316.25947  22335661.14547     -2471.88400
 08 11 11  1  6 29.9960000  0  9  3  6 13 16 19 21 23 25 31
 -26309340.36707  18832984.19907 -20481992.32449  18832982.13349      1411.36800
 -24755452.64107  19171378.40207 -19274543.94048  19171376.16848       338.37600
 -11581591.35507  21075973.07407  -9286702.02047  21075970.29347       839.66400
  -3803385.49207  20175558.18407  -2955639.17448  20175554.90248      -823.23400
 -14377915.47707  20615052.20707 -11197471.88548  20615047.99648      3273.17000
  -6322800.69506  22870274.60606  -4916669.06447  22870271.46947       -40.86200
 -17225180.43007  20685506.02007 -13397223.70848  20685503.04348      -869.11300
 -10415957.60506  21693088.36306  -8107367.39747  21693086.34447      3300.16500
   8444546.99206  22342732.83206   6578260.17647  22342729.96547     -2476.31400
 08 11 11  1  6 44.9960000  0  9  3  6 13 16 19 21 23 25 31
 -26330370.87107  18828982.22307 -20498379.74649  18828980.13749      1402.03400
 -24760402.35507  19170436.59007 -19278400.86448  19170434.96148       329.98100
 -11594023.06607  21073607.16807  -9296389.05947  21073604.02047       828.78100
  -3790989.50407  20177916.98807  -2945979.97948  20177913.43848      -826.39900
 -14426910.62907  20605729.05907 -11235649.92448  20605724.45748      3266.34300
  -6322060.05906  22870415.21506  -4916091.92847  22870412.84047       -49.37600
 -17212001.83207  20688014.09807 -13386954.70448  20688009.90248      -878.57300
 -10465403.11306  21683679.05906  -8145896.36047  21683677.08647      3296.36700
   8481758.67607  22349813.80907   6607256.27347  22349811.62147     -2480.77900
 08 11 11  1  6 59.9960000  0  9  3  6 13 16 19 21 23 25 31
 -26351261.15207  18825007.13707 -20514657.87049  18825005.12549      1392.68500
 -24765226.14107  19169518.80107 -19282159.63948  19169516.64848       321.58600
 -11606291.48007  21071272.40207  -9305948.84447  21071269.78947       817.89400
  -3778545.92607  20180284.84807  -2936283.69248  20180281.81348      -829.57200
 -14475802.92607  20596424.94107 -11273747.81748  20596420.47348      3259.48600
  -6321191.64506  22870580.68406  -4915415.25246  22870578.14146       -57.89400
 -17198681.39107  20690548.44907 -13376575.13348  20690544.65648      -888.02900
 -10514791.22706  21674281.04306  -8184380.60547  21674278.52047      3292.54100
   8519037.27706  22356907.66006   6636304.47947  22356905.57047     -2485.24000
 08 11 11  1  7 14.9960000  0  9  3  6 13 16 19 21 23 25 31
 -26372012.51607  18821058.11307 -20530827.77549  18821056.63749      1383.42400
 -24769925.33607  19168624.42607 -19285821.34548  19168622.80148       313.28000
 -11618397.77307  21068968.92607  -9315382.35947  21068966.38347       807.08600
  -3766055.93007  20182661.81607  -2926551.22748  20182658.46548      -832.66600
 -14524593.40607  20587140.52707 -11311766.35848  20587135.75848      3252.69900
  -6320196.62506  22870770.03506  -4914639.94046  22870767.12546       -66.33500
 -17185220.46107  20693109.96507 -13366086.12548  20693106.07048      -897.39500
 -10564122.78506  21664893.12106  -8222820.78647  21664891.41047      3288.77100
   8556381.43806  22364014.30106   6665403.78647  22364011.85647     -2489.61100
 08 11 11  1  7 29.9960000  0  9  3  6 13 16 19 21 23 25 31
 -26392624.85907  18817135.78507 -20546889.33349  18817133.75449      1374.15600
 -24774499.86307  19167754.08207 -19289385.90948  19167751.75848       304.96800
 -11630341.89107  21066695.95707  -9324689.45447  21066693.13347       796.27400
  -3753519.72707  20185047.27007  -2916782.76048  20185043.81348      -835.74700
 -14573281.92606  20577875.22306 -11349705.46048  20577870.50048      3245.90100
  -6319074.99606  22870983.04306  -4913765.93047  22870980.35647       -74.77500
 -17171619.43007  20695698.15207 -13355487.93248  20695694.73848      -906.73500
 -10613397.47305  21655516.55905  -8261216.62847  21655514.68847      3284.97900
   8593791.08606  22371133.09806   6694554.13747  22371130.93047     -2493.97700
 08 11 11  1  7 44.9960000  0  9  3  6 13 16 19 21 23 25 31
 -26413097.25407  18813240.27007 -20562841.85049  18813237.93049      1364.82600
 -24778949.25807  19166907.14507 -19292852.96048  19166905.03148       296.62600
 -11642123.02307  21064454.02707  -9333869.58247  21064451.37147       785.40900
  -3740936.39807  20187441.87107  -2906977.58348  20187438.37548      -838.88900
 -14621867.34406  20568629.52706 -11387564.21648  20568625.25848      3239.02800
  -6317825.99606  22871220.84006  -4912792.70446  22871218.09846       -83.26700
 -17157877.74207  20698313.59007 -13344780.14148  20698309.63348      -916.11200
 -10662614.21505  21646150.53505  -8299567.33647  21646148.74647      3281.11600
   8631266.96906  22378264.39506   6723756.08247  22378262.56347     -2498.39200
 08 11 11  1  7 59.9960000  0  9  3  6 13 16 19 21 23 25 31
 -26433430.08207  18809370.87107 -20578685.60049  18809368.81649      1355.52200
 -24783273.88307  19166084.37107 -19296222.79048  19166082.08648       288.30800
 -11653741.40207  21062243.05907  -9342922.85047  21062240.48847       774.55900
  -3728306.36707  20189845.30907  -2897135.99648  20189841.91848      -842.00200
 -14670349.84806  20559403.67606 -11425342.77248  20559399.48148      3232.16700
  -6316449.91806  22871483.32406  -4911720.43047  22871481.03147       -91.73900
 -17143995.95707  20700954.87907 -13333963.15548  20700950.47348      -925.45200
 -10711773.15206  21636796.13706  -8337872.98247  21636793.54747      3277.26200
   8668808.52706  22385408.41806   6753009.20147  22385406.16847     -2502.77100
 08 11 11  1  8 14.9960000  0  9  3  6 13 16 19 21 23 25 31
 -26453624.04707  18805528.13707 -20594421.15449  18805525.90249      1346.26400
 -24787474.27007  19165285.02007 -19299495.82348  19165282.89848       280.02600
 -11665197.49207  21060062.84807  -9351849.67247  21060060.48147       763.73900
  -3715630.07807  20192257.37907  -2887258.37548  20192254.09848      -845.08600
 -14718729.61706  20550197.27006 -11463041.28648  20550192.85948      3225.31800
  -6314947.23006  22871769.01206  -4910549.51247  22871767.64147      -100.17900
 -17129974.92607  20703623.42607 -13323037.69148  20703618.67648      -934.73500
 -10760874.32406  21627452.60606  -8376133.64847  21627450.32447      3273.41100
   8706415.23406  22392565.02006   6782313.07547  22392561.91047     -2507.11400
 08 11 11  1  8 29.9960000  0  9  3  6 13 16 19 21 23 25 31
 -26473678.92207  18801711.66007 -20610048.31549  18801709.78149      1336.99200
 -24791550.67206  19164509.64506 -19302672.24648  19164507.17648       271.76000
 -11676491.45307  21057913.62907  -9360650.16547  21057911.22347       752.93100
  -3702907.70307  20194678.43407  -2877344.84248  20194675.35648      -848.15800
 -14767006.58606  20541010.48106 -11500659.68148  20541005.88348      3218.46500
  -6313318.05106  22872079.17606  -4909280.04147  22872077.76647      -108.61200
 -17115814.82407  20706317.35607 -13312003.86148  20706313.50848      -944.00700
 -10809917.52006  21618120.00406  -8414349.11447  21618117.88747      3269.54600
   8744086.66006  22399732.90206   6811667.41447  22399730.75447     -2511.42800
 08 11 11  1  8 44.9960000  0  9  3  6 13 16 19 21 23 25 31
 -26493594.65607  18797922.03507 -20625567.07749  18797919.74649      1327.71600
 -24795503.10206  19163757.59006 -19305752.05448  19163755.11348       263.49500
 -11687623.23407  21055795.55907  -9369324.27947  21055793.25447       742.11900
  -3690139.13307  20197108.17607  -2867395.31248  20197105.40248      -851.23800
 -14815180.46106  20531843.36306 -11538197.76948  20531839.05548      3211.59200
  -6311562.24206  22872413.09006  -4907911.88746  22872411.22346      -117.05400
 -17101515.78507  20709039.06607 -13300861.76548  20709034.74648      -953.26900
 -10858902.41406  21608798.66006  -8452519.15547  21608796.36747      3265.66000
   8781822.90606  22406913.74606   6841072.25147  22406911.77747     -2515.75000
 08 11 11  1  8 59.9960000  0  9  3  6 13 16 19 21 23 25 31
 -26513372.25807  18794158.39507 -20640978.19449  18794156.34449      1318.50700
 -24799332.45707  19163028.49607 -19308735.97048  19163026.07048       255.29000
 -11698593.28507  21053707.76207  -9377872.36447  21053705.95747       731.33700
  -3677325.07807  20199546.74607  -2857410.34748  20199544.11348      -854.27000
 -14863251.69506  20522695.69906 -11575655.86948  20522691.71948      3204.74900
  -6309680.54706  22872771.95706  -4906445.61546  22872767.83246      -125.44600
 -17087078.84807  20711786.08207 -13289612.21148  20711781.10948      -962.46200
 -10907829.39106  21599488.13706  -8490644.06547  21599485.77347      3261.79800
   8819623.07806  22414107.73806   6870526.86947  22414105.66847     -2520.01100
 08 11 11  1  9 14.9960000  0  9  3  6 13 16 19 21 23 25 31
 -26533010.66007  18790421.06607 -20656280.84549  18790419.17649      1309.22700
 -24803038.27007  19162323.59007 -19311623.60048  19162321.18448       247.05400
 -11709401.33607  21051651.27707  -9386294.24947  21051648.76647       720.53700
  -3664465.00007  20201993.76207  -2847389.51448  20201990.98148      -857.33900
 -14911219.55106  20513567.41806 -11613033.40948  20513563.82048      3197.85700
  -6307672.43406  22873153.78506  -4904880.83247  22873150.14147      -133.87400
 -17072503.65207  20714559.80107 -13278254.91648  20714554.73848      -971.68000
 -10956697.57405  21590189.16805  -8528723.16747  21590186.55147      3257.87900
   8857487.67606  22421312.76206   6900031.76447  22421310.77747     -2524.30700
 08 11 11  1  9 29.9960000  0 10  3  6  7 13 16 19 21 23 25 31
 -26552510.82407  18786710.77707 -20671475.76249  18786708.18449      1300.01100
 -24806621.28507  19161641.45707 -19314415.56148  19161639.54348       238.86800
   -144926.44912  23053689.66002         0.00000         0.00000      3957.75000
 -11720047.91807  21049625.38707  -9394590.26747  21049622.85647       709.77200
  -3651559.67607  20204449.82407  -2837333.43248  20204446.36748      -860.35500
 -14959084.40206  20504458.76206 -11650330.68548  20504455.48148      3190.99000
  -6305538.52306  22873559.91006  -4903218.03847  22873556.34847      -142.26100
 -17057791.21507  20717359.82407 -13266790.68348  20717354.79748      -980.82900
 -11005507.33606  21580900.71506  -8566756.73247  21580898.16847      3253.98400
   8895415.82006  22428529.72306   6929586.11347  22428528.54747     -2528.54300
 08 11 11  1  9 44.9960000  0 10  3  6  7 13 16 19 21 23 25 31
 -26571873.35507  18783026.18407 -20686563.45049  18783023.47349      1290.83500
 -24810082.20306  19160983.00406 -19317112.37848  19160981.09048       230.72800
   -204283.87102  23042394.27702         0.00000         0.00000      3957.16100
 -11730533.62107  21047630.66807  -9402760.95747  21047627.52747       699.04700
  -3638609.66007  20206914.41007  -2827242.52248  20206910.12148      -863.33400
 -15006846.76606  20495370.40206 -11687548.10248  20495366.65248      3184.15800
  -6303279.50406  22873989.23806  -4901457.79547  22873986.78947      -150.60100
 -17042942.41807  20720185.43407 -13255220.22048  20720180.73848      -989.92000
 -11054259.03106  21571623.66006  -8604745.04247  21571621.39847      3250.11300
   8933406.71906  22435759.53506   6959189.34047  22435757.69947     -2532.72700
 08 11 11  1  9 59.9960000  0 10  3  6  7 13 16 19 21 23 25 31
 -26591098.35507  18779367.69107 -20701543.96649  18779365.15249      1281.66700
 -24813421.26607  19160347.60607 -19319714.24348  19160345.52348       222.60400
   -263620.02701  23031103.79301         0.00000         0.00000      3955.74400
 -11740858.55507  21045665.87907  -9410806.35547  21045662.86747       688.32900
  -3625614.98807  20209386.99607  -2817116.79148  20209383.28548      -866.31100
 -15054506.48006  20486301.01206 -11724685.53448  20486297.43448      3177.31400
  -6300895.61706  22874442.59806  -4899600.22346  22874440.44546      -158.92600
 -17027957.66007  20723037.27007 -13243543.79148  20723031.85648      -998.98400
 -11102952.45706  21562357.58206  -8642687.99047  21562355.52347      3246.22800
   8971460.12106  22443000.94906   6988841.32047  22442998.37147     -2536.89300
 08 11 11  1 10 14.9960000  0 10  3  6  7 13 16 19 21 23 25 31
 -26610186.46107  18775735.37907 -20716417.82149  18775732.99649      1272.54000
 -24816639.25406  19159735.12106 -19322221.77048  19159733.13748       214.53300
   -322935.36302  23019816.98102         0.00000         0.00000      3954.35600
 -11751023.53907  21043731.22307  -9418727.12647  21043728.41047       677.66600
  -3612576.40207  20211868.07407  -2806956.85748  20211864.73848      -869.23900
 -15102064.02006  20477251.19106 -11761743.34048  20477247.77748      3170.50300
  -6298387.41806  22874920.19106  -4897645.79747  22874918.51247      -167.21300
 -17012837.66407  20725914.27707 -13231761.98048  20725908.84848     -1008.00000
 -11151587.97306  21553102.98106  -8680585.78247  21553100.70347      3242.36800
   9009575.25806  22450254.12906   7018541.42047  22450251.55547     -2541.00900
 08 11 11  1 10 29.9960000  0 10  3  6  7 13 16 19 21 23 25 31
 -26629137.06307  18772129.14507 -20731184.52149  18772127.06649      1263.37300
 -24819735.61707  19159146.02707 -19324634.50848  19159143.56348       206.42400
   -382228.92611  23008534.16801         0.00000         0.00000      3952.96800
 -11761027.73407  21041827.25407  -9426522.59547  21041824.96947       666.94600
  -3599493.34406  20214357.42606  -2796762.27348  20214354.64148      -872.20400
 -15149518.46106  20468221.02006 -11798720.84148  20468217.49248      3163.62900
  -6295754.10906  22875421.01206  -4895593.89547  22875419.05147      -175.55400
 -16997582.02307  20728817.19107 -13219874.48148  20728812.21548     -1017.04300
 -11200164.49606  21543858.75406  -8718437.60747  21543856.39147      3238.43500
   9047752.71906  22457518.98106   7048290.02347  22457516.72747     -2545.16400
 08 11 11  1 10 44.9960000  0 10  3  6  7 13 16 19 21 23 25 31
 -26647949.43407  18768548.97307 -20745843.50649  18768547.38349      1254.15800
 -24822709.65206  19158579.77706 -19326951.93048  19158577.94948       198.26900
   -441499.62901  22997256.62101         0.00000         0.00000      3951.38000
 -11770870.33607  21039954.52007  -9434192.16347  21039952.21147       656.17300
  -3586364.92607  20216856.16007  -2786532.35648  20216852.95348      -875.22800
 -15196868.76206  20459210.54306 -11835617.17348  20459207.09448      3156.68700
  -6292994.95706  22875946.77006  -4893443.90547  22875943.40647      -183.94300
 -16982190.38707  20731745.97307 -13207881.02148  20731741.21148     -1026.10900
 -11248681.03506  21534625.91806  -8756242.69947  21534623.87947      3234.43600
   9085993.20706  22464796.12106   7078087.74847  22464794.19147     -2549.36600
 08 11 11  1 10 59.9960000  0 10  3  6  7 13 16 19 21 23 25 31
 -26666623.53107  18764995.43407 -20760394.73049  18764993.71149      1244.94000
 -24825561.41007  19158037.23107 -19329174.07248  19158035.46948       190.11700
         0.00000  22985981.01201         0.00000         0.00000         0.00000
 -11780551.37907  21038112.09007  -9441735.82247  21038110.06647       645.40300
  -3573191.01607  20219362.94907  -2776266.97448  20219359.66448      -878.26100
 -15244114.67606  20450219.86306 -11872432.15848  20450216.56648      3149.72800
  -6290109.91806  22876495.90206  -4891195.81646  22876492.42646      -192.33600
 -16966662.87507  20734700.90207 -13195781.66548  20734696.08648     -1035.16700
 -11297137.11306  21525405.56606  -8794000.67247  21525402.93047      3230.40500
   9124296.42206  22472085.16806   7107934.35647  22472082.94147     -2553.54800
 08 11 11  1 11 14.9960000  0 10  3  6  7 13 16 19 21 23 25 31
 -26685158.77007  18761468.18407 -20774837.76349  18761466.48149      1235.68300
 -24828290.66406  19157517.90206 -19331300.77048  19157516.23448       181.95000
         0.00000  22974711.39501         0.00000         0.00000         0.00000
 -11790070.33607  21036300.55907  -9449153.19247  21036298.52347       634.59700
  -3559971.26206  20221878.32406  -2765965.88248  20221875.32048      -881.31700
 -15291255.63306  20441248.95706 -11909165.35948  20441246.18448      3142.73000
  -6287098.60206  22877068.57406  -4888849.35047  22877065.92247      -200.75400
 -16950999.39107  20737681.69107 -13183576.36248  20737677.17648     -1044.23200
 -11345532.03906  21516196.37906  -8831711.01447  21516193.86347      3226.32800
   9162662.82406  22479386.01206   7137830.20847  22479383.58647     -2557.76000
 08 11 11  1 11 29.9960000  0 10  3  6  7 13 16 19 21 23 25 31
 -26703554.34407  18757967.90207 -20789171.97449  18757965.68449      1226.37200
 -24830896.64806  19157021.87106 -19333331.40348  19157020.16048       173.73200
         0.00000  22963446.52701         0.00000         0.00000         0.00000
 -11799426.44507  21034520.56607  -9456443.68247  21034517.91047       623.74100
  -3546704.90207  20224402.77007  -2755628.45048  20224399.74648      -884.42400
 -15338290.49606  20432298.87906 -11945815.89548  20432295.23448      3135.65800
  -6283959.93406  22877665.59006  -4886403.64946  22877663.75046      -209.24500
 -16935199.13707  20740688.05907 -13171264.48548  20740683.77048     -1053.35000
 -11393864.72706  21506998.38706  -8869372.83047  21506996.60947      3222.17900
   9201093.14506  22486699.15206   7167775.86947  22486696.57047     -2562.02100
 08 11 11  1 11 44.9960000  0 10  3  6  7 13 16 19 21 23 25 31
 -26721810.62507  18754494.10607 -20803397.64749  18754491.75049      1217.08500
 -24833379.79706  19156549.18406 -19335266.33048  19156547.74248       165.54300
   -678342.72311  22952184.98801         0.00000         0.00000      3944.01600
 -11808620.08607  21032771.29307  -9463607.55347  21032768.19547       612.90900
  -3533392.13307  20226936.24607  -2745254.87948  20226933.51648      -887.51800
 -15385219.36706  20423368.59806 -11982383.83648  20423365.10948      3128.59100
  -6280694.51606  22878287.09006  -4883859.15746  22878285.81646      -217.69500
 -16919262.73007  20743720.34007 -13158846.51248  20743716.34448     -1062.42700
 -11442135.13306  21497812.77006  -8906986.12648  21497810.79348      3218.02700
   9239586.78106  22494024.50406   7197770.85947  22494021.41847     -2566.24200
 08 11 11  1 11 59.9960000  0 10  3  6  7 13 16 19 21 23 25 31
 -26739927.57407  18751046.46507 -20817514.75449  18751044.07449      1207.79700
 -24835740.20306  19156100.30906 -19337105.60348  19156098.10648       157.36000
         0.00000  22940929.77701         0.00000         0.00000         0.00000
 -11817651.12907  21031052.27707  -9470644.73347  21031049.61747       602.07000
  -3520032.98007  20229478.23807  -2734845.14248  20229475.85648      -890.61000
 -15432042.18006  20414458.59006 -12018869.12448  20414455.31348      3121.52100
  -6277302.33206  22878932.94906  -4881215.92847  22878930.87147      -226.14600
 -16903190.54307  20746779.06607 -13146322.75548  20746775.01248     -1071.47900
 -11490342.98406  21488639.27006  -8944550.66848  21488637.31348      3213.85700
   9278143.55106  22501360.98106   7227815.04547  22501358.44947     -2570.45100
 08 11 11  1 12 14.9960000  0 10  3  6  7 13 16 19 21 23 25 31
 -26757905.28507  18747625.09807 -20831523.36049  18747623.29749      1198.51400
 -24837978.03106  19155674.52706 -19338849.36748  19155672.39848       149.18900
   -796613.52711  22929679.41801         0.00000         0.00000      3940.59400
 -11826519.72707  21029365.27707  -9477555.30947  21029361.57047       591.24000
  -3506627.44507  20232029.60607  -2724399.30348  20232026.49248      -893.70200
 -15478758.62106  20405568.54306 -12055271.53248  20405565.87148      3114.42900
  -6273783.48806  22879602.38706  -4878473.97046  22879599.21946      -234.59000
 -16886982.89107  20749863.07407 -13133693.42848  20749859.58248     -1080.51000
 -11538488.02706  21479477.74606  -8982066.29748  21479475.19548      3209.67000
   9316763.21106  22508710.88706   7257908.25147  22508707.90247     -2574.64400
 08 11 11  1 12 29.9960000  0 10  3  6  7 13 16 19 21 23 25 31
 -26775743.41006  18744230.45706 -20845423.18749  18744228.48149      1189.20800
 -24840093.24206  19155271.83206 -19340497.56548  19155269.56348       141.01400
   -855710.04311  22918436.30901         0.00000         0.00000         0.00000
 -11835225.59007  21027707.86307  -9484339.08847  21027704.83647       580.39100
  -3493175.48807  20234589.73107  -2713917.25948  20234586.48448      -896.79700
 -15525368.22706  20396698.63706 -12091590.70548  20396695.71548      3107.30700
  -6270137.60906  22880296.43406  -4875633.02946  22880292.91046      -243.05900
 -16870639.89807  20752973.45707 -13120958.63948  20752969.66848     -1089.53300
 -11586569.65206  21470328.08206  -9019532.49048  21470325.75048      3205.44200
   9355446.04706  22516071.77006   7288050.68147  22516069.28947     -2578.85600
 08 11 11  1 12 44.9960000  0 10  3  6  7 13 16 19 21 23 25 31
 -26793441.95307  18740862.87107 -20859214.25649  18740860.80949      1179.90300
 -24842085.82006  19154892.80906 -19342050.23548  19154890.69148       132.83900
   -914780.35201  22907192.14501         0.00000         0.00000      3938.02100
 -11843768.71107  21026082.30907  -9490996.06347  21026079.37547       569.54100
  -3479677.00007  20237158.26207  -2703398.95248  20237154.88348      -899.89900
 -15571870.78506  20387849.63706 -12127826.45348  20387846.36348      3100.17100
  -6266364.68406  22881014.05106  -4872693.14746  22881010.30146      -251.52800
 -16854161.63307  20756108.86307 -13108118.45348  20756105.29348     -1098.55100
 -11634587.52306  21461190.58206  -9056948.99448  21461188.51648      3201.19100
   9394192.01206  22523444.73806   7318242.29247  22523442.66047     -2583.06400
 08 11 11  1 12 59.9960000  0 10  3  6  7 13 16 19 21 23 25 31
 -26811000.66007  18737521.35607 -20872896.35549  18737519.57049      1170.58000
 -24843955.49206  19154536.87906 -19343507.11748  19154535.21148       124.64500
   -973823.38302  22895956.94102         0.00000         0.00000      3936.20200
 -11852148.70707  21024487.53507  -9497525.93447  21024485.21547       558.66600
  -3466131.52706  20239735.78506  -2692844.04448  20239732.08248      -903.03200
 -15618265.53106  20379021.13706 -12163978.18948  20379017.57448      3092.98300
  -6262464.33206  22881756.42606  -4869653.87746  22881753.14546      -260.02300
 -16837547.91807  20759270.58207 -13095172.70648  20759266.81648     -1107.58100
 -11682540.84006  21452065.68406  -9094315.20348  21452063.65648      3196.88800
   9433001.28906  22530830.02006   7348483.24947  22530828.11347     -2587.28500
 08 11 11  1 13 14.9960000  0 10  3  6  7 13 16 19 21 23 25 31
 -26828419.59807  18734206.84007 -20886469.55149  18734204.54749      1161.26300
 -24845702.71906  19154204.41006 -19344868.58548  19154202.40648       116.48200
  -1032839.30501  22884725.48101         0.00000         0.00000      3934.39500
 -11860365.92207  21022923.69107  -9503928.95647  21022921.09847       547.81400
  -3452539.41806  20242322.18406  -2682252.78748  20242318.77748      -906.14100
 -15664552.63307  20370213.32407 -12200046.04148  20370209.56348      3085.80700
  -6258437.00406  22882522.77006  -4866515.71146  22882520.51246      -268.48900
 -16820799.29307  20762457.64507 -13082121.85448  20762453.98848     -1116.57500
 -11730429.73406  21442952.59006  -9131631.20348  21442951.03948      3192.59300
   9471873.37506  22538227.23806   7378773.14247  22538225.53147     -2591.47200
 08 11 11  1 13 29.9960000  0 10  3  6  7 13 16 19 21 23 25 31
 -26845699.21907  18730918.62907 -20899934.19849  18730916.32849      1151.97500
 -24847327.77306  19153895.01206 -19346134.86548  19153892.84848       108.33700
  -1091827.96102  22873501.00402         0.00000         0.00000      3932.57700
 -11868420.56607  21021391.32407  -9510205.30847  21021388.67647       536.97600
  -3438900.89506  20244917.41806  -2671625.36948  20244913.94948      -909.23500
 -15710732.27707  20361425.48807 -12236030.18048  20361422.25048      3078.64300
  -6254282.92206  22883312.87106  -4863278.70646  22883310.73446      -276.93900
 -16803916.41007  20765670.34807 -13068966.36648  20765666.74248     -1125.52600
 -11778254.05506  21433851.91806  -9168896.90648  21433849.69148      3188.28800
   9510807.94106  22545636.44106   7409111.69847  22545634.14847     -2595.63800
 08 11 11  1 13 44.9960000  0 10  3  6  7 13 16 19 21 23 25 31
 -26862839.77007  18727656.96507 -20913290.46849  18727654.86749      1142.70300
 -24848831.21507  19153609.42607 -19347306.37148  19153606.91848       100.22900
  -1150789.36702  22862281.16002         0.00000         0.00000      3930.76000
 -11876313.00407  21019889.16807  -9516355.26847  21019887.27047       526.16300
  -3425216.26207  20247521.80107  -2660962.03148  20247518.35248      -912.30900
 -15756804.53506  20352658.66006 -12271930.63648  20352655.07448      3071.48400
  -6250002.37106  22884126.69906  -4859943.25546  22884124.96146      -285.37000
 -16786899.75807  20768908.34007 -13055706.64048  20768904.64548     -1134.44300
 -11826013.90606  21424763.05106  -9206112.34348  21424761.62948      3183.99000
   9549804.46906  22553056.85606   7439498.56447  22553055.40247     -2599.76800
 08 11 11  1 13 59.9960000  0 10  3  6  7 13 16 19 21 23 25 31
 -26879841.19107  18724421.61307 -20926538.33149  18724419.14849      1133.42800
 -24850213.08207  19153346.60607 -19348383.15548  19153344.12548        92.12400
  -1209723.21902  22851065.98802   -922231.98055  22851063.27745      3928.92300
 -11884043.27707  21018418.00407  -9522378.87547  21018416.43047       515.35200
  -3411485.43406  20250134.61306  -2650262.70748  20250131.25448      -915.38900
 -15802769.18806  20343911.23106 -12307747.23848  20343907.72748      3064.31000
  -6245595.33206  22884966.00406  -4856509.18246  22884962.19946      -293.80300
 -16769749.64507  20772171.90207 -13042342.93148  20772168.15248     -1143.34100
 -11873708.83206  21415687.66006  -9243277.21648  21415685.27048      3179.66200
   9588862.87106  22560489.27006   7469933.63147  22560487.89847     -2603.89300
 08 11 11  1 14 14.9960000  0 10  3  6  7 13 16 19 21 23 25 31
 -26896703.73007  18721212.69107 -20939677.97149  18721210.90249      1124.16900
 -24851473.53907  19153106.31607 -19349365.32448  19153104.00848        84.03000
  -1268629.29303  22839857.91003   -968132.84445  22839853.75045      3927.07200
 -11891611.59407  21016977.77707  -9528276.26647  21016975.94147       504.55400
  -3397708.48806  20252756.05906  -2639527.43048  20252753.00048      -918.46300
 -15848625.89106  20335185.16006 -12343479.71948  20335182.02748      3057.11400
  -6241061.91406  22885829.17606  -4852976.65746  22885824.98446      -302.22800
 -16752466.50807  20775461.07407 -13028875.55148  20775456.77748     -1152.20900
 -11921338.64806  21406623.44106  -9280391.33648  21406621.24648      3175.32100
   9627982.94506  22567933.90206   7500416.77647  22567932.03547     -2608.00500
 08 11 11  1 14 29.9960000  0 10  3  6  7 13 16 19 21 23 25 31
 -26913427.04707  18718030.35607 -20952709.12549  18718028.71549      1114.88800
 -24852612.48006  19152889.66806 -19350252.81948  19152887.55948        75.92900
  -1327507.19504  22828653.41804  -1014011.68045  22828649.62945      3925.19300
 -11899017.45707  21015568.38707  -9534047.05447  21015566.03547       493.72400
  -3383885.27706  20255386.74606  -2628756.07148  20255383.44548      -921.54700
 -15894374.26206  20326479.41806 -12379127.78248  20326475.86348      3049.89100
  -6236401.82806  22886715.82406  -4849345.40646  22886711.53546      -310.67200
 -16735050.23807  20778775.12107 -13015304.46048  20778771.37948     -1161.08500
 -11968902.69907  21397572.14507  -9317454.21148  21397569.29748      3170.93700
   9667164.86706  22575389.72306   7530948.10647  22575388.69547     -2612.12800
 08 11 11  1 14 44.9960000  0 10  3  6  7 13 16 19 21 23 25 31
 -26930011.36307  18714874.38707 -20965631.97049  18714873.16049      1105.62100
 -24853630.38306  19152695.84806 -19351045.97648  19152693.42648        67.86000
  -1386356.83604  22817454.02004  -1059868.53145  22817450.26645      3923.30900
 -11906261.12907  21014189.98807  -9539691.48247  21014187.73447       482.91100
  -3370016.07006  20258025.60606  -2617948.90048  20258022.43048      -924.61400
 -15940014.39806  20317794.61306 -12414691.52248  20317790.91848      3042.67600
  -6231615.41406  22887626.66806  -4845615.72846  22887623.33246      -319.09400
 -16717501.36707  20782114.59807 -13001630.02448  20782111.38348     -1169.92500
 -12016401.03506  21388533.47306  -9354465.90347  21388530.63347      3166.55600
   9706408.18006  22582857.87106   7561527.27047  22582856.76247     -2616.22100
