     2              OBSERVATION DATA                        RINEX VERSION / TYPE
DAT2RINW 3.10 001   국토지리정보원      11NOV08 21:23:51    PGM / RUN BY / DATE 
(주)범아엔지니어링  국토지리정보원                          OBSERVER / AGENCY   
220189013           TRIMBLE4700         Nav 1.30 Sig 0.00   REC # / TYPE / VERS 
080097092           TRM22020.00-GP                          ANT # / TYPE        
----------------------------------------------------------- COMMENT             
Offset from BOTTOM OF ANTENNA to PHASE CENTER is  62.5 mm   COMMENT             
----------------------------------------------------------- COMMENT             
0461                                                        MARKER NAME         
0461                                                        MARKER NUMBER       
 -3096079.5735  4079482.0289  3789084.0162                  APPROX POSITION XYZ 
        1.1018        0.0000        0.0000                  ANTENNA: DELTA H/E/N
*** Above antenna height is from mark to BOTTOM OF ANTENNA. COMMENT             
----------------------------------------------------------- COMMENT             
Note: The above offsets are CORRECTED.                      COMMENT             
Raw Offsets: H=      1.1610 E=      0.0000 N=      0.0000   COMMENT             
----------------------------------------------------------- COMMENT             
     1     1     0                                          WAVELENGTH FACT L1/2
     5    L1    C1    L2    P2    D1                        # / TYPES OF OBSERV 
    15                                                      INTERVAL            
  2008    11    10    23     3   30.000000                  TIME OF FIRST OBS   
  2008    11    11     7    40   15.000000                  TIME OF LAST OBS    
    20                                                      # OF SATELLITES     
     3  1365  1365  1365  1365  1365                        PRN / # OF OBS      
     4   286   286   286   286   286                        PRN / # OF OBS      
     6  1219  1219  1219  1219  1219                        PRN / # OF OBS      
     7  1042  1042  1042  1042  1042                        PRN / # OF OBS      
     8   889   889   889   889   889                        PRN / # OF OBS      
    11  1261  1261  1261  1261  1261                        PRN / # OF OBS      
    13   744   744   744   744   744                        PRN / # OF OBS      
    14    60    60    60    60    60                        PRN / # OF OBS      
    16  1016  1016  1016  1016  1016                        PRN / # OF OBS      
    17   616   616   616   616   616                        PRN / # OF OBS      
    19  1468  1468  1468  1468  1468                        PRN / # OF OBS      
    20   688   688   688   688   688                        PRN / # OF OBS      
    21   447   447   447   447   447                        PRN / # OF OBS      
    23   803   803   803   803   803                        PRN / # OF OBS      
    25  1146  1146  1146  1146  1146                        PRN / # OF OBS      
    27  1011  1011  1011  1011  1011                        PRN / # OF OBS      
    28   871   871   871   871   871                        PRN / # OF OBS      
    29   125   125   125   125   125                        PRN / # OF OBS      
    31   539   539   539   539   539                        PRN / # OF OBS      
    32   791   791   791   791   791                        PRN / # OF OBS      
                                                            END OF HEADER       
 08 11 10 23 29 59.9990000  0  6  3  6 16 23 29 31
  -7935075.90707  22280475.48707  -6154684.59948  22280471.82348      4706.04700
  -6798407.58507  21473604.08107  -5279166.08948  21473601.18748      3887.43800
  -2411296.20007  20179616.64407  -1875509.96349  20179611.75349      1167.87500
  -6232814.36807  22042443.62007  -4839690.39648  22042437.74948      3436.90600
   2743814.46203  23885086.11203   2127534.20746  23885082.31546     -1982.60900
   -508555.79207  20860041.61207   -397911.72849  20860036.95249        25.50000
 08 11 10 23 30 14.9990000  0  6  3  6 16 23 29 31
  -8005636.53707  22267048.58907  -6209666.90848  22267044.98348      4701.79700
  -6856674.91707  21462516.16707  -5324569.20248  21462513.18348      3881.39100
  -2428775.39807  20176290.55807  -1889130.11849  20176285.80449      1162.46900
  -6284308.66007  22032644.55807  -4879815.82048  22032638.71448      3428.82800
   2773585.56504  23890751.40904   2150732.47146  23890748.37046     -1987.01600
   -508900.04807  20859976.60407   -398179.98949  20859971.09749        20.18800
 08 11 10 23 30 29.9990000  0  6  3  6 16 23 29 31
  -8076131.12306  22253633.62806  -6264597.74748  22253630.17148      4697.60900
  -6914847.54807  21451446.49507  -5369898.53048  21451443.06948      3875.15600
  -2446170.11007  20172980.40907  -1902684.44049  20172976.31249      1157.03100
  -6335678.62307  22022869.10407  -4919844.34948  22022862.39748      3420.68800
   2803426.26404  23896429.90104   2173984.91046  23896427.50746     -1991.43800
   -509161.17707  20859926.05807   -398383.46849  20859921.31949        14.81300
 08 11 10 23 30 44.9990000  0  6  3  6 16 23 29 31
  -8146559.66407  22240231.38607  -6319477.11948  22240228.53448      4693.23400
  -6972925.75207  21440394.53407  -5415154.27748  21440390.87848      3868.84400
  -2463480.90407  20169686.15107  -1916173.38349  20169681.83949      1151.35900
  -6386924.29207  22013117.29207  -4959776.03148  22013110.51148      3412.35900
   2833335.91904  23902120.84704   2197291.18046  23902118.86246     -1996.10900
   -509339.55607  20859892.39407   -398522.47649  20859887.42149         9.31300
 08 11 10 23 30 59.9990000  0  6  3  6 16 23 29 31
  -8216923.85906  22226841.15906  -6374306.36548  22226838.56948      4688.92200
  -7030911.00007  21429360.19807  -5460337.58848  21429357.10848      3862.67200
  -2480709.68408  20166407.69808  -1929598.39749  20166402.58949      1145.96900
  -6438047.16907  22003388.54207  -4999612.03448  22003381.85848      3404.21900
   2863312.35103  23907826.44003   2220649.40746  23907823.51546     -2000.50000
   -509436.90807  20859874.06507   -398598.33949  20859869.04249         3.92200
 08 11 10 23 31 14.9990000  0  6  3  6 16 23 29 31
  -8287221.70306  22213463.94806  -6429083.88648  22213461.33148      4684.20300
  -7088801.56907  21418344.30807  -5505447.12548  21418340.93348      3856.09400
  -2497855.06107  20163144.92507  -1942958.43549  20163139.92949      1140.09400
  -6489045.40207  21993683.93307  -5039350.93148  21993677.99948      3395.54700
   2893356.88002  23913543.08902   2244060.70346  23913541.20646     -2005.29700
   -509451.50407  20859871.55807   -398609.71449  20859866.37049        -1.85900
 08 11 10 23 31 29.9990000  0  6  3  6 16 23 29 31
  -8357454.23407  22200099.56507  -6483810.54348  22200096.39048      4679.68800
  -7146598.42407  21407346.20607  -5550483.62148  21407343.09348      3849.81300
  -2514918.58707  20159897.73707  -1956254.69149  20159893.41349      1134.64100
  -6539920.18207  21984002.97907  -5078993.60248  21983997.63248      3387.35900
   2923467.65601  23919272.65901   2267523.67346  23919271.14446     -2009.75000
   -509384.86307  20859884.36207   -398557.79549  20859879.19049        -7.34400
 08 11 10 23 31 44.9990000  0  6  3  6 16 23 29 31
  -8427620.23107  22186747.14407  -6538485.34248  22186743.87448      4675.45300
  -7204300.28907  21396366.03407  -5595446.10848  21396362.26148      3843.56300
  -2531899.27707  20156666.72907  -1969486.40949  20156662.22949      1129.20300
  -6590670.05207  21974346.08107  -5118538.96948  21974340.06948      3379.09400
   2953645.39302  23925016.32302   2291038.72546  23925013.36646     -2013.82800
   -509235.80307  20859912.03407   -398441.65349  20859907.61649       -12.75000
 08 11 10 23 31 59.9990000  0  6  3  6 16 23 29 31
  -8497719.16807  22173408.39407  -6593107.87848  22173404.03048      4671.12500
  -7261906.78607  21385403.21407  -5640334.28548  21385400.23748      3837.31300
  -2548796.94408  20153451.24508  -1982653.42549  20153445.90549      1123.87500
  -6641294.53707  21964712.48707  -5157986.60448  21964706.86248      3370.87500
   2983890.26702  23930772.01902   2314606.10946  23930768.42946     -2018.67200
   -509003.84707  20859956.65907   -398260.90849  20859951.68349       -18.17200
 08 11 10 23 32 14.9990000  0  6  3  6 16 23 29 31
  -8567750.80407  22160081.51107  -6647677.98048  22160077.30048      4666.50000
  -7319417.63107  21374459.68307  -5685147.93948  21374455.21448      3830.87500
  -2565611.90007  20150251.36207  -1995755.98949  20150246.32749      1118.20300
  -6691793.27907  21955102.94007  -5197336.27548  21955097.10148      3362.37500
   3014201.60802  23936540.81502   2338225.31846  23936536.21446     -2023.09400
   -508689.22607  20860016.89407   -398015.75749  20860011.71049       -23.76600
 08 11 10 23 32 29.9990000  0  6  3  6 16 23 29 31
  -8637715.28807  22146767.58107  -6702195.76648  22146763.67948      4662.26600
  -7376833.11407  21363533.22907  -5729887.27248  21363529.55448      3824.64100
  -2582344.75807  20147067.36207  -2008794.59649  20147061.62449      1112.95300
  -6742166.62007  21945516.94807  -5236588.23348  21945510.87048      3354.20300
   3044578.64203  23942320.37803   2361895.73946  23942316.76546     -2027.25000
   -508292.23007  20860091.90907   -397706.41449  20860087.55849       -29.10900
 08 11 10 23 32 44.9990000  0  6  3  6 16 23 29 31
  -8707612.72007  22133465.97907  -6756661.29648  22133462.52248      4657.46900
  -7434153.30507  21352625.86207  -5774552.34448  21352622.69048      3818.01600
  -2598996.04907  20143898.66707  -2021769.63649  20143893.89749      1107.23400
  -6792414.75607  21935954.90107  -5275742.63548  21935949.11648      3345.51600
   3075020.60302  23948113.15102   2385616.65946  23948108.61246     -2031.90600
   -507813.26307  20860182.71407   -397333.20649  20860178.00749       -34.81300
 08 11 10 23 32 59.9990000  0  6  3  6 16 23 29 31
  -8777443.73207  22120177.73707  -6811075.07148  22120174.02248      4653.28100
  -7491379.02207  21341736.05807  -5819143.80548  21341732.83148      3812.06300
  -2615566.93007  20140745.34707  -2034682.01649  20140740.66749      1102.17200
  -6842538.36307  21926416.68307  -5314800.00348  21926410.66348      3337.56300
   3105526.30402  23953917.82302   2409387.31646  23953914.23346     -2035.87500
   -507253.33207  20860289.28407   -396896.90649  20860284.51149       -39.95300
 08 11 10 23 33 14.9990000  0  6  3  6 16 23 29 31
  -8847207.90907  22106902.25307  -6865436.77148  22106899.25348      4648.67200
  -7548510.07007  21330865.06507  -5863661.50148  21330861.24148      3805.43800
  -2632057.68207  20137607.15107  -2047531.94849  20137602.37049      1096.64100
  -6892537.07307  21916902.30807  -5353760.03848  21916896.44848      3329.00000
   3136095.25201  23959734.82301   2433207.22246  23959731.19446     -2040.25000
   -506612.45707  20860411.46407   -396397.53149  20860406.69049       -45.45300
 08 11 10 23 33 29.9990000  0  6  3  6 16 23 29 31
  -8916905.27307  22093639.19807  -6919746.40348  22093636.01148      4644.25000
  -7605546.38307  21320011.06507  -5908105.37948  21320007.78048      3799.25000
  -2648468.38407  20134484.08907  -2060319.51749  20134479.42949      1091.31300
  -6942410.75307  21907411.71407  -5392622.64248  21907405.18748      3320.71900
   3166727.08802  23965562.70602   2457076.18146  23965561.08546     -2044.17200
   -505890.62307  20860548.80007   -395835.06149  20860544.68349       -50.90600
 08 11 10 23 33 44.9990000  0  6  3  6 16 23 29 31
  -8986534.23707  22080389.49507  -6974002.73348  22080386.45248      4639.50000
  -7662486.12707  21309175.50307  -5952474.00948  21309172.97648      3792.71900
  -2664797.72407  20131376.69807  -2073043.67849  20131372.15549      1085.81300
  -6992157.63807  21897945.73707  -5431386.44548  21897937.57348      3312.10900
   3197422.94401  23971405.62001   2480995.02846  23971402.48346     -2048.67200
   -505086.36407  20860701.97207   -395208.38149  20860697.83149       -56.48400
 08 11 10 23 33 59.9990000  0  6  3  6 16 23 29 31
  -9056095.51607  22067151.77607  -7028206.32448  22067149.59748      4635.15600
  -7719330.17707  21298358.70607  -5996768.05948  21298355.85148      3786.31300
  -2681047.20507  20128284.94007  -2085705.61849  20128279.88249      1080.57800
  -7041778.63507  21888503.33907  -5470052.15148  21888495.18348      3303.82800
   3228181.31111  23977258.22201   2504962.51856  23977256.85146     -2052.93800
   -504200.77707  20860870.83907   -394518.30649  20860866.04649       -61.75000
 08 11 10 23 34 14.9990000  0  6  3  6 16 23 29 31
  -9125586.50907  22053928.30007  -7082355.14548  22053925.58148      4630.56300
  -7776076.31807  21287560.14407  -6040985.82148  21287557.61248      3780.04700
  -2697214.59107  20125208.40907  -2098303.58549  20125203.78449      1075.32800
  -7091271.42607  21879085.13607  -5508617.96848  21879076.90548      3295.45300
   3259003.80211  23983123.45601   2528980.00756  23983123.50346     -2056.93800
   -503231.73107  20861054.72207   -393763.21249  20861050.22249       -67.17200
 08 11 10 23 34 29.9990000  0  6  3  6 16 23 29 31
  -9195007.27707  22040718.17507  -7136449.25348  22040714.99548      4625.98400
  -7832724.30607  21276780.27607  -6085127.10849  21276777.67949      3773.56300
  -2713300.29607  20122147.00307  -2110837.90049  20122142.64449      1069.89100
  -7140635.83507  21869690.91707  -5547083.73048  21869684.70648      3286.96900
   3289890.01201  23989000.56501   2553047.18146  23989001.08146     -2060.82800
   -502179.38507  20861255.20607   -392943.20349  20861250.84349       -72.68800
 08 11 10 23 34 44.9990000  0  5  3  6 16 23 31
  -9264361.01107  22027520.54207  -7190491.11948  22027517.55448      4621.31300
  -7889277.54007  21266018.62807  -6129194.56948  21266015.93748      3766.93800
  -2729307.86207  20119101.11207  -2123311.34449  20119096.35849      1064.43800
  -7189874.90007  21860320.76107  -5585451.83348  21860315.17548      3278.31300
   -501047.21807  20861470.37007   -392061.01349  20861466.14749       -78.21900
 08 11 10 23 34 59.9990000  0  5  3  6 16 23 31
  -9333643.15207  22014336.54207  -7244477.20848  22014333.23748      4616.46900
  -7945731.51207  21255276.04207  -6173184.67148  21255273.33148      3760.34400
  -2745233.35907  20116070.55807  -2135720.82049  20116065.23349      1059.03100
  -7238984.14207  21850975.74507  -5623718.76448  21850969.84748      3269.75000
   -499830.99207  20861701.50307   -391113.31449  20861697.33149       -83.79700
 08 11 10 23 35 14.9990000  0  5  3  6 16 23 31
  -9402857.72907  22001165.88607  -7298410.64548  22001162.79248      4611.65600
  -8002090.53307  21244550.83907  -6217100.79349  21244548.43349      3753.75000
  -2761081.33408  20113054.72908  -2148069.90749  20113049.89049      1053.65600
  -7287968.12107  21841654.21407  -5661888.12348  21841648.63248      3261.12500
   -498535.10207  20861948.68307   -390103.53249  20861943.71449       -89.40600
 08 11 10 23 35 29.9990000  0  5  3  6 16 23 31
  -9472000.07107  21988008.48707  -7352287.79548  21988005.26548      4607.21900
  -8058349.67707  21233845.01907  -6260939.08349  21233841.78849      3747.40600
  -2776847.37108  20110054.48708  -2160355.13649  20110049.54249      1048.46900
  -7336821.78507  21832358.15907  -5699955.91948  21832352.12048      3252.62500
   -497154.84107  20862211.27607   -389028.01449  20862206.22949       -94.75000
 08 11 10 23 35 44.9990000  0  5  3  6 16 23 31
  -9541071.45707  21974864.62007  -7406109.66348  21974861.87048      4602.51600
  -8114510.44807  21223158.61207  -6304700.72948  21223155.88648      3740.81300
  -2792533.29407  20107069.73707  -2172577.93049  20107064.76149      1043.12500
  -7385546.36007  21823086.01907  -5737923.12248  21823080.02648      3244.00000
   -495691.78207  20862489.62007   -387887.97649  20862484.94049      -100.20300
 08 11 10 23 35 59.9990000  0  5  3  6 16 23 31
  -9610071.38207  21961734.21407  -7459875.82748  21961731.27248      4597.40600
  -8170572.21407  21212490.41707  -6348385.22349  21212486.87449      3733.93800
  -2808138.99308  20104099.92508  -2184738.21849  20104095.01549      1037.53100
  -7434141.43307  21813838.94007  -5775789.41048  21813832.51148      3235.12500
   -494145.73507  20862784.12007   -386683.27149  20862779.15149      -106.00000
 08 11 10 23 36 14.9990000  0  5  3  6 16 23 31
  -9678998.68007  21948617.42507  -7513585.41848  21948615.48748      4592.90600
  -8226533.95107  21201841.05807  -6391991.76148  21201838.07748      3727.62500
  -2823663.69507  20101145.62007  -2196835.39149  20101140.84749      1032.53100
  -7482605.72407  21804616.51907  -5813553.78448  21804609.90548      3226.78100
   -492515.69807  20863093.90907   -385413.11649  20863089.63249      -111.26600
 08 11 10 23 36 29.9990000  0  5  3  6 16 23 31
  -9747855.33807  21935514.85407  -7567239.96948  21935512.23748      4587.95300
  -8282397.73307  21191210.47207  -6435521.98548  21191206.83148      3720.96900
  -2839109.88507  20098206.35407  -2208871.38649  20098201.88249      1027.03100
  -7530941.44007  21795418.95607  -5851217.97748  21795412.33148      3217.98400
   -490804.00707  20863419.85407   -384079.34449  20863415.57349      -116.89100
 08 11 10 23 36 44.9990000  0  5  3  6 16 23 31
  -9816638.05007  21922425.77607  -7620836.89348  21922423.45248      4583.17200
  -8338160.47807  21180599.06507  -6478973.48148  21180595.44448      3714.29700
  -2854474.65807  20095282.84707  -2220843.93549  20095278.51549      1021.71900
  -7579145.35707  21786245.75307  -5888779.45348  21786239.65548      3209.32800
   -489007.75607  20863761.44807   -382679.66949  20863757.27649      -122.45300
 08 11 10 23 36 59.9990000  0  5  3  6 16 23 31
  -9885349.49507  21909350.64407  -7674378.26048  21909348.07748      4578.46900
  -8393824.82707  21170006.72207  -6522348.29948  21170003.01948      3707.73400
  -2869761.20908  20092373.84708  -2232755.53149  20092368.97249      1016.57800
  -7627220.26507  21777096.96407  -5926240.42548  21777090.72248      3200.81300
   -487129.82307  20864118.82307   -381216.36749  20864114.62049      -127.81300
 08 11 10 23 37 14.9990000  0  5  3  6 16 23 31
  -9953987.14907  21896289.71407  -7727862.13848  21896286.29248      4573.37500
  -8449388.15507  21159433.27607  -6565644.39149  21159429.85149      3700.89100
  -2884967.45707  20089480.05807  -2244604.56249  20089474.96849      1011.12500
  -7675163.34507  21767973.25307  -5963598.65248  21767967.89448      3191.82800
   -485167.76007  20864492.37807   -379687.49849  20864487.40949      -133.50000
 08 11 10 23 37 29.9990000  0  5  3  6 16 23 31
 -10022552.65907  21883241.77607  -7781289.81048  21883238.56948      4568.51600
  -8504852.21207  21148878.44007  -6608863.12949  21148875.49949      3694.28100
  -2900095.37308  20086601.64408  -2256392.54149  20086596.30849      1005.85900
  -7722976.28007  21758875.07307  -6000855.49648  21758870.40148      3183.21900
   -483123.57307  20864881.45607   -378094.63549  20864876.96449      -139.09400
 08 11 10 23 37 44.9990000  0  5  3  6 16 23 31
 -10091044.06607  21870208.08907  -7834659.73148  21870205.24548      4563.76600
  -8560214.95607  21138343.59707  -6652002.93548  21138340.24148      3687.68800
  -2915143.29407  20083737.92507  -2268118.20549  20083733.18749      1000.70300
  -7770657.15807  21749801.40107  -6038009.42948  21749796.97648      3174.59400
   -480995.46907  20865286.83107   -376436.37649  20865282.10849      -144.48400
 08 11 10 23 37 59.9990000  0  5  3  6 16 23 31
 -10159462.39007  21857188.53407  -7887972.71448  21857185.76148      4558.42200
  -8615477.89307  21127827.33107  -6695064.95549  21127824.29649      3680.48400
  -2930112.97508  20080889.13608  -2279782.89049  20080884.55449       995.01600
  -7818207.26507  21740753.15907  -6075061.47348  21740748.09748      3165.26600
   -478784.98507  20865706.91707   -374713.93549  20865702.69049      -150.50000
 08 11 10 23 38 14.9990000  0  5  3  6 16 23 31
 -10227804.58607  21844183.66707  -7941226.36648  21844180.54248      4553.90600
  -8670637.91007  21117330.76907  -6738046.77949  21117327.87049      3674.23400
  -2945001.79707  20078055.92507  -2291384.58049  20078050.92549       990.26600
  -7865623.58607  21731730.28407  -6112009.25148  21731724.11248      3156.98400
   -476489.29607  20866143.73707   -372925.09949  20866139.22249      -155.59400
 08 11 10 23 38 29.9990000  0  5  3  6 16 23 31
 -10296074.62007  21831192.05807  -7994423.78748  21831189.14748      4548.92200
  -8725698.96407  21106852.65107  -6780951.48749  21106849.91749      3667.46900
  -2959814.08608  20075237.41708  -2302926.62749  20075232.42549       984.89100
  -7912909.99407  21722732.17507  -6148855.79748  21722725.77248      3148.07800
   -474112.53007  20866596.05807   -371073.06849  20866591.56549      -161.15600
 08 11 10 23 38 44.9990000  0  5  3  6 16 23 31
 -10364269.87007  21818215.17507  -8047562.92948  21818212.27248      4543.70300
  -8780658.84307  21096394.13607  -6823777.36949  21096390.92149      3660.50000
  -2974548.00608  20072433.54208  -2314407.60149  20072428.22949       979.56300
  -7960064.26807  21713758.94807  -6185599.37248  21713752.43748      3139.09400
   -471652.75307  20867064.01107   -369156.35249  20867059.89749      -166.87500
 08 11 10 23 38 59.9990000  0  5  3  6 16 23 31
 -10432390.21107  21805252.22907  -8100643.71248  21805249.16348      4538.79700
  -8835516.98007  21085955.16707  -6866523.97149  21085952.10849      3653.75000
  -2989203.19808  20069644.58908  -2325827.22549  20069639.56249       974.39100
  -8007085.64507  21704810.94807  -6222239.38948  21704804.78848      3130.26600
   -469109.42707  20867547.74507   -367174.55149  20867543.23749      -172.37500
 08 11 10 23 39 14.9990000  0  5  3  6 16 23 31
 -10500437.70807  21792302.90907  -8153667.73148  21792300.04248      4534.09400
  -8890275.48307  21075534.85407  -6909192.93749  21075532.27249      3647.20300
  -3003782.37707  20066870.45607  -2337187.63449  20066865.46449       969.35900
  -8053976.41907  21695887.18307  -6258777.65848  21695881.86648      3121.62500
   -466484.90207  20868046.95607   -365129.46849  20868043.46849      -177.71900
 08 11 10 23 39 29.9990000  0  5  3  6 16 23 31
 -10568407.96707  21779368.38607  -8206631.55648  21779366.04248      4528.40600
  -8944930.04207  21065134.12807  -6951780.89149  21065131.60449      3639.90600
  -3018281.69307  20064111.11207  -2348485.79949  20064106.71849       963.70300
  -8100732.16407  21686989.97207  -6295210.71448  21686984.99148      3112.23400
   -463775.14407  20868562.80807   -363017.98049  20868558.47949      -183.76600
 08 11 10 23 39 44.9990000  0  5  3  6 16 23 31
 -10636299.13707  21766448.83907  -8259533.75948  21766446.76548      4523.89100
  -8999479.17307  21054754.07307  -6994286.70949  21054751.26549      3633.60900
  -3032699.80907  20061367.44007  -2359720.69749  20061362.99149       958.92200
  -8147351.36107  21678118.53407  -6331537.37048  21678114.08948      3103.81300
   -460978.83307  20869095.12007   -360839.04449  20869090.52249      -188.90600
 08 11 10 23 39 59.9990000  0  5  3  6 16 23 31
 -10704117.52307  21753543.64407  -8312379.22548  21753541.43748      4518.67200
  -9053929.13807  21044392.91707  -7036715.25449  21044389.97249      3626.45300
  -3047043.46907  20058638.13607  -2370897.56849  20058633.25349       953.56300
  -8193840.21807  21669272.55007  -6367762.45348  21669267.18348      3094.73400
   -458102.48507  20869642.78407   -358597.74549  20869638.56949      -194.67200
 08 11 10 23 40 14.9990000  0  5  3  6 16 23 31
 -10771859.19907  21740652.87807  -8365164.94348  21740650.64448      4513.76600
  -9108276.13107  21034051.07307  -7079063.56249  21034047.62849      3619.89100
  -3061309.21907  20055923.45607  -2382013.74149  20055918.64449       948.67200
  -8240194.91907  21660451.69007  -6403882.99148  21660446.08148      3086.00000
   -455142.50707  20870205.87807   -356291.27449  20870201.98749      -199.98400
 08 11 10 23 40 29.9990000  0  5  3  6 16 23 31
 -10839523.89807  21727776.65907  -8417890.66948  21727773.96048      4508.34400
  -9162519.87507  21023728.45607  -7121331.41649  21023725.39749      3612.73400
  -3075497.06307  20053223.32307  -2393069.20149  20053218.53449       943.18800
  -8286415.08807  21651657.01107  -6439898.69948  21651649.92948      3076.75000
   -452098.54207  20870785.22907   -353919.36449  20870781.15149      -205.84400
 08 11 10 23 40 44.9990000  0  5  3  6 16 23 31
 -10907113.53407  21714915.33107  -8470557.92348  21714912.22248      4503.39100
  -9216662.08907  21013425.83107  -7163520.14648  21013422.27248      3606.04700
  -3089609.09107  20050538.01107  -2404065.58649  20050533.37849       938.29700
  -8332502.43007  21642886.56507  -6475810.91148  21642880.38648      3068.04700
   -448972.78107  20871379.63607   -351483.72149  20871375.73349      -211.15600
 08 11 10 23 40 59.9990000  0  5  3  6 16 23 31
 -10974626.60007  21702067.99507  -8523165.49948  21702064.98748      4498.53100
  -9270701.65507  21003142.58107  -7205628.89749  21003139.00749      3599.46900
  -3103644.55707  20047867.06507  -2415002.31749  20047862.39749       933.37500
  -8378455.86007  21634141.31507  -6511618.78148  21634135.58148      3059.28100
   -445764.20307  20871990.56507   -348983.53249  20871986.21449      -216.50000
 08 11 10 23 41 14.9990000  0  6  3  6 13 16 23 31
 -11042064.11107  21689234.70607  -8575714.19948  21689232.13248      4493.15600
  -9324639.62507  20992878.52607  -7247658.49949  20992874.96849      3592.31300
   -163347.50216  23583299.34706   -102225.52757  23583296.46847      4260.71900
  -3117605.03008  20045210.51108  -2425880.60749  20045206.07749       928.09400
  -8424276.42007  21625421.79207  -6547323.12148  21625416.87448      3050.09400
   -442474.29607  20872616.47207   -346419.98449  20872612.42949      -222.14100
 08 11 10 23 41 29.9990000  0  6  3  6 13 16 23 31
 -11109424.21607  21676416.55007  -8628202.58248  21676413.61648      4488.12500
  -9378474.44707  20982634.06507  -7289607.70949  20982631.01949      3585.56300
   -227219.02206  23571144.82306   -151995.52947  23571141.66747      4255.51600
  -3131489.11708  20042568.66708  -2436699.38049  20042563.78049       923.10900
  -8469962.44407  21616728.33907  -6582922.63048  21616722.87048      3041.23400
   -439101.30907  20873258.51907   -343791.69649  20873253.55049      -227.57800
 08 11 10 23 41 44.9990000  0  6  3  6 13 16 23 31
 -11176706.01107  21663613.34707  -8680629.94348  21663610.31248      4482.92200
  -9432204.85707  20972409.65907  -7331475.56649  20972406.37449      3578.62500
   -291008.50406  23559006.48706   -201701.61147  23559002.79647      4249.98400
  -3145295.97907  20039940.82307  -2447457.97649  20039936.25349       917.89100
  -8515512.67307  21608060.43307  -6618416.31448  21608054.23348      3032.17200
   -435644.33507  20873916.61207   -341097.96149  20873911.51949      -233.25000
 08 11 10 23 41 59.9990000  0  6  3  6 13 16 23 31
 -11243908.76907  21650825.34707  -8732995.71748  21650821.51148      4477.59400
  -9485830.24807  20962204.88607  -7373261.58949  20962202.05449      3571.64100
   -354715.22206  23546883.77606   -251343.22747  23546879.78447      4244.45300
  -3159025.34207  20037328.66707  -2458156.18849  20037323.81249       912.85900
  -8560926.36907  21599419.23707  -6653803.60448  21599412.56548      3023.12500
   -432102.93707  20874590.32307   -338338.43749  20874585.36649      -238.79700
 08 11 10 23 42 14.9990000  0  6  3  6 13 16 23 31
 -11311033.91707  21638051.87807  -8785301.03148  21638048.35448      4472.32800
  -9539352.30007  20952019.82307  -7414967.09149  20952017.37049      3564.57800
   -418340.79806  23534776.51106   -300921.57647  23534771.54247      4238.87500
  -3172679.34307  20034730.15107  -2468795.66849  20034725.48749       907.70300
  -8606205.30407  21590802.83107  -6689085.88448  21590796.13648      3014.03100
   -428478.98307  20875280.07307   -335514.59149  20875275.39749      -244.45300
 08 11 10 23 42 29.9990000  0  6  3  6 13 16 23 31
 -11378085.22107  21625292.29207  -8837548.78448  21625288.48748      4467.37500
  -9592774.66307  20941854.26107  -7456594.88349  20941850.67149      3557.96900
   -481888.78306  23522683.25306   -350439.48547  23522678.60447      4233.67200
  -3186262.17508  20032145.77608  -2479379.69049  20032141.17949       902.96900
  -8651353.10607  21582211.39407  -6724265.98248  21582204.40948      3005.23400
   -424776.36807  20875984.26107   -332629.44749  20875980.31549      -249.67200
 08 11 10 23 42 44.9990000  0  6  3  6 13 16 23 31
 -11445058.58607  21612546.99507  -8889735.82248  21612544.38248      4462.53100
  -9646093.29207  20931707.81507  -7498141.87049  20931704.30049      3551.39100
   -545355.00306  23510605.65106   -399893.65847  23510601.00747      4228.56300
  -3199769.92007  20029575.56507  -2489905.21049  20029570.51149       898.29700
  -8696365.69007  21573645.76107  -6759340.70848  21573639.44848      2996.56300
   -420991.18307  20876704.66707   -329679.96049  20876699.96049      -254.84400
 08 11 10 23 42 59.9990000  0  6  3  6 13 16 23 31
 -11511953.74007  21599817.99507  -8941861.90848  21599814.93348      4457.09400
  -9699308.12407  20921581.18307  -7539607.97649  20921578.10849      3544.25000
   -608739.29606  23498543.75306   -449284.00447  23498539.52647      4222.95300
  -3213202.99708  20027018.94808  -2500372.54749  20027014.25749       893.09400
  -8741242.90007  21565105.08907  -6794309.96148  21565099.26948      2987.31300
   -417123.53407  20877440.62007   -326666.21749  20877435.55849      -260.54700
 08 11 10 23 43 14.9990000  0  6  3  6 13 16 23 31
 -11578771.34407  21587102.94807  -8993927.55448  21587100.03048      4451.79700
  -9752420.02107  20911474.01907  -7580993.87049  20911471.56249      3537.28100
   -672042.19306  23486497.63606   -498610.92847  23486492.75347      4217.40600
  -3226562.33907  20024476.65107  -2510782.41749  20024471.97649       888.04700
  -8785985.44107  21556590.74507  -6829174.28048  21556585.25348      2978.25000
   -413174.48107  20878192.23707   -323589.04749  20878187.76549      -266.06300
 08 11 10 23 43 29.9990000  0  6  3  6 13 16 23 31
 -11645509.77307  21574402.98707  -9045931.52848  21574399.76148      4446.46900
  -9805427.33807  20901387.30007  -7622298.25949  20901385.05449      3530.26600
   -735261.94806  23474466.93306   -547873.06747  23474463.37447      4211.75000
  -3239846.87707  20021948.50307  -2521134.00549  20021943.91349       883.07800
  -8830591.72407  21548102.39407  -6863932.42748  21548096.93748      2969.09400
   -409142.71707  20878959.69007   -320447.42149  20878955.17549      -271.62500
 08 11 10 23 43 44.9990000  0  6  3  6 13 16 23 31
 -11712167.73607  21561717.89407  -9097872.79848  21561714.89448      4441.15600
  -9858328.71707  20891320.45607  -7663520.10849  20891317.49549      3523.15600
   -798397.23406  23462453.06506   -597069.42947  23462448.69847      4206.15600
  -3253055.54107  20019435.29207  -2531426.47149  20019430.46849       877.93800
  -8875060.56607  21539640.40907  -6898583.47148  21539635.20648      2959.95300
   -405027.09507  20879742.74507   -317240.44749  20879737.96449      -277.23400
 08 11 10 23 43 59.9990000  0  6  3  6 13 16 23 31
 -11778747.96707  21549048.47207  -9149753.49248  21549045.52248      4436.15600
  -9911127.02807  20881273.70607  -7704661.64349  20881270.11649      3516.46900
   -861450.66106  23450454.80006   -646201.95147  23450450.64747      4200.82800
  -3266191.50007  20016935.54207  -2541662.27949  20016930.41749       873.37500
  -8919394.61507  21531204.35407  -6933129.48648  21531198.36248      2951.18800
   -400830.39207  20880541.49507   -313970.27949  20880536.78849      -282.43800
 08 11 10 23 44 14.9990000  0  6  3  6 13 16 23 31
 -11845250.76507  21536392.92507  -9201573.84648  21536390.31248      4430.54700
  -9963822.78407  20871245.94007  -7745723.26349  20871242.37849      3509.26600
   -924422.81106  23438472.02606   -695271.14847  23438468.23747      4195.12500
  -3279255.84507  20014449.48707  -2551842.30049  20014444.37049       868.18800
  -8963594.49707  21522793.62007  -6967570.95548  21522787.00748      2941.84400
   -396553.51107  20881355.46407   -310637.64749  20881350.42949      -288.18800
 08 11 10 23 44 29.9980000  0  6  3  6 13 16 23 31
 -11911665.71407  21523754.92007  -9253325.73348  21523752.22548      4425.29700
 -10016406.35207  20861239.43607  -7786697.46649  20861236.03349      3502.34400
   -987303.10506  23426505.64606   -744268.78247  23426502.86547      4189.51600
  -3292241.77107  20011978.60007  -2561961.20649  20011973.04949       863.32800
  -9007650.93007  21514409.96707  -7001900.65048  21514403.11548      2932.78100
   -392190.69007  20882185.57607   -307238.04649  20882181.16649      -293.56300
 08 11 10 23 44 44.9980000  0  7  3  6 13 16 21 23 31
 -11978003.00707  21511131.85707  -9305017.12448  21511128.53748      4419.75000
 -10068886.38507  20851252.95107  -7827590.99149  20851249.30349      3495.04700
  -1050101.48706  23414554.87306   -793202.58647  23414552.52547      4183.62500
  -3305153.21507  20009521.67807  -2572022.06949  20009516.57249       858.20300
   -100689.58415  24085523.07605    -66678.13456  24085518.27146      2711.93800
  -9051571.63307  21506052.50607  -7036124.55948  21506045.12748      2923.35900
   -387743.32807  20883031.58407   -303772.56749  20883026.94749      -299.34400
 08 11 10 23 44 59.9980000  0  7  3  6 13 16 21 23 31
 -12044260.37607  21498523.60007  -9356646.24148  21498519.71748      4414.53100
 -10121261.56107  20841286.44307  -7868402.81149  20841282.20149      3488.26600
  -1112815.72806  23402621.07606   -842070.81546  23402617.88546      4178.15600
  -3317991.57407  20007078.13907  -2582026.00049  20007073.34249       853.56300
   -141337.90005  24077788.67805    -98352.11446  24077782.49446      2707.62500
  -9095355.58807  21497720.29507  -7070241.92048  21497713.24448      2914.39100
   -383213.83007  20883893.95107   -300243.10049  20883889.44749      -304.64100
 08 11 10 23 45 14.9980000  0  7  3  6 13 16 21 23 31
 -12110439.25906  21485929.56806  -9408214.20148  21485926.71748      4409.46900
 -10173533.16007  20831339.41207  -7909133.93349  20831335.69349      3481.43800
  -1175447.03906  23390702.71706   -890874.46846  23390699.31846      4172.79700
  -3330758.59307  20004648.77107  -2591974.31649  20004644.09249       848.93800
   -181919.41705  24070065.39605   -129974.08746  24070060.40446      2703.34400
  -9139004.20607  21489413.77907  -7104253.82448  21489407.47948      2905.54700
   -378603.88407  20884771.02107   -296650.94749  20884766.66649      -309.89100
 08 11 10 23 45 29.9980000  0  7  3  6 13 16 21 23 31
 -12176536.71207  21473351.60007  -9459718.70948  21473348.70548      4403.50000
 -10225698.48907  20821412.48207  -7949782.24149  20821409.29949      3473.89100
  -1237992.58606  23378801.17006   -939611.26846  23378796.64346      4166.59400
  -3343451.92007  20002233.00607  -2601865.23549  20002228.55749       843.51600
   -222431.05805  24062356.44305   -161541.60346  24062350.84646      2698.14100
  -9182514.62807  21481134.02907  -7138158.04248  21481127.84648      2895.82800
   -373910.93407  20885664.16207   -292994.11249  20885659.88549      -315.85900
 08 11 10 23 45 44.9980000  0  7  3  6 13 16 21 23 31
 -12242549.39607  21460789.61507  -9511157.15148  21460786.70948      4397.92200
 -10277754.48807  20811506.56107  -7990345.34449  20811503.30749      3466.67200
  -1300449.16806  23366916.16206   -988278.70746  23366911.40446      4160.68800
  -3356068.78507  19999832.63907  -2611696.56249  19999827.93949       838.42200
   -262869.79705  24054661.14605   -193052.29246  24054656.43946      2693.37500
  -9225883.81406  21472880.97506  -7171952.21848  21472875.82248      2886.53100
   -369132.21607  20886573.54507   -289270.44549  20886568.83849      -321.59400
 08 11 10 23 45 59.9980000  0  7  3  6 13 16 21 23 31
 -12308478.23507  21448243.93607  -9562530.26148  21448241.08448      4392.64100
 -10329701.73607  20801621.88107  -8030823.72449  20801618.12349      3459.71900
  -1362817.28606  23355047.02906  -1036877.25246  23355042.74446      4155.10900
  -3368610.18007  19997445.77107  -2621469.07549  19997441.58449       833.76600
   -303236.09104  24046979.30304   -224506.55046  24046975.39346      2688.92200
  -9269112.26507  21464655.06107  -7205636.72648  21464649.48248      2877.43800
   -364268.38907  20887499.35007   -285480.45649  20887494.74049      -326.82800
 08 11 10 23 46 14.9980000  0  7  3  6 13 16 21 23 31
 -12374327.71007  21435713.13107  -9613841.53948  21435710.19348      4387.39100
 -10381545.02307  20791755.78707  -8071221.09149  20791752.12749      3452.79700
  -1425101.40206  23343195.52906  -1085410.31746  23343191.34646      4149.53100
  -3381081.17607  19995072.80307  -2631186.74449  19995068.42849       829.14100
   -343534.61804  24039311.31104   -255907.98846  24039307.34246      2684.35900
  -9312204.75407  21456455.17807  -7239215.30748  21456450.23648      2868.34400
   -359324.43607  20888440.02107   -281628.03049  20888435.49049      -332.20300
 08 11 10 23 46 29.9980000  0  7  3  6 13 16 21 23 31
 -12440095.13307  21423197.92007  -9665088.88448  21423195.32648      4381.64100
 -10433281.61207  20781911.31107  -8111535.32649  20781907.70149      3445.43800
  -1487298.76705  23331359.72505  -1133875.80146  23331355.71746      4143.42200
  -3393479.59507  19992713.35707  -2640847.84949  19992708.94349       823.96900
   -383762.79505  24031656.32605   -287254.59946  24031651.78746      2679.31300
  -9355158.62707  21448281.63107  -7272685.85248  21448276.18948      2858.81300
   -354297.84308  20889396.56808   -277711.20549  20889391.96749      -338.01600
 08 11 10 23 46 44.9980000  0  7  3  6 13 16 21 23 31
 -12505781.40907  21410698.67007  -9716272.99548  21410695.54948      4376.45300
 -10484912.67707  20772085.44307  -8151767.31749  20772082.52149      3438.64100
  -1549410.51505  23319539.99805  -1182274.56246  23319535.90846      4137.96900
  -3405806.91407  19990367.61507  -2650453.54949  19990363.20549       819.45300
   -423921.60305  24024015.29505   -318547.16547  24024009.93247      2674.96900
  -9397974.97906  21440133.17006  -7306049.24248  21440128.02548      2849.90600
   -349189.94407  20890368.38907   -273731.03449  20890363.83049      -343.18800
 08 11 10 23 46 59.9980000  0  7  3  6 13 16 21 23 31
 -12571386.89207  21398213.76407  -9767394.15148  21398211.58048      4371.04700
 -10536438.70007  20762280.74007  -8191917.46049  20762277.47549      3431.62500
  -1611436.73505  23307736.43605  -1230606.66346  23307732.64646      4132.32800
  -3418063.83207  19988035.26407  -2660004.40049  19988030.70949       814.78100
   -464011.39906  24016385.77906   -349785.94447  24016381.45147      2670.48400
  -9440654.13607  21432011.88107  -7339305.73048  21432006.02948      2840.73400
   -344001.41307  20891355.51407   -269688.02949  20891350.94749      -348.54700
 08 11 10 23 47 14.9980000  0  7  3  6 13 16 21 23 31
 -12636911.31906  21385745.26406  -9818452.13548  21385742.14348      4365.26600
 -10587859.47207  20752495.49807  -8231985.58249  20752492.37749      3424.26600
  -1673377.25605  23295950.56805  -1278872.04346  23295945.61146      4126.25000
  -3430250.48407  19985716.39607  -2669500.49749  19985711.49449       809.79700
   -504031.78206  24008769.96706   -380970.64546  24008765.25646      2665.45300
  -9483196.02907  21423916.34207  -7372455.25148  21423909.22548      2831.28100
   -338732.10407  20892358.35707   -265582.08649  20892354.15849      -354.29700
 08 11 10 23 47 29.9980000  0  7  3  6 13 16 21 23 31
 -12702349.52107  21373292.84207  -9869442.95048  21373289.38948      4359.56300
 -10639169.72807  20742732.06807  -8271967.59549  20742728.39649      3416.89100
  -1735226.85006  23284180.47506  -1327066.52946  23284176.13146      4120.14100
  -3442361.97607  19983411.46707  -2678938.02949  19983406.63549       804.82800
   -543977.43805  24001168.08405   -412097.13346  24001164.26846      2660.39100
  -9525595.43407  21415847.87307  -7405493.76548  21415841.17048      2821.76600
   -333377.04507  20893377.65407   -261409.32749  20893373.11549      -360.01600
 08 11 10 23 47 44.9980000  0  7  3  6 13 16 21 23 31
 -12767705.44507  21360856.18607  -9920369.65248  21360852.79148      4354.17200
 -10690373.41507  20732987.74007  -8311866.58049  20732984.51049      3409.87500
  -1796989.09906  23272427.74006  -1375192.86346  23272423.88146      4114.43800
  -3454402.58407  19981120.05307  -2688320.33049  19981115.08049       800.20300
   -583852.36405  23993580.25605   -443168.48146  23993576.42846      2655.82800
  -9567856.07007  21407805.97507  -7438424.12148  21407799.80748      2812.65600
   -327940.36807  20894412.25607   -257172.97449  20894408.07649      -365.32800
 08 11 10 23 47 59.9980000  0  7  3  6 13 16 21 23 31
 -12832976.90007  21348435.24007  -9971230.52348  21348432.15848      4348.75000
 -10741468.43007  20723264.69307  -8351680.87749  20723261.62749      3402.81300
  -1858661.65606  23260692.08406  -1423249.48746  23260688.24046      4108.65600
  -3466370.58307  19978842.42007  -2697646.04949  19978837.99849       795.57800
   -623654.46604  23986005.74004   -474183.13446  23986001.83846      2651.21900
  -9609975.97807  21399791.28707  -7471244.83448  21399785.35448      2803.42200
   -322420.04007  20895462.80307   -252871.42849  20895458.03349      -370.67200
 08 11 10 23 48 14.9980000  0  7  3  6 13 16 21 23 31
 -12898165.38307  21336030.47507 -10022026.74148  21336027.27948      4343.09400
 -10792456.50707  20713561.77107  -8391411.83749  20713559.35749      3395.54700
  -1920246.39606  23248973.22506  -1471237.61146  23248969.15446      4102.64100
  -3478268.09607  19976578.60707  -2706916.84549  19976574.08049       790.73400
   -663385.24404  23978445.29504   -505142.14846  23978440.62746      2646.39100
  -9651956.89407  21391802.47507  -7503957.24548  21391796.11548      2794.09400
   -316818.15407  20896528.68607   -248506.32949  20896523.91249      -376.20300
 08 11 10 23 48 29.9980000  0  7  3  6 13 16 21 23 31
 -12963270.44907  21323642.00607 -10072757.95648  21323638.15448      4337.43800
 -10843337.55007  20703879.77107  -8431059.39649  20703876.39349      3388.35900
  -1981742.88006  23237271.34206  -1519156.95746  23237265.97146      4096.67200
  -3490095.27507  19974327.93607  -2716132.82149  19974322.62349       786.03100
   -703044.46004  23970897.99004   -536045.40746  23970894.16646      2641.43800
  -9693798.35007  21383840.12307  -7536560.97348  21383834.53748      2784.67200
   -311134.65607  20897609.89607   -244077.64349  20897604.88149      -381.68800
 08 11 10 23 48 44.9980000  0  7  3  6 13 16 21 23 31
 -13028292.69807  21311268.38907 -10123424.65148  21311264.79148      4332.04700
 -10894111.90507  20694217.63907  -8470623.82449  20694214.52149      3381.32800
  -2043151.39906  23225584.51406  -1567007.76246  23225580.28746      4090.89100
  -3501852.70907  19972090.23207  -2725294.45849  19972085.31449       781.42200
   -742632.47002  23963363.85002   -566893.18446  23963361.38146      2636.65600
  -9735500.88307  21375904.67007  -7569056.46448  21375898.99448      2775.50000
   -305370.14007  20898707.20907   -239585.82449  20898702.12749      -387.00000
 08 11 10 23 48 59.9980000  0  7  3  6 13 16 21 23 31
 -13093231.36607  21298910.35707 -10174026.21248  21298907.14648      4326.23400
 -10944778.89007  20684576.05307  -8510104.59749  20684572.96749      3374.04700
  -2104471.11206  23213915.42006  -1614789.34846  23213910.95146      4084.82800
  -3513540.29508  19969866.54508  -2734401.67849  19969861.82649       776.70300
   -782148.69504  23955845.45904   -597685.04546  23955842.67046      2631.90600
  -9777063.87407  21367995.70907  -7601443.21448  21367989.86948      2766.00000
   -299524.14807  20899819.57607   -235030.51549  20899814.90849      -392.65600
 08 11 10 23 49 14.9980000  0  7  3  6 13 16 21 23 31
 -13158084.32207  21286569.36507 -10224560.97648  21286566.04948      4320.89100
 -10995336.43207  20674955.39607  -8549500.07449  20674952.18649      3367.04700
  -2165699.71706  23202263.63906  -1662499.93846  23202259.55746      4079.07800
  -3525156.29507  19967656.19307  -2743453.12149  19967651.02949       772.25000
   -821590.67605  23948340.51405   -628419.05447  23948336.58047      2627.21900
  -9818485.27307  21360113.15407  -7633719.63648  21360107.92448      2756.90600
   -293594.80807  20900947.82607   -230410.24749  20900942.86549      -397.87500
 08 11 10 23 49 29.9980000  0  7  3  6 13 16 21 23 31
 -13222854.45807  21274244.14607 -10275031.21448  21274241.12748      4314.98400
 -11045787.54907  20665354.54507  -8588812.62749  20665351.76049      3359.54700
  -2226839.97506  23190629.56106  -1710141.69346  23190624.66646      4072.82800
  -3536703.86407  19965458.70907  -2752451.21649  19965454.46749       767.25000
   -860961.37504  23940847.43604   -659097.53447  23940844.46747      2622.06300
  -9859767.83607  21352257.03707  -7665887.87448  21352251.52948      2747.21900
   -287585.18507  20902091.68607   -225727.42549  20902086.36549      -403.67200
 08 11 10 23 49 44.9980000  0  7  3  6 13 16 21 23 31
 -13287536.69106  21261935.41206 -10325432.94748  21261932.02948      4309.40600
 -11096127.41107  20655775.01407  -8628038.49449  20655772.10749      3352.45300
  -2287887.19406  23179012.60006  -1757710.95747  23179007.64647      4066.84400
  -3548178.60007  19963275.25607  -2761392.58249  19963270.63549       762.79700
   -900255.97604  23933370.48204   -689716.68847  23933366.42047      2617.21900
  -9900906.76507  21344428.70107  -7697944.17748  21344422.62748      2738.01600
   -281490.81207  20903251.04507   -220978.56949  20903246.53749      -408.93800
 08 11 10 23 49 59.9980000  0  7  3  6 13 16 21 23 31
 -13352135.11406  21249642.45906 -10375769.35748  21249639.72548      4303.70300
 -11146360.02807  20646216.24807  -8667180.79249  20646213.25649      3345.20300
  -2348845.12706  23167413.07606  -1805210.61847  23167407.99047      4060.70300
  -3559584.93607  19961104.65407  -2770280.63849  19961100.41649       758.15600
   -939478.45304  23925906.43604   -720279.60547  23925902.69747      2612.31300
  -9941906.18107  21336626.52907  -7729891.75248  21336620.21348      2728.65600
   -275315.91607  20904426.35007   -216166.97049  20904421.58449      -414.40600
 08 11 10 23 50 14.9980000  0  7  3  6 13 16 21 23 31
 -13416649.80106  21237366.05306 -10426040.55548  21237362.99048      4298.01600
 -11196485.58707  20636677.74007  -8706239.66049  20636674.51049      3338.00000
  -2409713.94106  23155829.88106  -1852640.87147  23155826.38547      4054.76600
  -3570923.34307  19958947.26407  -2779115.76249  19958942.93649       753.45300
   -978628.77805  23918457.16205   -750786.37747  23918453.26847      2607.42200
  -9982766.16307  21328851.28707  -7761730.70548  21328845.53348      2719.18800
   -269060.64407  20905616.88107   -211292.74749  20905611.94749      -419.85900
 08 11 10 23 50 29.9980000  0  7  3  6 13 16 21 23 31
 -13481077.20206  21225105.90406 -10476243.71148  21225102.87748      4292.40600
 -11246500.67707  20627160.18607  -8745212.46049  20627157.09649      3330.75000
  -2470489.98006  23144264.74006  -1899998.81147  23144261.19747      4048.79700
  -3582190.65007  19956803.05307  -2787895.48449  19956798.36949       748.93800
  -1017703.44505  23911021.68605   -781234.13647  23911017.53747      2602.64100
 -10023483.30907  21321103.45107  -7793458.34748  21321097.70148      2709.85900
   -262721.76607  20906822.74007   -206353.37049  20906818.55349      -425.21900
 08 11 10 23 50 44.9980000  0  7  3  6 13 16 21 23 31
 -13545418.28306  21212861.95906 -10526379.61148  21212858.44748      4286.62500
 -11296406.23607  20617663.51407  -8784099.90549  20617660.38949      3323.51600
  -2531174.01906  23132717.08406  -1947285.06747  23132713.70947      4042.54700
  -3593388.03208  19954672.38908  -2796620.72849  19954667.67049       744.18800
  -1056703.26405  23903600.69305   -811623.60646  23903595.16646      2597.54700
 -10064058.51007  21313381.84207  -7825075.39048  21313376.78748      2700.34400
   -256300.37107  20908045.02907   -201349.68949  20908040.42449      -430.79700
 08 11 10 23 50 59.9980000  0  7  3  6 13 16 21 23 31
 -13609671.97107  21200635.23207 -10576447.40648  21200631.08048      4280.57800
 -11346201.17007  20608187.78707  -8822901.15949  20608184.46749      3316.00000
  -2591764.82106  23121186.74006  -1994498.66347  23121182.96347      4036.28100
  -3604515.02207  19952554.76407  -2805291.10949  19952550.31149       739.48400
  -1095627.30105  23896193.23205   -841953.96547  23896188.21347      2592.37500
 -10104490.69407  21305688.06107  -7856580.98848  21305682.72948      2690.71900
   -249795.66807  20909282.45907   -196281.11049  20909278.15049      -436.45300
 08 11 10 23 51 14.9980000  0  7  3  6 13 16 21 23 31
 -13673838.54306  21188424.06806 -10626447.33048  21188421.15448      4275.09400
 -11395886.05507  20598733.11507  -8861616.65549  20598730.27149      3308.89100
  -2652262.84506  23109674.38106  -2041639.99647  23109669.87347      4030.34400
  -3615572.31107  19950450.30307  -2813907.19549  19950445.98249       735.07800
  -1134475.99805  23888800.91205   -872225.64947  23888795.67847      2587.60900
 -10144780.28607  21298021.22507  -7887975.47548  21298015.65048      2681.48400
   -243208.47707  20910536.19307   -191148.23849  20910531.63149      -441.70300
 08 11 10 23 51 29.9980000  0  7  3  6 13 16 21 23 31
 -13737919.08006  21176230.21706 -10676380.19648  21176227.06448      4269.18800
 -11445461.98607  20589299.17807  -8900247.24449  20589295.98649      3301.43800
  -2712669.00706  23098179.03706  -2088709.74547  23098175.14647      4023.98400
  -3626561.38807  19948359.27907  -2822470.11149  19948354.35049       730.39100
  -1173250.28305  23881421.47505   -902439.31647  23881417.01847      2582.37500
 -10184928.40507  21290381.06107  -7919259.73348  21290376.15448      2671.87500
   -236539.98607  20911804.88107   -185952.02149  20911799.87349      -447.28100
 08 11 10 23 51 44.9980000  0  7  3  6 13 16 21 23 31
 -13801913.39406  21164052.74006 -10726245.89748  21164049.16648      4263.51600
 -11494929.07007  20579885.60007  -8938793.02449  20579882.04549      3294.28100
  -2772983.18706  23086701.31806  -2135707.76547  23086697.90047      4018.00000
  -3637482.71007  19946281.17807  -2830980.23849  19946275.78749       725.93800
  -1211950.07605  23874056.48205   -932594.95647  23874052.67847      2577.60900
 -10224935.23007  21282768.06807  -7950433.88948  21282762.72148      2662.50000
   -229790.38807  20913089.24807   -180692.60949  20913084.75249      -452.62500
 08 11 10 23 51 59.9980000  0  7  3  6 13 16 21 23 31
 -13865822.23807  21151891.24007 -10776044.98248  21151887.54948      4257.60900
 -11544287.83507  20570493.17007  -8977254.39549  20570489.84649      3286.92200
  -2833205.78206  23075241.62306  -2182634.46747  23075237.29947      4011.64100
  -3648337.00707  19944215.52107  -2839438.12649  19944210.74049       721.28100
  -1250575.91005  23866706.27105   -962693.00447  23866702.29147      2572.51600
 -10264801.27707  21275181.74807  -7981498.34648  21275175.40848      2652.90600
   -222960.49407  20914389.11507   -175370.62149  20914384.90849      -458.12500
 08 11 10 23 52 14.9980000  0  7  3  6 13 16 21 23 31
 -13929643.80307  21139746.63907 -10825776.06248  21139742.65448      4251.79700
 -11593536.64107  20561121.59207  -9015630.08549  20561118.65049      3279.51600
  -2893335.05906  23063799.38906  -2229488.45547  23063795.29547      4005.43800
  -3659123.18107  19942163.17807  -2847842.94949  19942158.36949       716.76600
  -1289126.00706  23859371.06106   -992732.02447  23859367.31147      2567.42200
 -10304524.80907  21267623.42007  -8012451.73648  21267615.92448      2643.35900
   -216048.90207  20915704.48207   -169984.97049  20915699.86949      -463.56300
 08 11 10 23 52 29.9980000  0  7  3  6 13 16 21 23 31
 -13993374.66007  21127618.92007 -10875436.46648  21127614.97548      4245.62500
 -11642672.39907  20551771.07607  -9053917.68749  20551768.13949      3271.85900
  -2953367.79806  23052375.42806  -2276267.17947  23052371.47947      3998.85900
  -3669838.39607  19940124.35007  -2856192.46849  19940119.46349       711.93800
  -1327597.14505  23852050.41205  -1022709.48847  23852046.63947      2562.04700
 -10344102.63407  21260091.95907  -8043291.58748  21260083.94748      2633.54700
   -209052.64807  20917035.38907   -164533.34049  20917030.76449      -469.34400
 08 11 10 23 52 44.9980000  0  7  3  6 13 16 21 23 31
 -14057017.91007  21115508.03707 -10925028.58948  21115504.51448      4240.07800
 -11691697.90607  20542441.82607  -9092119.38049  20542438.76449      3264.85900
  -3013306.67506  23040970.02106  -2322972.79147  23040965.30747      3992.90600
  -3680485.86607  19938098.08407  -2864489.20449  19938093.32249       707.68800
  -1365992.24405  23844743.38105  -1052627.71747  23844739.63947      2557.26600
 -10383537.79207  21252587.24807  -8074020.28948  21252580.13548      2624.39100
   -201974.71007  20918382.64607   -159018.06549  20918378.44749      -474.50000
 08 11 10 23 52 59.9980000  0  7  3  6 13 16 21 23 31
 -14120573.82607  21103413.45907 -10974552.67348  21103409.98648      4234.17200
 -11740613.73707  20533133.54507  -9130235.61049  20533130.14349      3257.40600
  -3073152.10506  23029582.09206  -2369605.57947  23029577.96747      3986.62500
  -3691066.35607  19936084.35707  -2872733.73549  19936079.94349       703.17200
  -1404311.71105  23837451.63905  -1082487.01647  23837448.21747      2552.18800
 -10422830.72407  21245109.95907  -8104638.14248  21245103.88948      2614.76600
   -194815.73507  20919744.56807   -153439.64849  20919740.66249      -479.90600
 08 11 10 23 53 14.9980000  0  7  3  6 13 16 21 23 31
 -14184040.53007  21091336.75607 -11024007.25248  21091333.12348      4228.18800
 -11789418.17307  20523846.53707  -9168265.03549  20523842.93249      3250.03100
  -3132902.14506  23018211.60706  -2416164.05647  23018208.17447      3980.15600
  -3701578.40207  19934083.99007  -2880924.94649  19934079.94349       698.53100
  -1442553.70805  23830173.81105  -1112285.93647  23830170.11947      2546.90600
 -10461979.55407  21237660.11507  -8135143.73848  21237654.52548      2605.15600
   -187574.20307  20921122.60007   -147796.92449  20921118.63549      -485.48400
 08 11 10 23 53 29.9980000  0  7  3  6 13 16 21 23 31
 -14247419.06307  21079276.24807 -11073393.11448  21079272.50648      4222.23400
 -11838112.16907  20514580.40407  -9206208.41449  20514576.76849      3242.51600
  -3192557.69906  23006859.95106  -2462648.89247  23006856.43647      3973.81300
  -3712023.40707  19932096.55307  -2889063.91349  19932092.20149       694.04700
  -1480719.24105  23822911.62305  -1142025.24447  23822907.23247      2541.76600
 -10500985.29807  21230237.22507  -8165537.84548  21230231.63948      2595.53100
   -180251.40007  20922516.27907   -142090.85349  20922511.56849      -490.96900
 08 11 10 23 53 44.9980000  0  7  3  6 13 16 21 23 31
 -14310710.31007  21067232.33407 -11122710.96648  21067229.03748      4216.60900
 -11886696.64507  20505334.91207  -9244066.44849  20505331.28749      3235.39100
  -3252119.50006  22995525.04506  -2509060.69347  22995522.82647      3967.76600
  -3722402.56007  19930121.74007  -2897151.56249  19930117.38949       689.81300
  -1518808.97705  23815663.90405  -1171705.55447  23815659.29547      2536.84400
 -10539848.87907  21222841.87307  -8195821.16848  21222836.35048      2586.29700
   -172848.39307  20923924.82607   -136322.27449  20923920.01849      -496.09400
 08 11 10 23 53 59.9980000  0  7  3  6 13 16 21 23 31
 -14373913.35307  21055205.06107 -11171960.08848  21055201.86948      4210.64100
 -11935171.02307  20496110.83407  -9281838.68849  20496107.12349      3228.03100
  -3311586.56206  22984209.18606  -2555398.64247  22984206.63547      3961.37500
  -3732715.56408  19928159.10708  -2905187.67049  19928154.49049       685.43800
  -1556822.20404  23808429.33404  -1201326.20747  23808425.45147      2531.78100
 -10578569.59207  21215473.65407  -8225993.15348  21215468.09248      2576.65600
   -165364.62407  20925348.97507   -130490.77449  20925344.66649      -501.59400
 08 11 10 23 54 14.9980000  0  7  3  6 13 16 21 23 31
 -14437026.30007  21043195.12307 -11221139.00348  21043192.76048      4204.68800
 -11983533.25107  20486907.74007  -9319523.54149  20486903.92449      3220.62500
  -3370956.93206  22972911.35706  -2601661.25547  22972908.18247      3954.92200
  -3742960.81507  19926209.12307  -2913170.98449  19926204.70149       680.98400
  -1594756.91405  23801210.92005  -1230885.69347  23801206.89647      2526.59400
 -10617145.59807  21208133.29507  -8256052.37848  21208127.14348      2567.09400
   -157798.29407  20926788.99807   -124594.93449  20926784.46749      -506.98400
 08 11 10 23 54 29.9980000  0  7  3  6 13 16 21 23 31
 -14500049.69807  21031202.45907 -11270248.12748  21031199.15848      4198.57800
 -12031784.32407  20477725.77907  -9357121.77549  20477722.58449      3213.04700
  -3430231.36706  22961631.75606  -2647849.12647  22961627.29547      3948.37500
  -3753139.51407  19924272.63907  -2921102.43649  19924267.92849       676.31300
  -1632613.82205  23794006.88105  -1260384.59347  23794002.83447      2521.21900
 -10655577.71307  21200819.96707  -8285999.47048  21200813.06448      2557.34400
   -150150.59207  20928244.38907   -118635.67549  20928240.34649      -512.56300
 08 11 10 23 54 44.9980000  0  7  3  6 13 16 21 23 31
 -14562981.61407  21019226.56107 -11319285.97048  21019223.18648      4192.29700
 -12079922.23907  20468565.60707  -9394631.84149  20468562.73649      3205.34400
  -3489407.73606  22950371.69306  -2693960.56947  22950366.42047      3941.76600
  -3763250.04307  19922348.73207  -2928980.77749  19922344.10749       671.71900
  -1670390.88205  23786818.77105  -1289821.24747  23786814.49847      2515.68800
 -10693863.95507  21193534.54507  -8315832.89148  21193527.15448      2547.46900
   -142419.69607  20929715.18607   -112611.60249  20929711.05349      -518.20300
 08 11 10 23 54 59.9980000  0  7  3  6 13 16 21 23 31
 -14625820.32407  21007268.76407 -11368251.20548  21007265.37748      4186.25000
 -12127945.16207  20459426.87307  -9432052.29149  20459423.69749      3197.78100
  -3548484.08906  22939129.04506  -2739994.06347  22939124.58047      3935.23400
  -3773290.81208  19920437.77108  -2936804.75849  19920432.93949       667.14100
  -1708086.17305  23779646.66205  -1319194.17947  23779640.39647      2510.37500
 -10732002.53907  21186276.63107  -8345551.26848  21186270.51848      2537.73400
   -134603.88206  20931202.57606   -106521.37749  20931198.68249      -523.78100
 08 11 10 23 55 14.9980000  0  7  3  6 13 16 21 23 31
 -14688570.08007  20995327.86507 -11417147.12248  20995324.90048      4180.51600
 -12175857.56207  20450309.56807  -9469386.63249  20450306.38549      3190.59400
  -3607464.70706  22927905.45106  -2785952.95847  22927901.32247      3929.06300
  -3783266.52407  19918539.52907  -2944578.04049  19918534.27949       663.06300
  -1745704.13205  23772485.51405  -1348506.85746  23772482.48246      2505.43800
 -10769997.69407  21179046.43607  -8375157.87448  21179040.91248      2528.37500
   -126707.91407  20932705.30307   -100368.68349  20932701.37349      -528.90600
 08 11 10 23 55 29.9980000  0  7  3  6 13 16 21 23 31
 -14751232.61907  20983403.51407 -11465975.07448  20983401.16648      4174.64100
 -12223661.38707  20441212.70907  -9506636.36849  20441209.86949      3183.26600
  -3666351.35706  22916700.13906  -2831838.64847  22916695.57647      3922.68800
  -3793179.40507  19916652.89607  -2952302.37349  19916648.16249       658.81300
  -1783246.76004  23765341.06104  -1377760.85646  23765338.19346      2500.45300
 -10807851.37907  21171842.61507  -8404654.25848  21171837.59248      2518.92200
   -118733.87307  20934222.41207    -94155.15649  20934218.13949      -534.12500
 08 11 10 23 55 44.9980000  0  7  3  6 13 16 21 23 31
 -14813806.56607  20971496.15407 -11514733.99348  20971493.41648      4168.25000
 -12271355.26107  20432136.47507  -9543800.41749  20432133.97149      3175.60900
  -3725142.52806  22905512.32606  -2877649.92947  22905508.17447      3915.96900
  -3803028.63008  19914778.92008  -2959977.10249  19914774.22149       654.21900
  -1820712.43005  23758211.86505  -1406954.89947  23758208.38547      2494.79700
 -10845562.38107  21164666.47507  -8434039.47248  21164661.58448      2508.93800
   -110680.54207  20935755.17807    -87879.85049  20935751.31849      -539.92200
 08 11 10 23 55 59.9980000  0  7  3  6 13 16 21 23 31
 -14876287.91907  20959605.89607 -11563420.76048  20959603.81448      4162.37500
 -12318935.21307  20423082.56107  -9580875.69649  20423079.70549      3168.25000
  -3783833.87506  22894343.58406  -2923383.44747  22894340.47547      3909.50000
  -3812810.54108  19912917.45908  -2967599.37249  19912912.61149       649.90600
  -1858097.15604  23751098.82604  -1436085.79747  23751094.67047      2489.78100
 -10883126.74207  21157518.85707  -8463310.41248  21157513.35048      2499.43800
   -102544.10507  20937303.32607    -81539.78449  20937299.33849      -545.07800
 08 11 10 23 56 14.9980000  0  7  3  6 13 16 21 23 31
 -14938676.72007  20947733.76407 -11612035.39448  20947730.95548      4156.15600
 -12366401.47307  20414049.99007  -9617862.39349  20414046.78349      3160.75000
  -3842425.42206  22883193.14606  -2969039.21647  22883190.00247      3902.81300
  -3822525.61308  19911068.50608  -2975169.56749  19911064.00249       645.51600
  -1895400.99405  23744000.95905  -1465153.71047  23743996.61547      2484.34400
 -10920544.68507  21150398.39607  -8492467.25748  21150392.39648      2489.70300
    -94324.82807  20938867.63107    -75135.15949  20938863.84249      -550.60900
 08 11 10 23 56 29.9980000  0  7  3  6 13 16 21 23 31
 -15000976.06207  20935878.57607 -11660580.33948  20935876.29948      4150.20300
 -12413757.07707  20405038.71707  -9654762.85549  20405035.45149      3153.21900
  -3900920.41706  22872061.85706  -3014619.72447  22872058.76047      3896.29700
  -3832177.19907  19909232.02107  -2982690.27949  19909227.63149       641.25000
  -1932626.80704  23736917.05304  -1494160.82047  23736913.06447      2479.07800
 -10957819.14307  21143305.50607  -8521512.29448  21143298.93648      2480.03100
    -86026.07007  20940446.75607    -68668.61349  20940442.62349      -556.04700
 08 11 10 23 56 44.9980000  0  7  3  6 13 16 21 23 31
 -15063182.28307  20924041.33407 -11709052.71248  20924038.28748      4143.96900
 -12460998.54507  20396048.97507  -9691574.39949  20396046.04549      3145.67200
  -3959315.09806  22860949.70906  -3060122.04247  22860946.78347      3889.60900
  -3841762.11608  19907408.18608  -2990159.05049  19907403.62349       636.75000
  -1969771.12004  23729848.38104  -1523104.39747  23729844.04947      2473.68800
 -10994946.53407  21136240.42807  -8550442.73248  21136233.77548      2470.21900
    -77644.47207  20942041.87307    -62137.51349  20942036.95549      -561.50000
 08 11 10 23 56 59.9980000  0  7  3  6 13 16 21 23 31
 -15125297.03907  20912221.12307 -11757453.82548  20912217.79548      4137.98400
 -12508127.85907  20387080.46707  -9728298.53349  20387077.34649      3138.26600
  -4017611.09606  22849856.05306  -3105547.52346  22849852.97946      3883.12500
  -3851282.55208  19905596.43608  -2997577.57849  19905591.45549       632.60900
  -2006835.70005  23722794.57605  -1551985.90247  23722790.89647      2468.34400
 -11031928.88707  21129202.49007  -8579260.12848  21129195.63148      2460.65600
    -69182.11407  20943652.16207    -55543.47249  20943647.89349      -566.81300
 08 11 10 23 57 14.9980000  0  7  3  6 13 16 21 23 31
 -15187319.67907  20900418.77907 -11805783.16348  20900415.30348      4131.76600
 -12555144.25607  20378133.38907  -9764934.69249  20378130.35449      3130.57800
  -4075808.14206  22838781.99806  -3150895.88447  22838778.12347      3876.42200
  -3860738.03108  19903797.31808  -3004945.49649  19903792.23249       628.15600
  -2043819.79005  23715757.35005  -1580804.67647  23715753.40447      2462.85900
 -11068765.47907  21122192.56807  -8607963.96448  21122186.15048      2450.76600
    -60638.46807  20945277.96707    -48886.10549  20945273.40849      -572.29700
 08 11 10 23 57 29.9980000  0  7  3  6 13 16 21 23 31
 -15249248.98007  20888633.80307 -11854039.75248  20888631.35448      4125.40600
 -12602046.32607  20369208.10707  -9801481.75549  20369205.16249      3122.85900
  -4133904.37906  22827726.99006  -3196165.67547  22827722.92847      3869.50000
  -3870127.61608  19902010.64608  -3012262.05649  19902005.61149       623.62500
  -2080722.02005  23708734.88905  -1609559.67047  23708730.88947      2457.35900
 -11105454.94707  21115210.71707  -8636553.16548  21115204.63148      2440.95300
    -52012.32507  20946919.52107    -42164.44449  20946914.85049      -578.00000
 08 11 10 23 57 44.9980000  0  7  3  6 13 16 21 23 31
 -15311083.38307  20876867.34207 -11902222.39648  20876864.24848      4119.25000
 -12648833.01907  20360305.30307  -9837938.90949  20360302.06849      3115.31300
  -4191898.11106  22816691.60006  -3241355.53547  22816686.96347      3862.93800
  -3879450.28708  19900236.63908  -3019526.47749  19900231.84249       619.40600
  -2117540.98805  23701728.69305  -1638249.79646  23701724.40446      2451.89100
 -11141995.92007  21108257.27107  -8665026.66348  21108251.22948      2431.25000
    -43302.69407  20948577.23207    -35377.72949  20948573.06449      -583.32800
 08 11 10 23 57 59.9980000  0  7  3  6 13 16 21 23 31
 -15372823.14807  20865118.52107 -11950331.30448  20865115.33448      4113.03100
 -12695504.57207  20351424.36507  -9874306.34049  20351421.25249      3107.81300
  -4249789.82206  22805674.60706  -3286465.95247  22805670.69747      3856.28100
  -3888706.92808  19898475.26408  -3026739.45649  19898470.90449       615.07800
  -2154277.15705  23694737.05305  -1666875.38046  23694733.54946      2446.39100
 -11178389.05207  21101332.02907  -8693384.96048  21101326.01048      2421.43800
    -34510.30707  20950250.10707    -28526.51549  20950246.09249      -588.75000
 08 11 10 23 58 14.9980000  0  7  3  6 13 16 21 23 31
 -15434470.70807  20853387.38107 -11998368.35348  20853384.84648      4106.56300
 -12742063.41407  20342564.04507  -9910585.96149  20342560.07249      3099.92200
  -4307581.86306  22794677.29506  -3331498.72447  22794673.58047      3849.21900
  -3897900.09308  19896725.59208  -3033902.96249  19896721.35449       610.56300
  -2190932.72405  23687762.84205  -1695438.13346  23687757.88546      2440.85900
 -11214636.46707  21094434.65407  -8721629.69148  21094428.84648      2411.35900
    -25637.52307  20951938.59207    -21612.67249  20951934.03349      -594.28100
 08 11 10 23 58 29.9980000  0  7  3  6 13 16 21 23 31
 -15496022.65707  20841674.33407 -12046330.91348  20841671.67448      4100.39100
 -12788506.39407  20333726.13107  -9946775.29549  20333722.90049      3092.51600
  -4365269.96406  22783698.98206  -3376450.49247  22783695.97547      3842.60900
  -3907026.97407  19894988.85707  -3041014.81649  19894984.62749       606.43800
  -2227504.35504  23680803.07604  -1723935.51646  23680799.56446      2435.51600
 -11250735.19308  21087565.17808  -8749758.57248  21087559.53348      2401.75000
    -16681.36507  20953643.27107    -14633.85249  20953638.76449      -599.71900
 08 11 10 23 58 44.9980000  0  7  3  6 13 16 21 23 31
 -15557480.32307  20829979.54507 -12094219.98048  20829975.90048      4093.85900
 -12834834.94107  20324909.94307  -9982875.45449  20324907.18949      3084.57800
  -4422856.17506  22772741.13106  -3421322.86347  22772737.66647      3835.48400
  -3916089.23607  19893264.31107  -3048076.31949  19893260.21749       601.78100
  -2263993.29404  23673859.73204  -1752368.40246  23673855.38946      2429.64100
 -11286686.38807  21080724.12307  -8777772.49748  21080717.92448      2391.67200
     -7643.32207  20955363.02907     -7591.24849  20955358.39349      -605.48400
 08 11 10 23 58 59.9980000  0  7  3  6 13 16 21 23 31
 -15618839.93807  20818303.13107 -12142032.66048  20818300.24048      4087.45300
 -12881045.39307  20316116.74807 -10018883.60049  20316113.36949      3076.81300
  -4480336.89806  22761803.62306  -3466113.05847  22761799.85047      3828.62500
  -3925083.55808  19891552.44308  -3055084.88149  19891547.96349       597.43800
  -2300395.87604  23666931.77904  -1780734.07847  23666928.22147      2424.01600
 -11322486.52607  21073911.01407  -8805668.70948  21073905.09248      2381.75000
      1479.89007  20957099.13107      -482.26449  20957094.22949      -610.90600
 08 11 10 23 59 14.9980000  0  7  3  6 13 16 21 23 31
 -15680103.96407  20806645.12307 -12189770.85948  20806641.59248      4081.12500
 -12927140.23307  20307345.02107 -10054801.64949  20307341.67449      3069.17200
  -4537714.33906  22750885.51406  -3510822.73347  22750881.08847      3821.71900
  -3934012.72307  19889853.24007  -3062042.66949  19889849.07249       593.12500
  -2336714.72804  23660021.61504  -1809034.45646  23660017.11546      2418.56300
 -11358138.05607  21067126.94307  -8833449.12548  21067121.08048      2371.84400
     10685.72507  20958850.96707      6691.11749  20958846.37749      -616.43800
 08 11 10 23 59 29.9980000  0  7  3  6 13 16 21 23 31
 -15741275.74107  20795004.03707 -12237437.18049  20795001.18249      4074.93800
 -12973122.97807  20298595.06107 -10090632.35649  20298591.23649      3061.65600
  -4594991.33106  22739985.35006  -3555454.14347  22739980.89347      3814.93800
  -3942880.40907  19888165.87307  -3068952.56249  19888161.57649       589.04700
  -2372952.93004  23653125.53704  -1837272.03047  23653121.20547      2413.03100
 -11393644.51807  21060370.40407  -8861116.51148  21060364.88548      2362.15600
     19970.57707  20960617.75607     13926.06349  20960613.08049      -621.65600
 08 11 10 23 59 44.9980000  0  7  3  6 13 16 21 23 31
 -15802352.85307  20783381.61507 -12285029.72348  20783378.56148      4068.75000
 -13018991.14307  20289866.72507 -10126373.78649  20289863.29149      3054.18800
  -4652165.09906  22729105.94306  -3600005.12947  22729101.16247      3808.28100
  -3951684.75307  19886490.52107  -3075813.09449  19886486.01049       584.96900
  -2409108.09705  23646245.09205  -1865444.84346  23646240.83046      2407.70300
 -11429003.56207  21053641.80307  -8888669.02548  21053635.81148      2352.46900
     29336.73607  20962399.88907     21224.36249  20962395.00249      -627.03100
 08 11 10 23 59 59.9980000  0  7  3  6 13 16 21 23 31
 -15863335.40007  20771777.16207 -12332548.58849  20771774.13149      4062.26600
 -13064744.98807  20281159.81807 -10162026.12849  20281156.70549      3046.37500
  -4709236.33206  22718245.02106  -3644476.23047  22718240.59247      3801.20300
  -3960426.06508  19884827.24808  -3082624.51549  19884822.68249       580.54700
  -2445180.20304  23639380.82604  -1893552.95246  23639376.43246      2401.98400
 -11464215.38007  21046941.41207  -8916106.81048  21046935.01448      2342.46900
     38783.69107  20964198.13907     28585.62749  20964192.69349      -632.57800
 08 11 11  0  0 14.9980000  0  7  3  6 13 16 21 23 31
 -15924219.91807  20760191.16207 -12379991.05648  20760188.03748      4055.85900
 -13110381.27707  20272475.74807 -10197586.86049  20272472.48249      3038.64100
  -4766202.05906  22707404.74806  -3688865.11347  22707400.73247      3794.32800
  -3969101.43607  19883176.62307  -3089384.56049  19883171.66649       576.23400
  -2481165.95104  23632532.20904  -1921593.79746  23632527.92046      2396.31300
 -11499276.62907  21040269.86507  -8943427.27148  21040262.86548      2332.51600
     48314.54907  20966011.12307     36012.26049  20966007.06849      -638.01600
 08 11 11  0  0 29.9980000  0  7  3  6 13 16 21 23 31
 -15985012.02707  20748622.76407 -12427361.51748  20748620.11148      4049.56300
 -13155905.65307  20263812.60707 -10233060.40049  20263809.38949      3031.07800
  -4823067.42506  22696583.27106  -3733175.77847  22696579.91647      3787.48400
  -3977716.79907  19881536.97507  -3096097.82949  19881532.49849       572.20300
  -2517070.94804  23625699.70104  -1949571.70346  23625695.91246      2390.84400
 -11534192.83507  21033625.31807  -8970634.70348  21033618.70548      2322.73400
     57923.53207  20967839.45907     43499.77249  20967835.25249      -643.37500
 08 11 11  0  0 44.9980000  0  7  3  6 13 16 21 23 31
 -16045707.69007  20737072.49807 -12474656.82748  20737069.55748      4043.18800
 -13201314.17807  20255171.42007 -10268443.67049  20255169.00249      3023.40600
  -4879828.00106  22685782.26406  -3777404.80947  22685778.39347      3780.62500
  -3986268.40707  19879909.50607  -3102761.42449  19879905.29949       567.98400
  -2552891.16305  23618883.43605  -1977483.54546  23618879.48646      2385.23400
 -11568960.16807  21027009.50607  -8997726.14448  21027002.92048      2312.92200
     67614.28407  20969684.10707     51050.99749  20969679.46749      -648.71900
 08 11 11  0  0 59.9980000  0  7  3  6 13 16 21 23 31
 -16106307.94307  20725540.94307 -12521877.79348  20725537.84648      4036.95300
 -13246607.86507  20246552.45107 -10303737.44849  20246549.28349      3015.79700
  -4936484.42106  22675001.11506  -3821552.68847  22674996.43247      3773.65600
  -3994757.64707  19878294.04507  -3109376.41449  19878289.90449       563.96900
  -2588627.51605  23612083.88905  -2005330.05646  23612078.92046      2379.70300
 -11603579.58407  21020421.06807  -9024702.31048  21020415.13148      2303.09400
     77385.80407  20971543.35007     58665.15749  20971538.84649      -654.04700
 08 11 11  0  1 14.9980000  0  7  3  6 13 16 21 23 31
 -16166811.11707  20714027.29507 -12569023.12448  20714024.23648      4030.28100
 -13291785.24207  20237955.42807 -10338940.59549  20237952.66249      3007.85900
  -4993035.13206  22664240.37306  -3865618.18447  22664236.27147      3766.53100
  -4003183.35407  19876690.95907  -3115941.91349  19876686.18649       559.57800
  -2624278.52705  23605299.25605  -2033110.07347  23605294.66247      2373.78100
 -11638049.68307  21013861.38107  -9051562.13748  21013855.85448      2292.93800
     87239.18607  20973418.27907     66343.10649  20973413.49049      -659.60900
 08 11 11  0  1 29.9980000  0  7  3  6 13 16 21 23 31
 -16227215.67107  20702532.83407 -12616091.60048  20702529.42048      4023.93800
 -13336844.99207  20229381.01407 -10374052.08249  20229378.14649      3000.32800
  -5049479.05707  22653498.91207  -3909600.42947  22653495.42847      3759.59400
  -4011544.40508  19875100.02908  -3122457.01749  19875094.87349       555.46900
  -2659842.68005  23598532.20905  -2060822.37747  23598527.43947      2368.14100
 -11672369.09607  21007330.74807  -9078304.54548  21007325.17448      2283.14100
     97175.89107  20975309.04507     74085.98749  20975304.77549      -664.96900
 08 11 11  0  1 44.9980000  0  7  3  6 13 16 21 23 31
 -16287524.40707  20691056.29507 -12663085.40849  20691053.19749      4017.34400
 -13381789.94607  20220828.09207 -10409074.12949  20220825.32249      2992.50000
  -5105818.62206  22642778.28706  -3953501.39447  22642774.06447      3752.45300
  -4019843.98508  19873520.86508  -3128924.22349  19873515.25249       551.26600
  -2695322.69905  23591779.63105  -2088469.12547  23591775.66247      2362.54700
 -11706540.74507  21000828.56807  -9104931.82048  21000822.19748      2273.07800
    107192.85507  20977215.27107     81891.39849  20977211.26849      -670.50000
 08 11 11  0  1 59.9980000  0  7  3  6 13 16 21 23 31
 -16347736.85007  20679598.35007 -12710004.19749  20679595.18949      4010.87500
 -13426619.67007  20212297.12307 -10444006.38249  20212294.38149      2984.78100
  -5162052.31207  22632077.68607  -3997319.84747  22632072.16647      3745.39100
  -4028081.94407  19871952.83407  -3135343.41649  19871947.69349       547.04700
  -2730718.02405  23585044.24805  -2116049.89546  23585040.52146      2356.85900
 -11740564.09407  20994354.27907  -9131443.52248  20994347.76048      2263.21900
    117290.19507  20979136.92807     89759.44349  20979132.58849      -675.89100
 08 11 11  0  2 14.9980000  0  7  3  6 13 16 21 23 31
 -16407850.23406  20668159.27106 -12756845.77949  20668156.37349      4004.34400
 -13471331.63607  20203789.19307 -10478846.87949  20203786.50249      2976.98400
  -5218178.49507  22621396.86507  -4041054.51847  22621392.00647      3738.31300
  -4036256.08207  19870397.49007  -3141712.87349  19870392.15449       542.98400
  -2766025.94805  23578325.11505  -2143562.59146  23578321.82646      2351.15600
 -11774436.51807  20987908.27107  -9157837.62048  20987901.86948      2253.29700
    127470.37407  20981074.29507     97692.03449  20981069.98649      -681.32800
 08 11 11  0  2 29.9980000  0  7  3  6 13 16 21 23 31
 -16467866.32907  20656738.34207 -12803611.56449  20656735.57249      3997.82800
 -13515927.62207  20195302.73207 -10513596.99249  20195299.49849      2969.21900
  -5274199.28806  22610736.19306  -4084707.08447  22610731.80747      3731.20300
  -4044368.38507  19868853.51407  -3148034.14449  19868848.21349       538.78100
  -2801248.23404  23571621.96704  -2171008.48546  23571619.05746      2345.37500
 -11808159.94507  20981491.01407  -9184115.62248  20981484.30748      2243.23400
    137731.47207  20983026.65407    105687.69749  20983022.34249      -686.79700
 08 11 11  0  2 44.9980000  0  7  3  6 13 16 21 23 31
 -16527783.51707  20645336.81807 -12850300.27949  20645333.73249      3991.09400
 -13560406.07707  20186838.61507 -10548255.53849  20186835.31149      2961.26600
  -5330112.31106  22600096.47506  -4128275.65547  22600093.05747      3723.81300
  -4052417.65907  19867321.78707  -3154306.29749  19867317.00249       534.48400
  -2836383.34304  23564936.85004  -2198386.52346  23564932.51046      2339.34400
 -11841732.88507  20975101.99007  -9210276.35748  20975095.45548      2233.14100
    148074.88707  20984995.34207    113747.49649  20984991.18649      -692.31300
 08 11 11  0  2 59.9980000  0  7  3  6 13 16 21 23 31
 -16587602.22307  20633953.49807 -12896912.24849  20633951.44349      3984.64100
 -13604767.45907  20178396.99007 -10582822.84549  20178393.79549      2953.56300
  -5385918.14606  22589476.75606  -4171760.73147  22589473.50247      3716.85900
  -4060404.64308  19865801.92008  -3160529.91849  19865797.35749       530.35900
  -2871431.56704  23558267.20904  -2225696.77446  23558263.23246      2333.70300
 -11875155.75307  20968741.18607  -9236320.14348  20968735.27148      2223.12500
    158499.89007  20986978.99807    121870.86049  20986974.75249      -697.76600
 08 11 11  0  3 14.9980000  0  7  3  6 13 16 21 23 31
 -16647324.66107  20622588.99807 -12943449.20449  20622586.70549      3978.40600
 -13649014.44007  20169977.23207 -10617301.01249  20169974.06149      2946.06300
  -5441619.02106  22578876.77106  -4215164.01547  22578873.24047      3709.98400
  -4068332.16907  19864293.56807  -3166707.21349  19864288.67449       526.68800
  -2906395.40405  23551613.74805  -2252941.34347  23551610.30747      2328.31300
 -11908431.00607  20962409.72507  -9262248.90848  20962404.26848      2213.56300
    169003.72807  20988977.92807    130055.67149  20988974.04149      -702.81300
 08 11 11  0  3 29.9980000  0  7  3  6 13 16 21 23 31
 -16706950.80307  20611242.53707 -12989911.11549  20611239.64349      3971.90600
 -13693146.86207  20161578.85707 -10651689.92149  20161575.54549      2938.46900
  -5497214.25906  22568298.00606  -4258484.98047  22568293.69347      3702.84400
  -4076200.49607  19862796.16207  -3172838.37349  19862792.02149       522.60900
  -2941274.65604  23544977.22504  -2280119.97646  23544973.07246      2322.60900
 -11941558.70307  20956105.32607  -9288062.70548  20956100.10448      2203.65600
    179586.32107  20990991.25607    138301.83649  20990987.05349      -708.09400
 08 11 11  0  3 44.9980000  0  7  3  6 13 16 21 23 31
 -16766479.62207  20599914.20907 -13036297.19749  20599911.34249      3965.34400
 -13737163.59007  20153202.69307 -10685988.66849  20153199.35449      2930.64100
  -5552702.36706  22557738.68606  -4301722.47847  22557734.29947      3695.70300
  -4084008.74408  19861310.50608  -3178922.71549  19861305.59649       518.57800
  -2976068.14604  23538355.99804  -2307231.75646  23538352.56146      2316.65600
 -11974537.75507  20949829.57607  -9313760.68048  20949824.62748      2193.67200
    190248.70307  20993020.81107    146610.17649  20993016.47949      -713.46900
 08 11 11  0  3 59.9980000  0  7  3  6 13 16 21 23 31
 -16825907.69907  20588605.58407 -13082604.77749  20588602.40449      3958.65600
 -13781061.29107  20144849.24807 -10720194.66149  20144846.03749      2922.73400
  -5608080.94806  22547200.07606  -4344874.61247  22547196.40847      3688.40600
  -4091753.75508  19859836.30308  -3184957.78149  19859832.30749       514.42200
  -3010772.41505  23531751.87305  -2334274.06646  23531747.50246      2310.90600
 -12007364.75207  20943583.15407  -9339340.15248  20943577.51848      2183.50000
    200994.10507  20995065.56107    154983.20349  20995060.74449      -718.95300
 08 11 11  0  4 14.9980000  0  7  3  6 13 16 21 23 31
 -16885236.48007  20577315.85007 -13128834.99149  20577312.65849      3952.07800
 -13824841.99407  20136518.34207 -10754309.49249  20136514.76049      2914.82800
  -5663350.97806  22536682.70906  -4387942.15647  22536679.29947      3681.14100
  -4099437.85207  19858373.97507  -3190945.38649  19858370.30749       510.31300
  -3045389.17604  23525164.25604  -2361248.17146  23525160.41246      2304.90600
 -12040041.59107  20937365.54507  -9364802.64248  20937359.24048      2173.51600
    211820.39507  20997125.41207    163419.25049  20997120.45549      -724.48400
 08 11 11  0  4 29.9980000  0  7  3  6 13 16 21 23 31
 -16944464.73007  20566045.22507 -13174986.86949  20566041.36549      3945.37500
 -13868504.35107  20128209.46707 -10788332.11049  20128205.76849      2907.03100
  -5718511.50506  22526186.71706  -4430924.37247  22526182.47547      3673.82800
  -4107060.02608  19856923.67808  -3196884.75049  19856919.29149       506.28100
  -3079916.84804  23518593.57604  -2388152.83046  23518589.25246      2298.98400
 -12072566.96007  20931176.16207  -9390147.08548  20931170.03348      2163.51600
    222728.70907  20999201.45107    171919.22449  20999196.45549      -729.79700
 08 11 11  0  4 44.9980000  0  7  3  6 13 16 21 23 31
 -17003593.54907  20554793.18607 -13221061.26049  20554789.59249      3938.54700
 -13912049.59707  20119922.96707 -10822263.46849  20119919.70149      2899.04700
  -5773562.88006  22515711.06106  -4473821.55047  22515706.88147      3666.39100
  -4114621.75307  19855484.73207  -3202777.00849  19855480.53349       502.03100
  -3114356.85304  23512040.33404  -2414989.17446  23512036.16246      2293.04700
 -12104942.16207  20925015.27907  -9415374.51248  20925009.05748      2153.32800
    233717.47807  21001292.40407    180481.90149  21001287.54549      -735.32800
 08 11 11  0  4 59.9980000  0  7  3  6 13 16 21 23 31
 -17062625.30806  20543559.77106 -13267060.02549  20543556.63149      3931.70300
 -13955480.12807  20111658.65407 -10856105.43949  20111655.08849      2891.12500
  -5828507.95606  22505255.01406  -4516635.89247  22505251.06447      3658.95300
  -4122125.82407  19854056.82607  -3208624.34249  19854052.70549       497.85900
  -3148711.69305  23505502.75605  -2441759.15846  23505498.27146      2287.03100
 -12137169.53107  20918882.17807  -9440486.75548  20918876.29148      2143.15600
    244784.18907  21003397.96707    189105.29249  21003393.51449      -740.85900
 08 11 11  0  5 14.9980000  0  7  3  6 13 16 21 23 31
 -17121555.06807  20532345.60007 -13312979.30949  20532341.94349      3925.28100
 -13998791.12607  20103416.82607 -10889854.27449  20103413.68649      2883.42200
  -5883341.55906  22494820.01406  -4559363.37547  22494816.79547      3651.82800
  -4129567.50607  19852640.95107  -3214423.05249  19852636.44349       494.01600
  -3182976.07704  23498982.47504  -2468458.69046  23498977.95546      2281.28100
 -12169244.26307  20912778.48207  -9465480.04648  20912772.43648      2133.25000
    255933.72207  21005520.22507    197793.22749  21005515.43249      -746.10900
 08 11 11  0  5 29.9980000  0  7  3  6 13 16 21 23 31
 -17180383.46506  20521150.77906 -13358819.61149  20521147.84249      3918.60900
 -14041983.16507  20095197.75607 -10923510.40049  20095194.72149      2875.70300
  -5938063.76806  22484405.77106  -4602004.05147  22484403.37747      3644.60900
  -4136947.59208  19851236.76408  -3220173.76549  19851231.26049       490.07800
  -3217150.62904  23492478.88104  -2495088.21746  23492474.72546      2275.39100
 -12201167.03507  20906704.27107  -9490354.93148  20906697.93248      2123.29700
    267165.10407  21007657.54507    206544.95549  21007652.29549      -751.32800
 08 11 11  0  5 44.9980000  0  7  3  6 13 16 21 23 31
 -17239110.38307  20509975.62307 -13404580.84549  20509972.32249      3911.62500
 -14085056.55607  20087001.35707 -10957074.08849  20086998.26449      2867.46900
  -5992674.76006  22474014.56806  -4644558.06947  22474010.87347      3636.95300
  -4144266.66607  19849843.61507  -3225876.94549  19849838.64649       485.78100
  -3251235.48005  23485993.19305  -2521647.84846  23485988.74046      2269.20300
 -12232938.03907  20900658.24807  -9515111.56648  20900652.26448      2112.85900
    278478.16907  21009810.31107    215360.32149  21009805.45949      -757.09400
 08 11 11  0  5 59.9980000  0  7  3  6 13 16 21 23 31
 -17297735.69007  20498819.53707 -13450262.89549  20498816.40449      3905.03100
 -14128011.08507  20078827.05307 -10990545.15049  20078824.08049      2859.70300
  -6047174.47306  22463643.98206  -4687025.36147  22463638.94747      3629.64100
  -4151524.77207  19848462.35707  -3231532.62049  19848457.86149       481.93800
  -3285230.19104  23479523.57604  -2548137.21546  23479520.02546      2263.54700
 -12264557.11307  20894641.31807  -9539749.80648  20894635.50248      2102.90600
    289872.88707  21011978.35007    224239.30749  21011974.40449      -762.32800
 08 11 11  0  6 14.9980000  0  7  3  6 13 16 21 23 31
 -17356260.38107  20487683.10707 -13495866.53549  20487679.86549      3898.39100
 -14170847.88207  20070675.38907 -11023924.47449  20070672.05749      2851.95300
  -6101563.69406  22453294.16206  -4729406.56647  22453289.85047      3622.32800
  -4158723.46307  19847092.56107  -3237141.98949  19847087.99049       478.04700
  -3319135.93304  23473072.11504  -2574557.26946  23473067.54146      2257.35900
 -12296025.41207  20888653.03707  -9564270.56748  20888647.97948      2092.90600
    301347.71407  21014162.16207    233180.72749  21014157.54549      -767.56300
 08 11 11  0  6 29.9980000  0  8  3  6 13 16 19 21 23 31
 -17414682.36207  20476565.62307 -13541390.15849  20476562.55749      3891.64100
 -14213565.10707  20062546.79507 -11057210.62149  20062543.65449      2844.14100
  -6155840.35906  22442966.17006  -4771700.06147  22442961.26047      3614.92200
  -4165861.02008  19845734.27108  -3242703.72549  19845729.39349       474.09400
   -217868.91114  23249220.56104   -152998.52257  23249216.29947      4842.84400
  -3352950.82605  23466637.16205  -2600906.56646  23466632.81146      2251.57800
 -12327341.10707  20882694.06107  -9588672.40148  20882688.25648      2082.84400
    312904.49007  21016360.92007    242186.01349  21016356.44749      -772.93800
 08 11 11  0  6 44.9980000  0  8  3  6 13 16 19 21 23 31
 -17473005.32307  20465466.78707 -13586836.61249  20465463.79549      3884.81300
 -14256166.68307  20054440.05307 -11090406.66249  20054436.51849      2836.07800
  -6210008.07406  22432657.60006  -4813908.67047  22432653.75247      3607.37500
  -4172941.59707  19844387.14607  -3248221.06149  19844382.17449       469.95300
   -290494.69403  23235400.89603   -209590.04247  23235396.62747      4840.67200
  -3386678.67805  23460219.13105  -2627187.94646  23460213.68646      2245.46900
 -12358508.06707  20876763.00607  -9612958.35648  20876757.21348      2072.75000
    324539.39507  21018575.22507    251252.17249  21018570.55349      -778.40600
 08 11 11  0  6 59.9980000  0  8  3  6 13 16 19 21 23 31
 -17531227.68407  20454387.75607 -13632204.66649  20454384.63149      3878.35900
 -14298650.67007  20046355.31107 -11123511.07049  20046351.66249      2828.54700
  -6264065.05606  22422371.10006  -4856030.99447  22422367.17047      3600.34400
  -4179963.72407  19843050.64607  -3253692.84749  19843045.08049       466.43800
   -363089.95205  23221587.02105   -266157.74347  23221581.88947      4838.84400
  -3420317.46005  23453818.19305  -2653400.00946  23453813.54146      2239.71900
 -12389524.50707  20870860.63107  -9637127.02348  20870854.47148      2063.00000
    336253.90707  21020804.14607    260380.34649  21020799.83049      -783.40600
 08 11 11  0  7 14.9980000  0  8  3  6 13 16 19 21 23 31
 -17589349.76507  20443327.35007 -13677494.60049  20443323.80749      3871.48400
 -14341017.62507  20038293.14607 -11156524.27849  20038289.89349      2820.59400
  -6318011.77006  22412104.65406  -4898067.36347  22412101.36147      3592.84400
  -4186927.95907  19841725.43607  -3259119.52349  19841720.54949       462.39100
   -435654.85504  23207778.42004   -322701.82747  23207772.79947      4836.68800
  -3453867.30805  23447433.68605  -2679542.71046  23447428.95546      2233.76600
 -12420390.76507  20864987.12307  -9661178.67048  20864979.93948      2052.71900
    348047.41207  21023048.60007    269570.07749  21023043.95549      -788.85900
 08 11 11  0  7 29.9980000  0  8  3  6 13 16 19 21 23 31
 -17647370.57207  20432286.94307 -13722705.62049  20432283.20949      3864.37500
 -14383266.77607  20030253.56807 -11189445.69849  20030250.24449      2812.43800
  -6371846.85606  22401860.46706  -4940016.81547  22401856.50647      3585.09400
  -4193833.98708  19840411.12308  -3264500.83649  19840405.80749       458.23400
   -508188.65004  23193975.60004   -379221.66047  23193970.07247      4834.23400
  -3487327.67105  23441066.60005  -2705615.71546  23441061.58046      2227.48400
 -12451106.16707  20859142.10007  -9685112.74748  20859135.59648      2042.42200
    359920.41407  21025307.98207    278821.76449  21025302.94349      -794.51600
 08 11 11  0  7 44.9980000  0  8  3  6 13 16 19 21 23 31
 -17705288.43307  20421265.62307 -13767836.41249  20421261.30749      3857.82800
 -14425396.70707  20022236.36507 -11222274.21049  20022232.90449      2804.87500
  -6425569.02206  22391637.90406  -4981878.22947  22391633.36147      3577.79700
  -4200680.65608  19839108.56808  -3269835.90949  19839103.83849       454.59400
   -580689.67603  23180178.67003   -435715.94047  23180173.67447      4832.39100
  -3520697.05605  23434715.78705  -2731617.83146  23434711.93246      2221.60900
 -12481669.32807  20853326.52107  -9708928.19148  20853319.95148      2032.62500
    371874.31607  21027582.82607    288136.48349  21027577.82649      -799.56300
 08 11 11  0  7 59.9980000  0  8  3  6 13 16 19 21 23 31
 -17763102.42707  20410263.35707 -13812886.27749  20410259.93249      3850.73400
 -14467406.43007  20014242.26407 -11255009.05149  20014238.99849      2796.54700
  -6479176.96806  22381436.34206  -5023650.66147  22381432.36947      3570.03100
  -4207467.06907  19837816.77907  -3275124.02449  19837812.13949       450.40600
   -653156.68504  23166388.33404   -492183.72147  23166383.40447      4829.98400
  -3553974.21505  23428383.92005  -2757548.06646  23428378.50646      2215.40600
 -12512079.18607  20847539.86507  -9732624.17748  20847532.55348      2022.17200
    383909.94207  21029873.23207    297514.87449  21029868.72149      -805.10900
 08 11 11  0  8 14.9980000  0  8  3  6 13 16 19 21 23 31
 -17820814.29307  20399280.88907 -13857856.54549  20399277.86949      3844.15600
 -14509297.80907  20006270.58407 -11287651.68949  20006267.87749      2788.92200
  -6532671.94906  22371256.65406  -5065335.03947  22371252.87347      3562.76600
  -4214195.38608  19836536.38108  -3280366.86649  19836531.90449       446.79700
   -725591.48304  23152604.82604   -548626.43647  23152599.80347      4828.09400
  -3587160.94404  23422068.03704  -2783407.86046  23422064.08846      2209.46900
 -12542337.80207  20841781.39607  -9756202.32548  20841774.95548      2012.31300
    396025.27807  21032178.13107    306955.38149  21032174.15849      -810.20300
 08 11 11  0  8 29.9970000  0  8  3  6 13 16 19 21 23 31
 -17878420.58807  20388318.85307 -13902744.55949  20388315.83749      3837.23400
 -14551068.51607  19998321.97007 -11320200.29149  19998318.44649      2780.92200
  -6586051.01106  22361098.74306  -5106929.10447  22361095.52147      3555.06300
  -4220865.93107  19835266.98507  -3285564.68849  19835262.70449       442.79700
   -797989.53003  23138827.94603   -605040.45447  23138822.56047      4825.78100
  -3620255.55005  23415771.28205  -2809195.86846  23415766.37246      2203.29700
 -12572443.30107  20836052.41507  -9779661.15648  20836046.72848      2002.10900
    408219.05807  21034498.91507    316457.02648  21034494.63848      -815.75000
 08 11 11  0  8 44.9970000  0  8  3  6 13 16 19 21 23 31
 -17935926.10307  20377376.10307 -13947554.03449  20377372.70049      3830.39100
 -14592721.30207  19990395.47007 -11352657.00249  19990392.32549      2772.96900
  -6639318.55506  22350961.91506  -5148436.27547  22350959.41147      3547.46900
  -4227476.96307  19834009.63407  -3290716.13349  19834005.04049       438.92200
   -870357.36603  23125056.96203   -661430.95847  23125050.91547      4823.39100
  -3653259.11705  23409491.35305  -2834912.92646  23409485.17746      2197.23400
 -12602397.14107  20830352.07907  -9803001.81148  20830346.76748      1991.93800
    420495.31607  21036835.03207    326022.92349  21036830.47849      -820.96900
 08 11 11  0  8 59.9970000  0  8  3  6 13 16 19 21 23 31
 -17993331.31807  20366452.19607 -13992285.37249  20366448.72849      3823.64100
 -14634257.95807  19982491.25107 -11385023.23049  19982488.46249      2765.12500
  -6692475.11106  22340846.67306  -5189856.99547  22340844.37247      3540.01600
  -4234032.70107  19832761.80607  -3295824.49849  19832757.36449       435.18800
   -942694.55403  23111291.09503   -717797.60547  23111285.46647      4821.46900
  -3686173.92605  23403227.11005  -2860560.85446  23403223.03646      2191.29700
 -12632202.02007  20824680.49307  -9826226.40348  20824674.29848      1982.00000
    432848.66807  21039185.91507    335648.90149  21039181.19249      -826.14100
 08 11 11  0  9 14.9970000  0  8  3  6 13 16 19 21 23 31
 -18050632.89707  20355547.66507 -14036935.95749  20355544.48149      3816.64100
 -14675675.23107  19974609.78207 -11417296.42249  19974606.52849      2757.09400
  -6745517.60206  22330753.21206  -5231188.82647  22330750.18147      3532.35900
  -4240530.43708  19831525.46208  -3300887.66749  19831520.79849       431.21900
  -1014997.95704  23097532.83704   -774137.91247  23097527.19247      4819.07800
  -3718996.90905  23396980.38405  -2886137.19946  23396977.03646      2185.14100
 -12661854.51007  20819037.72807  -9849332.24848  20819032.21248      1971.71900
    445282.11107  21041551.79807    345337.28149  21041547.37649      -831.60900
 08 11 11  0  9 29.9970000  0  8  3  6 13 16 19 21 23 31
 -18107831.75407  20344663.25107 -14081506.48949  20344660.44249      3809.78100
 -14716974.32507  19966750.90707 -11449477.53149  19966747.88049      2749.28100
  -6798446.64106  22320681.24306  -5272432.23847  22320678.36047      3524.71900
  -4246971.43008  19830299.54008  -3305906.61749  19830295.14249       427.50000
  -1087268.46705  23083779.18105   -830452.59747  23083773.77447      4816.96900
  -3751729.08705  23390751.83705  -2911642.75546  23390747.62646      2179.20300
 -12691355.79807  20813424.28207  -9872320.27148  20813418.04848      1961.68800
    457794.40607  21043932.99307    355087.11249  21043928.46649      -836.81300
 08 11 11  0  9 44.9970000  0  8  3  6 13 16 19 21 23 31
 -18164927.29207  20333798.29007 -14125996.52049  20333794.98149      3802.70300
 -14758154.53307  19958914.53207 -11481566.00949  19958911.69649      2741.15600
  -6851261.57306  22310631.17306  -5313586.72847  22310627.33747      3516.98400
  -4253355.35208  19829084.29808  -3310881.09949  19829080.06049       423.51600
  -1159505.19504  23070033.48504   -886740.92447  23070027.48147      4814.39100
  -3784369.72404  23384540.10304  -2937077.06646  23384536.79046      2172.90600
 -12720705.31907  20807839.22807  -9895190.03248  20807832.81348      1951.35900
    470386.04407  21046329.07107    364898.76749  21046324.87249      -842.28100
 08 11 11  0  9 59.9970000  0  8  3  6 13 16 19 21 23 31
 -18221916.97107  20322953.74307 -14170404.05649  20322950.78649      3795.73400
 -14799213.60107  19951101.75907 -11513560.08549  19951097.84149      2733.21900
  -6903959.72207  22300603.04807  -5354650.19447  22300598.11047      3509.25000
  -4259680.10707  19827881.18807  -3315809.48949  19827876.87249       419.62500
  -1231705.60505  23056294.33705   -943000.98046  23056287.84146      4812.23400
  -3816916.15204  23378347.88404  -2962437.93146  23378343.38846      2166.50000
 -12749900.65707  20802283.29807  -9917939.63748  20802276.85648      1941.18800
    483059.23207  21048740.99307    374773.96549  21048736.46249      -847.64100
 08 11 11  0 10 14.9970000  0  8  3  6 13 16 19 21 23 31
 -18278800.04007  20312129.03207 -14214728.52949  20312126.42349      3788.51600
 -14840150.50508  19943311.54808 -11545458.97549  19943307.90749      2724.96900
  -6956540.05906  22290597.00906  -5395621.91047  22290592.60347      3501.34400
  -4265945.03807  19826688.91507  -3320691.24349  19826684.80649       415.53100
  -1303868.60604  23042561.40704   -999231.90447  23042555.39247      4809.40600
  -3849367.58905  23372171.67305  -2987724.79746  23372167.58346      2159.98400
 -12778940.90907  20796757.17307  -9940568.40948  20796750.67348      1930.78100
    495814.61307  21051168.34507    384713.21449  21051164.18549      -853.20300
 08 11 11  0 10 29.9970000  0  8  3  6 13 16 19 21 23 31
 -18335580.35807  20301324.22807 -14258972.92749  20301321.30249      3781.95300
 -14880969.60207  19935543.85307 -11577266.06549  19935540.64249      2717.40600
  -7009006.57806  22280613.30606  -5436504.89547  22280608.77847      3493.96900
  -4272154.62507  19825506.95407  -3325529.88449  19825502.98949       412.20300
  -1375998.34705  23028836.46205  -1055436.86947  23028829.66147      4807.59400
  -3881728.05505  23366014.16505  -3012940.75946  23366009.52146      2154.45300
 -12807830.31607  20791259.63407  -9963079.63648  20791253.20848      1921.00000
    508647.91807  21053610.27407    394713.18049  21053606.05649      -858.15600
 08 11 11  0 10 44.9970000  0  8  3  6 13 16 19 21 23 31
 -18392255.85807  20290539.51707 -14303135.66649  20290536.46249      3774.95300
 -14921668.91307  19927799.18807 -11608979.80949  19927795.84549      2709.31300
  -7061357.24706  22270651.07106  -5477297.61847  22270647.79847      3486.28100
  -4278307.33208  19824336.68808  -3330324.19849  19824332.33749       408.35900
  -1448092.56605  23015116.42305  -1111614.17347  23015110.68847      4805.21900
  -3913995.48405  23359874.61005  -3038084.18646  23359870.42346      2148.06300
 -12836567.02207  20785791.05607  -9985471.87548  20785785.27148      1910.70300
    521560.98307  21056067.46207    404775.29649  21056063.05249      -863.48400
 08 11 11  0 10 59.9970000  0  8  3  6 13 16 19 21 23 31
 -18448828.11107  20279773.77407 -14347217.93949  20279771.37649      3767.89100
 -14962249.94107  19920076.56307 -11640601.38649  19920073.09149      2701.35900
  -7113593.43406  22260711.25106  -5518001.10747  22260708.12247      3478.40600
  -4284404.66507  19823176.25907  -3335075.36649  19823171.34949       404.50000
  -1520152.83105  23001404.54805  -1167764.98846  23001397.85646      4802.82800
  -3946171.40205  23353751.31305  -3063156.37646  23353747.33746      2141.87500
 -12865152.64707  20780351.56307 -10007746.39248  20780346.14648      1900.56300
    534552.00307  21058539.44607    414898.16049  21058535.44249      -868.81300
 08 11 11  0 11 14.9970000  0  8  3  6 13 16 19 21 23 31
 -18505292.40607  20269029.17307 -14391216.09149  20269026.45849      3760.89100
 -15002708.43807  19912377.54007 -11672127.47949  19912374.54849      2693.43800
  -7165710.64006  22250793.28206  -5558611.90847  22250790.88447      3470.76600
  -4290442.44008  19822027.48508  -3339780.12849  19822022.75949       400.78100
  -1592174.44804  22987699.04804  -1223885.74947  22987693.06047      4800.31300
  -3978251.21505  23347647.43105  -3088153.60446  23347642.06746      2135.71900
 -12893582.70007  20774941.43107 -10029899.68148  20774935.77148      1890.35900
    547625.33707  21061027.50107    425085.16249  21061023.70049      -874.04700
 08 11 11  0 11 29.9970000  0  8  3  6 13 16 19 21 23 31
 -18561650.92507  20258304.73507 -14435131.82149  20258301.82949      3753.82800
 -15043046.32107  19904701.36807 -11703559.59249  19904698.69249      2685.28100
  -7217710.57106  22240898.92306  -5599131.32647  22240895.01347      3462.79700
  -4296423.03907  19820889.08707  -3344440.33449  19820884.71249       396.89100
  -1664159.37505  22974000.57905  -1279977.89147  22973994.75547      4797.79700
  -4010236.87605  23341560.32905  -3113077.48946  23341556.21246      2129.21900
 -12921859.31307  20769560.71207 -10051933.41448  20769554.33348      1880.09400
    560778.65907  21063530.52407    435334.48649  21063525.81049      -879.48400
 08 11 11  0 11 44.9970000  0  8  3  6 13 16 19 21 23 31
 -18617904.33307  20247599.98507 -14478965.64949  20247596.87249      3746.73400
 -15083264.36907  19897048.08707 -11734898.32949  19897045.27849      2677.31300
  -7269593.79606  22231025.39906  -5639559.81147  22231021.45047      3455.03100
  -4302347.42407  19819761.47807  -3349056.73849  19819757.49749       393.15600
  -1736108.04005  22960309.57905  -1336041.74847  22960303.52447      4795.42200
  -4042129.10105  23335491.17305  -3137928.60647  23335487.62247      2123.17200
 -12949983.13207  20764208.86807 -10073848.08248  20764202.98548      1869.87500
    574011.36707  21066048.57107    445645.68649  21066043.97049      -884.76600
 08 11 11  0 11 59.9970000  0  8  3  6 13 16 19 21 23 31
 -18674051.92207  20236915.14907 -14522716.99949  20236912.39249      3739.78100
 -15123362.17507  19889417.75107 -11766143.36549  19889415.16549      2669.31300
  -7321359.84606  22221174.76706  -5679897.01147  22221170.24347      3447.35900
  -4308215.57607  19818645.00107  -3353629.32849  19818640.61449       389.43800
  -1808019.99205  22946625.78205  -1392077.03447  22946619.18547      4793.12500
  -4073927.35005  23329440.36805  -3162706.46847  23329435.36447      2116.75000
 -12977953.97707  20758886.20407 -10095643.53948  20758880.11048      1859.82800
    587323.29507  21068581.59507    456018.60049  21068576.91549      -889.98400
 08 11 11  0 12 14.9970000  0  8  3  6 13 16 19 21 23 31
 -18730094.10607  20226250.89907 -14566386.23349  20226247.47849      3732.60900
 -15163340.36107  19881809.95407 -11797295.18149  19881807.06049      2661.29700
  -7373008.65506  22211346.00906  -5720142.85247  22211342.24347      3439.40600
  -4314028.10007  19817539.04007  -3358158.57549  19817534.17349       385.64100
  -1879895.53605  22932948.22805  -1448083.93247  22932941.77447      4790.50000
  -4105631.83305  23323406.74305  -3187411.23447  23323402.04447      2110.59400
 -13005772.21907  20753592.72007 -10117320.10548  20753586.38048      1849.56300
    600714.00107  21071129.72807    466452.90349  21071125.09149      -895.32800
 08 11 11  0 12 29.9970000  0  8  3  6 13 16 19 21 23 31
 -18786030.49507  20215606.50907 -14609973.02949  20215603.18849      3725.50000
 -15203198.46507  19874225.37607 -11828353.45249  19874222.01749      2653.09400
  -7424540.13306  22201539.60306  -5760297.25547  22201534.97447      3431.53100
  -4319784.91207  19816443.44607  -3362644.39949  19816437.85649       381.89100
  -1951734.13305  22919276.97005  -1504062.04847  22919270.80647      4787.93800
  -4137242.21605  23317391.89905  -3212042.72046  23317386.88046      2104.25000
 -13033437.63807  20748328.05607 -10138877.57448  20748321.83348      1839.15600
    614183.67807  21073692.97807    476948.75649  21073688.81349      -900.67200
 08 11 11  0 12 44.9970000  0  8  3  6 13 16 19 21 23 31
 -18841859.82407  20204982.35307 -14653476.40449  20204979.68149      3718.35900
 -15242935.29607  19866663.63407 -11859317.21949  19866661.07549      2645.00000
  -7475952.81006  22191756.27406  -5800359.09047  22191751.02147      3423.40600
  -4325484.96007  19815359.14907  -3367085.99849  19815353.71249       378.07800
  -2023534.42205  22905614.71205  -1560010.29747  22905608.34147      4785.37500
  -4168757.20405  23311394.84505  -3236599.86046  23311390.30246      2097.82800
 -13060948.96407  20743092.50907 -10160314.97348  20743086.59548      1828.89100
    627733.30607  21076271.42307    487506.89649  21076267.56349      -906.06300
 08 11 11  0 12 59.9970000  0  8  3  6 13 16 19 21 23 31
 -18897580.89707  20194379.06307 -14696895.40649  20194376.37249      3711.07800
 -15282549.87707  19859125.43807 -11890185.72249  19859122.52449      2636.85900
  -7527245.50106  22181996.30606  -5840327.40547  22181990.04847      3415.42200
  -4331127.49307  19814285.31307  -3371482.77549  19814280.31749       374.20300
  -2095295.11105  22891958.75905  -1615927.68547  22891952.09947      4782.76600
  -4200175.73905  23305415.74305  -3261081.82947  23305411.88447      2091.43800
 -13088305.20707  20737886.69607 -10181631.51548  20737880.62248      1818.54700
    641363.64707  21078865.19607    498127.92549  21078861.28249      -911.39100
 08 11 11  0 13 14.9970000  0  8  3  6 13 16 19 21 23 31
 -18953194.29607  20183796.29007 -14740230.51449  20183793.00949      3704.23400
 -15322042.74507  19851610.44607 -11920959.38149  19851606.96249      2629.00000
  -7578418.48106  22172258.41506  -5880202.46347  22172251.68547      3407.78100
  -4336713.45908  19813222.25108  -3375835.48649  19813217.48549       370.71900
  -2167016.54505  22878310.22005  -1671814.47147  22878303.92347      4780.25000
  -4231498.08505  23299455.11005  -3285488.87147  23299452.02847      2085.26600
 -13115507.01207  20732710.36807 -10202827.73848  20732704.75948      1808.48400
    655074.29507  21081473.93107    508811.53449  21081470.58349      -916.62500
 08 11 11  0 13 29.9970000  0  8  3  6 13 16 19 21 23 31
 -19008701.06807  20173233.92307 -14783482.53549  20173230.34949      3696.98400
 -15361415.21307  19844117.89207 -11951639.22349  19844114.54849      2620.81300
  -7629472.86306  22162542.75106  -5919985.08447  22162537.16147      3399.64100
  -4342244.23008  19812169.82908  -3380145.18049  19812164.89249       366.92200
  -2238699.86705  22864669.04005  -1727671.60947  22864663.26747      4777.76600
  -4262725.52105  23293513.25905  -3309821.87947  23293508.99747      2078.76600
 -13142555.53607  20727563.96207 -10223904.52248  20727558.30248      1798.20300
    668863.70307  21084098.41507    519556.51849  21084094.18849      -921.92200
 08 11 11  0 13 44.9970000  0  8  3  6 13 16 19 21 23 31
 -19064100.29607  20162691.60307 -14826650.76649  20162688.46249      3689.73400
 -15400666.55307  19836648.48507 -11982224.67749  19836645.24349      2612.70300
  -7680407.81006  22152849.96206  -5959674.64847  22152845.31047      3391.70300
  -4347719.38307  19811127.96207  -3384411.53249  19811122.89249       363.18800
  -2310344.19106  22851036.20406  -1783498.30647  22851030.05647      4774.90600
  -4293857.24805  23287588.46205  -3334080.41446  23287585.14646      2072.37500
 -13169450.27307  20722445.65707 -10244861.46148  20722440.16148      1787.85900
    682732.48907  21086737.48507    530363.34549  21086733.04049      -927.20300
 08 11 11  0 13 59.9970000  0  8  3  6 13 16 19 21 23 31
 -19119394.04107  20152169.32107 -14869736.81149  20152166.51349      3682.79700
 -15439798.85307  19829202.21207 -12012717.37749  19829198.36049      2604.90600
  -7731225.13106  22143179.22806  -5999272.54847  22143175.95847      3384.01600
  -4353141.06007  19810096.25907  -3388636.21849  19810090.93149       359.67200
  -2381951.45005  22837409.14905  -1839296.19447  22837403.22847      4772.56300
  -4324895.26105  23281682.14905  -3358265.88346  23281679.19646      2066.03100
 -13196193.20307  20717357.00107 -10265700.10448  20717351.88048      1777.85900
    696678.53507  21089391.46207    541230.39649  21089387.27149      -932.23400
 08 11 11  0 14 14.9970000  0  8  3  6 13 16 19 21 23 31
 -19174580.33007  20141668.04807 -14912739.11649  20141664.81049      3675.53100
 -15478810.39107  19821778.53207 -12043115.98649  19821774.81049      2596.71900
  -7781922.93106  22133531.25906  -6038777.32147  22133528.98547      3375.79700
  -4358507.82307  19809074.85307  -3392818.12049  19809069.87649       356.03100
  -2453519.84005  22823790.52405  -1895063.71647  22823784.34947      4770.03100
  -4355837.62005  23275794.37605  -3382376.80346  23275789.57946      2059.57800
 -13222782.66007  20712297.36007 -10286419.16848  20712291.55648      1767.54700
    710703.13107  21092060.36807    552158.63649  21092056.15749      -937.56300
 08 11 11  0 14 29.9970000  0  8  3  6 13 16 19 21 23 31
 -19229659.96307  20131186.54007 -14955658.31949  20131183.81049      3668.10900
 -15517702.06107  19814377.62607 -12073421.18149  19814373.99749      2588.50000
  -7832501.89806  22123907.12606  -6078189.51247  22123904.13847      3367.60900
  -4363820.77207  19808063.76707  -3396958.08149  19808058.82149       352.10900
  -2525049.98405  22810178.89905  -1950801.44747  22810172.04047      4767.03100
  -4386685.15005  23269924.59505  -3406413.80946  23269920.14946      2053.14100
 -13249219.69307  20707265.92307 -10307019.47148  20707259.74748      1757.12500
    724805.32107  21094743.65707    563147.35149  21094739.62649      -943.01600
 08 11 11  0 14 44.9970000  0  8  3  6 13 16 19 21 23 31
 -19284630.40107  20120726.11007 -14998492.41549  20120722.57149      3661.18800
 -15556471.16707  19807000.12607 -12103630.87349  19806996.81749      2580.70300
  -7882959.07806  22114305.10306  -6117506.78947  22114302.11847      3359.89100
  -4369077.62807  19807063.64907  -3401054.33249  19807058.48549       348.75000
  -2596538.95206  22796574.95406  -2006507.13247  22796567.88447      4764.71900
  -4417435.05405  23264072.57105  -3430374.81446  23264068.81046      2046.85900
 -13275501.43307  20702264.50907 -10327498.75848  20702258.60348      1747.07800
    738987.68107  21097442.29007    574198.53349  21097437.68849      -948.06300
 08 11 11  0 14 59.9970000  0  8  3  6 13 16 19 21 23 31
 -19339493.31807  20110285.93107 -15041242.74149  20110282.74749      3653.93800
 -15595119.83107  19799645.55607 -12133746.71049  19799642.27149      2572.57800
  -7933296.38406  22104727.45406  -6156730.66147  22104723.09547      3351.90600
  -4374280.52008  19806073.61008  -3405108.54249  19806068.54449       345.09400
  -2667988.58505  22782978.08705  -2062182.14347  22782972.05647      4762.00000
  -4448089.39005  23258239.54805  -3454261.30847  23258235.70047      2040.51600
 -13301629.97107  20697292.75907 -10347858.65248  20697286.40748      1736.84400
    753248.15607  21100155.84507    585310.59349  21100151.38849      -953.32800
 08 11 11  0 15 14.9970000  0  8  3  6 13 16 19 21 23 31
 -19394247.66907  20099866.15707 -15083908.47749  20099863.02149      3646.73400
 -15633647.17908  19792313.55608 -12163768.01349  19792311.16149      2564.54700
  -7983512.75306  22095171.19606  -6195860.30647  22095166.84547      3343.75000
  -4379428.76508  19805093.87608  -3409120.16149  19805088.78649       341.48400
  -2739397.76405  22769389.56305  -2117825.62047  22769382.71647      4759.37500
  -4478647.01106  23252424.86006  -3478072.41747  23252420.69247      2034.00000
 -13327604.54307  20692350.22007 -10368098.57448  20692343.63448      1726.57800
    767587.54107  21102884.84507    596484.12549  21102880.15349      -958.53100
 08 11 11  0 15 29.9970000  0  8  3  6 13 16 19 21 23 31
 -19448893.20707  20089467.82907 -15126489.41449  20089464.95049      3639.51600
 -15672052.96107  19785005.37607 -12193694.59949  19785002.26749      2556.39100
  -8033607.94006  22085637.79806  -6234895.51147  22085633.37647      3335.62500
  -4384522.46007  19804124.42307  -3413089.28749  19804119.50949       337.82800
  -2810766.03206  22755808.47806  -2173437.24047  22755803.02147      4756.62500
  -4509107.55706  23246628.42306  -3501807.91547  23246624.67747      2027.53100
 -13353424.95107  20687437.25107 -10388218.37648  20687430.09548      1716.29700
    782005.78207  21105628.25107    607719.11748  21105623.30648      -963.79700
 08 11 11  0 15 44.9970000  0  8  3  6 13 16 19 21 23 31
 -19503431.38507  20079089.96207 -15168986.68749  20079086.76349      3632.28100
 -15710338.74507  19777719.88407 -12223527.67449  19777717.03249      2548.39100
  -8083583.29706  22076127.96206  -6273837.33347  22076123.69247      3327.64100
  -4389563.38308  19803164.96208  -3417017.26949  19803160.44649       334.29700
  -2882095.06805  22742234.82905  -2229018.24247  22742230.22847      4753.82800
  -4539472.59806  23240849.25906  -3525468.96546  23240845.77146      2021.15600
 -13379092.85807  20682552.55607 -10408219.34648  20682546.24748      1706.06300
    796501.10507  21108386.58707    619014.14948  21108381.94248      -968.90600
 08 11 11  0 15 59.9970000  0  8  3  6 13 16 19 21 23 31
 -19557859.60507  20068732.35307 -15211398.28549  20068729.14249      3624.81300
 -15748501.94807  19770457.59507 -12253265.23249  19770454.73149      2540.07800
  -8133435.77806  22066642.37606  -6312683.43747  22066637.56747      3319.32800
  -4394549.05008  19802216.60308  -3420902.20949  19802212.11849       330.45300
  -2953381.98206  22728669.65706  -2284566.48247  22728664.34947      4750.98400
  -4569739.32705  23235089.68105  -3549053.36146  23235085.55646      2014.45300
 -13404605.66507  20677697.47807 -10428099.46248  20677691.74748      1695.59400
    811076.01807  21111160.00907    630371.21249  21111155.35649      -974.32800
 08 11 11  0 16 14.9970000  0  8  3  6 13 16 19 21 23 31
 -19612177.81107  20058395.93107 -15253724.16249  20058392.71249      3617.56300
 -15786542.60607  19763218.70407 -12282907.30649  19763215.31049      2532.04700
  -8183165.45506  22057177.73506  -6351433.82747  22057174.98547      3311.29700
  -4399479.69107  19801278.45407  -3424744.27249  19801273.81349       326.93800
  -3024626.49005  22715112.44605  -2340081.63647  22715107.45447      4748.28100
  -4599907.70406  23229349.33706  -3572561.20846  23229344.12246      2008.03100
 -13429963.33707  20672872.15707 -10447858.68348  20672866.22048      1685.48400
    825730.36007  21113948.58707    641790.16748  21113944.36048      -979.53100
 08 11 11  0 16 29.9970000  0  8  3  6 13 16 19 21 23 31
 -19666386.32207  20048080.48507 -15295964.56049  20048077.66549      3610.00000
 -15824461.36008  19756003.19608 -12312454.39849  19755999.55649      2523.57800
  -8232772.65106  22047738.25906  -6390088.79447  22047735.70847      3302.87500
  -4404356.10607  19800350.13407  -3428544.08349  19800345.62249       323.07800
  -3095829.04805  22701562.57105  -2395564.13247  22701558.01347      4745.28100
  -4629978.29306  23223627.23506  -3595992.79246  23223621.57546      2001.25000
 -13455166.53207  20668075.93807 -10467497.54548  20668070.92348      1674.82800
    840463.39507  21116752.25907    653270.43949  21116748.24349      -985.10900
 08 11 11  0 16 44.9970000  0  8  3  6 13 16 19 21 23 31
 -19720482.38207  20037785.81307 -15338117.33349  20037782.83749      3602.76600
 -15862255.40308  19748811.22808 -12341904.29849  19748807.65749      2515.62500
  -8282254.69906  22038322.68806  -6428646.22547  22038319.40747      3294.82800
  -4409175.88007  19799432.86007  -3432299.75149  19799428.82549       319.60900
  -3166986.65605  22688022.21205  -2451011.60547  22688017.35347      4742.56300
  -4659948.17806  23217924.79806  -3619345.93846  23217918.24746      1994.82800
 -13480212.61207  20663309.52407 -10487013.98848  20663304.53648      1664.67200
    855277.80207  21119571.64907    664814.10349  21119567.09549      -990.14100
 08 11 11  0 16 59.9970000  0  8  3  6 13 16 19 21 23 31
 -19774469.99107  20027512.90707 -15380185.60049  20027509.73149      3595.54700
 -15899928.96107  19741642.08707 -12371260.31349  19741638.50549      2507.57800
  -8331615.45106  22028929.99306  -6467109.14947  22028926.58347      3286.62500
  -4413943.45807  19798525.72007  -3436014.74949  19798521.66549       316.09400
  -3238103.39206  22674488.66506  -2506427.20747  22674484.35647      4739.75000
  -4689821.40306  23212239.29806  -3642623.76846  23212233.53646      1988.29700
 -13505105.77607  20658572.48507 -10506411.26948  20658566.73548      1654.45300
    870169.14107  21122405.86007    676417.74249  21122401.11849      -995.26600
 08 11 11  0 17 14.9970000  0  8  3  6 13 16 19 21 23 31
 -19828347.13007  20017259.86007 -15422167.78949  20017257.18849      3588.03100
 -15937480.31007  19734496.29807 -12400521.10949  19734492.83349      2499.31300
  -8380852.76806  22019559.84506  -6505475.89047  22019556.14647      3278.31300
  -4418657.16007  19797629.13407  -3439687.76949  19797624.45049       312.43800
  -3309177.33406  22660963.79006  -2561809.45347  22660959.31747      4736.84400
  -4719596.06106  23206573.54806  -3665824.78247  23206568.27147      1981.65600
 -13529844.24107  20653865.02407 -10525687.99348  20653859.84548      1644.04700
    885138.99907  21125254.75907    688082.55649  21125250.14649     -1000.64100
 08 11 11  0 17 29.9970000  0  8  3  6 13 16 19 21 23 31
 -19882116.94107  20007028.04807 -15464066.33849  20007025.31049      3580.85900
 -15974912.41907  19727373.29007 -12429688.97149  19727369.98149      2491.31300
  -8429969.24006  22010212.81306  -6543748.45847  22010208.94247      3270.21900
  -4423320.10907  19796741.47807  -3443321.24149  19796737.38849       308.95300
  -3380211.16606  22647446.72006  -2617160.46147  22647441.97847      4734.06300
  -4749275.04906  23200925.77406  -3688951.23346  23200921.08746      1975.20300
 -13554430.92707  20649186.89207 -10544846.44748  20649180.70048      1633.78100
    900184.30807  21128117.36007    699806.16349  21128112.86449     -1005.68800
 08 11 11  0 17 44.9970000  0  8  3  6 13 16 19 21 23 31
 -19935774.80107  19996817.59507 -15505877.64949  19996813.71649      3573.62500
 -16012220.86608  19720273.64208 -12458760.49249  19720270.27449      2483.34400
  -8478960.60006  22000890.20406  -6581923.53147  22000885.45447      3262.01600
  -4427928.24707  19795864.76707  -3446912.00249  19795860.94249       305.60900
  -3451200.26606  22633938.01706  -2672476.63247  22633933.40747      4731.32800
  -4778853.88706  23195297.03206  -3711999.64447  23195293.02847      1968.71900
 -13578861.60407  20644537.66507 -10563883.32748  20644531.53248      1623.71900
    915309.33707  21130995.66507    711591.88949  21130990.99349     -1010.78100
 08 11 11  0 17 59.9970000  0  8  3  6 13 16 19 21 23 31
 -19989323.12007  19986627.29807 -15547603.62249  19986623.95049      3566.12500
 -16049408.02308  19713197.16508 -12487737.50049  19713194.28649      2475.06300
  -8527829.76006  21991590.26706  -6620003.40147  21991586.77447      3253.79700
  -4432484.40507  19794997.61007  -3450462.26249  19794993.72049       301.98400
  -3522146.93606  22620437.49306  -2727759.72347  22620433.66147      4728.28100
  -4808334.94406  23189688.07906  -3734971.88747  23189682.37247      1962.09400
 -13603138.77207  20639917.85307 -10582800.60848  20639911.81348      1613.39100
    930511.42107  21133889.02407    723437.64548  21133883.41148     -1015.96900
 08 11 11  0 18 14.9970000  0  8  3  6 13 16 19 21 23 31
 -20042761.33807  19976458.53207 -15589243.79149  19976455.04449      3559.03100
 -16086473.87408  19706143.75108 -12516619.98749  19706140.80249      2467.14100
  -8576575.12906  21982314.85306  -6657986.81647  21982311.60347      3245.76600
  -4436988.23507  19794140.63407  -3453971.73749  19794135.96249       298.70300
  -3593050.77706  22606944.19606  -2783009.45947  22606941.21247      4725.62500
  -4837717.83506  23184096.22006  -3757867.63647  23184090.64947      1955.85900
 -13627262.23707  20635327.02407 -10601598.11248  20635321.34148      1603.25000
    945790.82107  21136796.01707    735343.67048  21136791.32948     -1021.12500
 08 11 11  0 18 29.9970000  0  9  3  6 13 16 19 21 23 25 31
 -20096087.50707  19966310.85307 -15630796.66149  19966307.29849      3551.29700
 -16123416.41208  19699113.88408 -12545406.38049  19699110.95849      2458.70300
  -8625194.90306  21973063.23506  -6695872.35348  21973059.79048      3237.04700
  -4441438.02907  19793294.17307  -3457439.11749  19793289.04449       294.75000
  -3663909.57506  22593460.14206  -2838224.07647  22593456.89947      4722.32800
  -4867000.48706  23178523.14206  -3780685.29347  23178518.13847      1948.87500
 -13651230.04707  20630765.90707 -10620274.34248  20630760.72448      1592.60900
   -170411.51516  23528026.10306   -116344.37557  23528024.31047      4155.95300
    961149.18607  21139718.77407    747311.20648  21139713.81048     -1026.57800
 08 11 11  0 18 44.9970000  0  9  3  6 13 16 19 21 23 25 31
 -20149303.97907  19956183.81307 -15672264.02849  19956180.78249      3544.20300
 -16160238.02907  19692107.13407 -12574098.54949  19692103.75549      2450.84400
  -8673691.48506  21963834.32906  -6733661.88548  21963831.89248      3229.07800
  -4445836.47907  19792456.63407  -3460866.48349  19792451.88849       291.62500
  -3734725.64506  22579983.84506  -2893405.42147  22579980.47047      4719.76600
  -4896185.24105  23172968.98505  -3803426.67946  23172964.86846      1942.40600
 -13675044.78006  20626234.02406 -10638831.28548  20626228.74348      1582.67200
   -232753.33806  23516162.72806   -164922.40347  23516160.97047      4156.21900
    976584.05707  21142655.88407    759338.37848  21142651.32548     -1031.45300
 08 11 11  0 18 59.9970000  0  9  3  6 13 16 19 21 23 25 31
 -20202408.53307  19946078.48507 -15713644.19649  19946075.80649      3536.65600
 -16196936.57408  19685123.58708 -12602694.81649  19685120.32949      2442.60900
  -8722062.40906  21954630.05606  -6771353.52648  21954627.14948      3220.68800
  -4450181.59607  19791630.11007  -3464252.29049  19791625.40749       288.09400
  -3805496.53406  22566517.39906  -2948551.54347  22566512.88847      4716.65600
  -4925269.75806  23167434.84506  -3826089.90247  23167430.07547      1935.76600
 -13698704.04907  20621731.89207 -10657267.09848  20621726.82548      1572.25000
   -295091.91406  23504300.55606   -213497.93147  23504298.22847      4155.92200
    992097.56007  21145608.21207    771426.78848  21145603.47448     -1036.75000
 08 11 11  0 19 14.9970000  0  9  3  6 13 16 19 21 23 25 31
 -20255403.69907  19935994.32107 -15754939.11649  19935990.99749      3529.39100
 -16233514.96107  19678162.99307 -12631197.46049  19678159.28249      2434.56300
  -8770310.52406  21945448.57906  -6808949.44547  21945444.99347      3212.45300
  -4454476.46707  19790812.56307  -3467598.94149  19790807.70449       284.59400
  -3876224.97906  22553058.26706  -3003664.60047  22553053.08347      4713.78100
  -4954256.81105  23161918.51705  -3848677.21047  23161913.82947      1929.21900
 -13722210.90607  20617259.05607 -10675584.14048  20617253.46648      1562.09400
   -357430.10806  23492438.13406   -262073.14147  23492435.28647      4155.92200
   1007686.57907  21148574.24307    783574.07749  21148569.71249     -1041.78100
 08 11 11  0 19 29.9970000  0  9  3  6 13 16 19 21 23 25 31
 -20308285.48807  19925930.90707 -15796145.71149  19925927.54049      3521.62500
 -16269969.14007  19671226.21207 -12659603.31049  19671223.10349      2426.03100
  -8818431.75906  21936290.50906  -6846446.49047  21936287.19247      3203.76600
  -4458717.36907  19790005.50907  -3470903.53949  19790000.38049       280.82800
  -3946906.60006  22539607.96206  -3058741.14947  22539602.56347      4710.42200
  -4983142.36706  23156422.77406  -3871185.43847  23156417.36847      1922.07800
 -13745561.44607  20612815.72807 -10693779.37148  20612809.14248      1551.45300
   -419763.80706  23480576.46206   -310644.84447  23480573.29047      4155.35900
   1023354.86407  21151556.06307    795783.12549  21151551.43549     -1047.34400
 08 11 11  0 19 44.9970000  0  9  3  6 13 16 19 21 23 25 31
 -20361055.46507  19915888.89207 -15837265.17149  19915885.75149      3514.40600
 -16306300.78107  19664312.45407 -12687913.68849  19664308.63049      2418.10900
  -8866427.36906  21927157.42306  -6883845.65347  21927153.23947      3195.57800
  -4462905.97508  19789208.82908  -3474167.40349  19789203.01349       277.64100
  -4017542.99806  22526166.40706  -3113782.45147  22526161.13847      4707.67200
  -5011927.88806  23150945.37606  -3893615.66647  23150939.94647      1915.76600
 -13768757.36407  20608401.71207 -10711854.09948  20608395.77448      1541.34400
   -482094.54206  23468715.09506   -359214.25947  23468712.39647      4155.43800
   1039100.68507  21154552.70407    808052.58649  21154548.22049     -1052.23400
 08 11 11  0 19 59.9970000  0  9  3  6 13 16 19 21 23 25 31
 -20413718.05907  19905867.88407 -15878300.95449  19905864.34149      3507.21900
 -16342514.45907  19657421.25907 -12716132.13649  19657417.44249      2410.26600
  -8914301.86906  21918047.82906  -6921150.47147  21918043.16547      3187.54700
  -4467047.23408  19788420.72008  -3477394.36049  19788415.47049       274.46900
  -4088138.47506  22512731.90706  -3168791.88847  22512726.66947      4704.89100
  -5040617.90406  23145485.54806  -3915971.54047  23145480.38847      1909.43800
 -13791803.27407  20604016.11807 -10729811.95648  20604010.52148      1531.34400
   -544426.79505  23456853.60305   -407784.84547  23456850.65747      4155.51600
   1054919.51807  21157562.18107    820378.93849  21157558.84149     -1057.03100
 08 11 11  0 20 14.9970000  0  9  3  6 13 16 19 21 23 25 31
 -20466269.22607  19895867.89907 -15919249.90649  19895864.49349      3499.57800
 -16378606.30507  19650552.99307 -12744255.66049  19650549.42349      2401.90600
  -8962051.29906  21908962.14906  -6958357.80347  21908957.04447      3178.95300
  -4471137.38508  19787642.28208  -3480581.49849  19787637.11049       270.76600
  -4158689.05706  22499306.61806  -3223766.32847  22499301.33347      4701.73400
  -5069208.38906  23140043.73506  -3938249.82447  23140040.08347      1902.54700
 -13814695.30007  20599659.75907 -10747649.89448  20599653.64948      1520.82800
   -606756.54205  23444992.53205   -456353.46947  23444989.43147      4155.10900
   1070815.02607  21160587.23507    832765.02849  21160583.54849     -1062.37500
 08 11 11  0 20 29.9970000  0  9  3  6 13 16 19 21 23 25 31
 -20518709.76607  19885888.59507 -15960112.67149  19885885.08349      3492.40600
 -16414577.01308  19643708.11808 -12772284.78349  19643704.84549      2394.04700
  -9009675.59106  21899898.80606  -6995467.63847  21899894.69647      3170.84400
  -4475177.18308  19786873.30608  -3483729.39949  19786868.58749       267.62500
  -4229195.14606  22485889.75106  -3278706.12747  22485885.42347      4698.95300
  -5097699.76105  23134621.74305  -3960450.90946  23134617.88446      1896.18800
 -13837433.95607  20595332.57107 -10765368.33848  20595326.97048      1510.85900
   -669084.40705  23433131.81305   -504920.62147  23433129.26747      4155.20300
   1086786.44207  21163626.08707    845210.26749  21163622.77449     -1067.26600
 08 11 11  0 20 44.9970000  0  9  3  6 13 16 19 21 23 25 31
 -20571038.66107  19875930.85307 -16000888.41849  19875927.45449      3484.82800
 -16450425.86807  19636885.97007 -12800218.94849  19636883.23149      2385.84400
  -9057173.95906  21890860.32106  -7032479.35748  21890856.00148      3162.28100
  -4479166.18007  19786114.61007  -3486837.71249  19786109.25949       264.26600
  -4299655.68806  22472481.44606  -3333610.40847  22472476.98947      4695.82800
  -5126091.26705  23129219.58705  -3982574.16647  23129215.45447      1889.34400
 -13860018.72407  20591034.79807 -10782966.85348  20591029.62648      1500.54700
   -731409.44006  23421272.33706   -553485.57847  23421269.89647      4154.84400
   1102834.23407  21166680.37607    857715.03548  21166676.39248     -1072.46900
 08 11 11  0 20 59.9970000  0  9  3  6 13 16 19 21 23 25 31
 -20623254.19207  19865994.21207 -16041575.83149  19865991.15349      3477.17200
 -16486151.42908  19630088.02408 -12828057.06049  19630084.73949      2377.53100
  -9104544.88006  21881845.41506  -7069391.74747  21881842.07147      3153.68800
  -4483103.07308  19785365.62608  -3489905.40949  19785359.74749       260.59400
  -4370069.08006  22459082.28206  -3388477.97047  22459077.86847      4692.64100
  -5154381.34905  23123836.22005  -4004618.39347  23123832.34947      1882.50000
 -13882448.13907  20586766.83707 -10800444.32848  20586761.20448      1490.03100
   -793730.11506  23409412.84506   -602047.13847  23409410.11447      4154.54700
   1118959.84107  21169748.57107    870280.42048  21169744.85648     -1077.68800
 08 11 11  0 21 14.9970000  0  9  3  6 13 16 19 21 23 25 31
 -20675358.68307  19856079.35307 -16082176.72349  19856075.64949      3469.79700
 -16521756.09208  19623312.66508 -12855800.93349  19623309.40749      2369.50000
  -9151790.74306  21872854.83706  -7106206.72447  21872851.34547      3145.50000
  -4486990.46308  19784625.64908  -3492934.53749  19784620.55649       257.35900
  -4440437.52506  22445691.64206  -3443310.49747  22445686.94647      4689.60900
  -5182572.32306  23118472.25906  -4026585.37447  23118467.88047      1876.07800
 -13904724.75407  20582527.81307 -10817802.73748  20582522.20848      1479.92200
   -856048.76605  23397553.93805   -650607.06747  23397551.63847      4154.34400
   1135160.61307  21172831.51707    882904.39148  21172828.48148     -1082.67200
 08 11 11  0 21 29.9970000  0  9  3  6 13 16 19 21 23 25 31
 -20727351.00807  19846185.07107 -16122690.21849  19846181.86049      3462.40600
 -16557238.81508  19616560.36808 -12883449.81449  19616557.27149      2361.35900
  -9198910.17806  21863888.44606  -7142923.16547  21863884.82947      3137.03100
  -4490827.60007  19783895.22807  -3495924.52949  19783890.70449       254.01600
  -4510759.85706  22432309.74306  -3498107.10647  22432305.23547      4686.54700
  -5210662.91606  23113127.06306  -4048474.16047  23113121.92747      1869.23400
 -13926847.57207  20578318.13407 -10835041.28748  20578312.00548      1469.64100
   -918364.22705  23385694.97805   -699164.58347  23385693.32147      4154.17200
   1151437.53907  21175929.06307    895587.68648  21175925.20048     -1087.73400
 08 11 11  0 21 44.9970000  0  9  3  6 13 16 19 21 23 25 31
 -20779229.83807  19836312.88407 -16163115.27449  19836309.47449      3454.79700
 -16592598.37308  19609831.49308 -12911002.71649  19609828.45049      2353.15600
  -9245902.07006  21854946.39906  -7179540.22947  21854942.56747      3128.48400
  -4494613.27608  19783175.15708  -3498874.41049  19783170.51349       250.64100
  -4581034.60506  22418937.04006  -3552866.62047  22418931.84947      4683.37500
  -5238652.01705  23107799.98505  -4070283.85247  23107795.95847      1862.45300
 -13948815.47307  20574138.03207 -10852159.14448  20574131.92748      1459.39100
   -980675.10705  23373838.92305   -747718.50346  23373835.98146      4153.87500
   1167791.72407  21179041.36007    908331.18748  21179037.11048     -1092.89100
 08 11 11  0 21 59.9970000  0  9  3  6 13 16 19 21 23 25 31
 -20830994.97507  19826462.92307 -16203451.73249  19826459.16549      3447.32800
 -16627834.68908  19603126.42308 -12938459.57149  19603123.14249      2345.10900
  -9292765.82806  21846028.04006  -7216057.43247  21846024.97047      3120.09400
  -4498347.62807  19782464.64907  -3501784.29649  19782459.24349       247.43800
  -4651261.37306  22405573.18106  -3607588.78247  22405567.98947      4680.35900
  -5266539.18705  23102492.89905  -4092014.09847  23102488.70047      1855.75000
 -13970628.23707  20569986.62607 -10869156.10548  20569980.05248      1449.17200
  -1042981.22506  23361982.69606   -796268.69946  23361979.81746      4153.76600
   1184223.17307  21182168.12607    921134.90248  21182163.52448     -1097.84400
 08 11 11  0 22 14.9970000  0  9  3  6 13 16 19 21 23 25 31
 -20882645.64807  19816633.39907 -16243699.01149  19816629.98549      3439.45300
 -16662947.09408  19596444.92308 -12965819.88249  19596441.83749      2336.56300
  -9339500.45406  21837134.74306  -7252474.04047  21837131.22447      3111.20300
  -4502030.13807  19781764.04007  -3504653.78849  19781758.69649       243.68800
  -4721439.35206  22392218.60306  -3662272.89248  22392214.27848      4676.76600
  -5294323.65805  23097205.70405  -4113664.35247  23097201.75147      1848.89100
 -13992285.25107  20565864.98507 -10886031.69548  20565858.97048      1438.48400
  -1105281.86206  23350126.98506   -844814.65846  23350124.13846      4153.07800
   1200732.38307  21185309.70407    933999.21748  21185305.45048     -1103.32800
 08 11 11  0 22 29.9970000  0  9  3  6 13 16 19 21 23 25 31
 -20934183.64607  19806826.37607 -16283858.49249  19806823.27149      3432.10900
 -16697937.55008  19589786.19608 -12993085.17049  19589782.78649      2328.59400
  -9386107.77206  21828265.11806  -7288791.43347  21828262.02447      3102.93800
  -4505663.03907  19781072.38407  -3507484.62349  19781067.24349       240.59400
  -4791570.15606  22378873.82906  -3716920.24947  22378867.84947      4673.85900
  -5322007.31206  23091938.57106  -4135236.04046  23091934.00546      1842.25000
 -14013788.56307  20561773.15707 -10902787.52748  20561766.90348      1428.46900
  -1167578.70706  23338272.50906   -893357.66746  23338268.86046      4153.01600
   1217317.32107  21188465.60307    946922.53248  21188461.55248     -1108.18800
 08 11 11  0 22 44.9970000  0  9  3  6 13 16 19 21 23 25 31
 -20985608.01307  19797040.86807 -16323929.42649  19797038.01749      3424.32800
 -16732805.37507  19583151.06307 -13020254.91149  19583147.47449      2320.23400
  -9432586.92306  21819420.65706  -7325008.95347  21819417.07947      3094.15600
  -4509245.70807  19780390.60307  -3510276.30949  19780385.06749       237.01600
  -4861652.97506  22365536.81306  -3771530.23147  22365531.82547      4670.42200
  -5349589.27606  23086689.75106  -4156728.48546  23086685.58746      1835.17200
 -14035137.45707  20557710.93107 -10919423.03748  20557705.02448      1418.00000
  -1229870.97605  23326418.49305   -941897.10246  23326415.51746      4152.62500
   1233978.57507  21191636.18107    959905.31448  21191631.99748     -1113.42200
 08 11 11  0 22 59.9970000  0  9  3  6 13 16 19 21 23 25 31
 -21036916.99207  19787277.28207 -16363910.44249  19787274.20849      3416.76600
 -16767548.81707  19576539.56307 -13047327.72849  19576535.89949      2312.09400
  -9478936.11406  21810600.56306  -7361125.19247  21810596.39947      3085.59400
  -4512776.65607  19779718.68107  -3513027.69849  19779713.20849       233.70300
  -4931685.93506  22352210.16506  -3826101.31947  22352205.41147      4667.28100
  -5377067.80806  23081460.79806  -4178140.32846  23081456.06046      1828.40600
 -14056330.26107  20553678.11007 -10935936.92148  20553672.95048      1407.62500
  -1292156.82306  23314566.30606   -990431.52746  23314561.95446      4152.17200
   1250717.62207  21194821.90707    972948.71248  21194817.33348     -1118.50000
 08 11 11  0 23 14.9970000  0  9  3  6 13 16 19 21 23 25 31
 -21088114.16007  19777534.39207 -16403804.33349  19777531.73949      3409.34400
 -16802171.46507  19569951.10307 -13074306.42049  19569947.78249      2304.09400
  -9525158.97606  21801805.57106  -7397143.01547  21801800.70847      3077.21900
  -4516259.55207  19779055.85307  -3515741.65449  19779050.50149       230.57800
  -5001672.14506  22338892.43106  -3880636.02547  22338887.51747      4664.09400
  -5404446.32205  23076250.51705  -4199474.22747  23076245.33347      1821.79700
 -14077370.64907  20549674.49307 -10952332.03848  20549669.15348      1397.54700
  -1354439.65305  23302713.61805  -1038963.55847  23302709.95047      4152.09400
   1267530.89307  21198020.84507    986049.96348  21198016.83348     -1123.43800
 08 11 11  0 23 29.9970000  0  9  3  6 13 16 19 21 23 25 31
 -21139198.41807  19767813.57907 -16443610.24449  19767811.14249      3402.01600
 -16836672.52507  19563385.52407 -13101190.35549  19563382.13049      2296.14100
  -9571253.73206  21793033.93806  -7433060.98947  21793030.67747      3068.84400
  -4519693.80507  19778402.31307  -3518417.69149  19778397.13049       227.50000
  -5071610.61006  22325583.64906  -3935133.51247  22325578.14247      4661.12500
  -5431723.91805  23071059.83705  -4220729.49747  23071055.37647      1815.29700
 -14098257.82807  20545699.81307 -10968607.75548  20545694.33348      1387.51600
  -1416718.57506  23290863.32106  -1087492.61346  23290858.31346      4151.98400
   1284418.97707  21201234.72007    999209.48848  21201230.44248     -1128.17200
 08 11 11  0 23 44.9970000  0  9  3  6 13 16 19 21 23 25 31
 -21190170.91007  19758113.63407 -16483329.07849  19758110.61449      3394.28100
 -16871053.22107  19556843.10307 -13127980.51949  19556839.45049      2287.92200
  -9617221.78906  21784286.43806  -7468880.24647  21784283.23947      3060.20300
  -4523080.86807  19777757.86007  -3521056.96449  19777752.61849       224.10900
  -5141502.50406  22312283.12606  -3989594.69547  22312278.06347      4657.76600
  -5458901.78806  23065888.54006  -4241907.03547  23065883.47447      1808.37500
 -14118992.96207  20541754.10307 -10984765.00849  20541748.42349      1377.15600
  -1478994.75106  23279012.35306  -1136019.47346  23279007.21646      4151.50000
   1301380.43107  21204462.68107   1012426.19948  21204457.77148     -1133.34400
 08 11 11  0 23 59.9970000  0  9  3  6 13 16 19 21 23 25 31
 -21241027.51607  19748436.35307 -16522957.60349  19748433.23149      3386.96900
 -16905309.44907  19550324.43107 -13154673.67549  19550321.61449      2280.03100
  -9663058.89106  21775563.71206  -7504597.45147  21775560.39647      3051.84400
  -4526416.70607  19777123.08707  -3523656.31149  19777118.51749       221.07800
  -5211343.43506  22298993.61806  -4044016.17847  22298987.97447      4654.68800
  -5485975.52506  23060736.29006  -4263003.45746  23060730.72446      1801.79700
 -14139572.12007  20537838.08707 -11000800.73248  20537832.13848      1367.15600
  -1541263.82906  23267162.40706  -1184540.84747  23267158.50947      4151.45300
   1318419.43807  21207704.81307   1025703.33448  21207700.73148     -1138.14100
 08 11 11  0 24 14.9970000  0  9  3  6 13 16 19 21 23 25 31
 -21291771.07907  19738779.32907 -16562498.02549  19738777.09549      3379.10900
 -16939444.40907  19543828.89207 -13181272.35349  19543826.05249      2271.56300
  -9708768.03506  21766865.82906  -7540214.98647  21766862.38047      3042.93800
  -4529704.67607  19776497.15707  -3526218.34749  19776493.38449       217.59400
  -5281136.37406  22285711.64906  -4098400.26247  22285706.20847      4651.18800
  -5512948.20905  23055602.86005  -4284021.14546  23055598.72446      1794.76600
 -14159998.44907  20533951.14907 -11016717.35648  20533944.72848      1356.59400
  -1603528.84006  23255313.47006  -1233058.98447  23255309.33347      4150.81300
   1335532.72907  21210961.48507   1039038.34748  21210957.02848     -1143.46900
 08 11 11  0 24 29.9970000  0  9  3  6 13 16 19 21 23 25 31
 -21342401.84407  19729145.04807 -16601950.57049  19729142.31049      3371.65600
 -16973458.06607  19537356.07107 -13207776.49149  19537353.11849      2263.62500
  -9754349.23806  21758192.38406  -7575732.79747  21758188.06347      3034.54700
  -4532944.95607  19775880.61807  -3528743.24749  19775876.18849       214.56300
  -5350880.97606  22272439.67306  -4152746.70147  22272434.68847      4648.17200
  -5539819.65306  23050489.96206  -4304959.92246  23050484.64246      1788.07800
 -14180272.04507  20530092.50107 -11032514.97348  20530086.47848      1346.51600
  -1665789.67906  23243465.68106  -1281573.95047  23243461.67347      4150.64100
   1352720.02607  21214232.13407   1052431.03148  21214228.39248     -1148.23400
 08 11 11  0 24 44.9970000  0  9  3  6 13 16 19 21 23 25 31
 -21392917.96707  19719532.32907 -16641313.77949  19719529.46649      3363.95300
 -17007349.01307  19530906.75107 -13234185.02149  19530904.07149      2255.29700
  -9799800.73306  21749542.75906  -7611149.55247  21749538.69247      3025.73400
  -4536136.19407  19775273.61807  -3531229.93549  19775268.57949       211.10900
  -5420575.67906  22259177.43106  -4207054.25247  22259171.98547      4644.57800
  -5566588.29505  23045396.01705  -4325818.58446  23045390.80246      1781.06300
 -14200391.48507  20526264.32107 -11048192.47048  20526257.55648      1336.15600
  -1728044.77206  23231619.10306  -1330084.39647  23231615.19247      4150.20300
   1369982.92707  21217516.73507   1065882.62448  21217513.11048     -1153.32800
 08 11 11  0 24 59.9970000  0  9  3  6 13 16 19 21 23 25 31
 -21443319.61507  19709941.02407 -16680587.78849  19709938.13449      3356.12500
 -17041117.20607  19524481.20407 -13260497.89149  19524478.08749      2246.98400
  -9845122.32606  21740918.61006  -7646465.06947  21740913.47447      3017.03100
  -4539278.56607  19774675.25907  -3533678.53549  19774671.01349       207.70300
  -5490220.15906  22245923.75906  -4261322.66347  22245919.07547      4641.12500
  -5593254.23605  23040321.45405  -4346597.28546  23040316.61846      1774.10900
 -14220356.98407  20522464.95407 -11063750.01848  20522458.45048      1325.79700
  -1790294.01005  23219772.90705  -1378590.30047  23219768.92347      4149.57800
   1387321.11307  21220816.72807   1079392.89548  21220812.09548     -1158.54700
 08 11 11  0 25 14.9970000  0  9  3  6 13 16 19 21 23 25 31
 -21493606.58107  19700371.79007 -16719772.42849  19700368.49749      3348.56300
 -17074762.97007  19518078.75107 -13286715.36049  19518076.01749      2238.81300
  -9890313.89306  21732318.47006  -7681679.30447  21732314.03247      3008.31300
  -4542372.53307  19774086.74307  -3536089.41249  19774082.34149       204.53100
  -5559814.50606  22232681.29006  -4315552.02947  22232676.54447      4637.87500
  -5619817.40906  23035267.23506  -4367295.84347  23035261.64247      1767.29700
 -14240168.77406  20518695.14906 -11079187.77448  20518688.06348      1315.45300
  -1852537.36305  23207928.63405  -1427091.58747  23207924.60347      4149.18800
   1404734.22407  21224130.12607   1092961.54048  21224125.67348     -1163.42200
 08 11 11  0 25 29.9970000  0  9  3  6 13 16 19 21 23 25 31
 -21543777.53307  19690824.66507 -16758866.68349  19690821.07549      3340.73400
 -17108285.02607  19511699.59507 -13312836.43949  19511696.54449      2230.59400
  -9935373.89006  21723743.54006  -7716790.99947  21723740.41547      2999.53100
  -4545417.05707  19773507.31307  -3538461.76849  19773503.13049       201.23400
  -5629357.24306  22219447.65706  -4369741.16547  22219442.93147      4634.39100
  -5646276.54506  23030232.11806  -4387913.31947  23030227.25147      1760.32800
 -14259825.67807  20514954.50107 -11094504.84848  20514948.61048      1305.15600
  -1914773.61705  23196085.05605  -1475587.34646  23196081.95046      4148.73400
   1422223.32907  21227458.30607   1106589.39548  21227454.16948     -1168.56300
 08 11 11  0 25 44.9970000  0  9  3  6 13 16 19 21 23 25 31
 -21593832.39907  19681299.63407 -16797870.47749  19681296.04849      3332.98400
 -17141683.55007  19505343.88407 -13338861.26849  19505341.29049      2222.29700
  -9980302.34606  21715194.13406  -7751800.19247  21715191.00147      2990.76600
  -4548412.33907  19772937.27407  -3540795.76849  19772933.16549       197.92200
  -5698848.26306  22206224.05606  -4423889.99747  22206219.48547      4630.90600
  -5672631.66806  23025216.93106  -4408449.80246  23025211.69646      1753.40600
 -14279327.80806  20511243.36806 -11109701.32048  20511237.30248      1294.87500
  -1977002.66305  23184243.00105  -1524077.50446  23184240.16546      4148.26600
   1439788.24007  21230801.05607   1120276.31948  21230796.48548     -1173.60900
 08 11 11  0 25 59.9970000  0  9  3  6 13 16 19 21 23 25 31
 -21643774.08907  19671795.99307 -16836786.07249  19671792.57949      3325.57800
 -17174961.49107  19499011.72007 -13364792.12649  19499008.27449      2214.35900
 -10025102.03506  21706668.06306  -7786709.04547  21706666.33747      2982.20300
  -4551361.49407  19772375.96207  -3543093.79349  19772372.22449       195.00000
  -5768290.30906  22193009.32906  -4478000.66947  22193004.93547      4627.70300
  -5698885.44506  23020220.99306  -4428907.29047  23020215.29047      1746.79700
 -14298678.08406  20507561.12606 -11124779.46348  20507555.68548      1284.89100
  -2039227.25005  23172401.01705  -1572564.17647  23172399.45847      4148.01600
   1457425.88507  21234157.01707   1134019.92348  21234153.48948     -1178.31300
 08 11 11  0 26 14.9970000  0  9  3  6 13 16 19 21 23 25 31
 -21693599.40607  19662314.21207 -16875610.99449  19662310.41949      3317.85900
 -17208115.60407  19492702.43807 -13390626.50649  19492699.53649      2206.28100
 -10069769.67407  21698169.43807  -7821515.00747  21698166.29447      2973.51600
  -4554261.46007  19771824.01707  -3545353.52049  19771820.03649       191.78100
  -5837679.88506  22179804.83706  -4532070.47648  22179800.02848      4624.25000
  -5725034.63706  23015244.97806  -4449283.26846  23015239.32946      1739.84400
 -14317873.12206  20503908.28206 -11139736.65248  20503903.20048      1274.54700
  -2101444.04805  23160562.61805  -1621044.74547  23160560.49347      4147.51600
   1475139.30307  21237527.72807   1147822.56648  21237523.57148     -1183.35900
 08 11 11  0 26 29.9970000  0  9  3  6 13 16 19 21 23 25 31
 -21743310.59107  19652854.45407 -16914346.97649  19652851.31749      3310.18800
 -17241148.34807  19486416.48507 -13416366.30749  19486413.53649      2198.09400
 -10114307.49507  21689695.01707  -7856219.81747  21689690.32947      2964.78100
  -4557114.86907  19771281.38407  -3547576.95049  19771276.82549       188.62500
  -5907019.21006  22166610.38406  -4586101.08448  22166605.81048      4620.95300
  -5751081.58706  23010287.98506  -4469579.56146  23010283.16546      1732.96900
 -14336915.75007  20500284.89207 -11154575.07948  20500279.16548      1264.34400
  -2163655.42905  23148724.43805  -1669521.15547  23148721.88447      4147.21900
   1492926.03607  21240912.63407   1161682.35148  21240908.06348     -1188.29700
 08 11 11  0 26 44.9970000  0  9  3  6 13 16 19 21 23 25 31
 -21792906.53707  19643416.95407 -16952993.17149  19643413.33749      3302.68800
 -17274058.89107  19480153.37607 -13442010.90449  19480150.71649      2190.15600
 -10158714.48807  21681245.03207  -7890822.68247  21681239.32947      2956.20300
  -4559921.19707  19770747.05607  -3549763.70649  19770742.69649       185.65600
  -5976307.36706  22153424.67306  -4640091.85448  22153420.21248      4617.50000
  -5777025.38506  23005351.50906  -4489795.48947  23005346.09947      1726.21900
 -14355805.33306  20496690.13406 -11169294.25248  20496684.74348      1254.37500
  -2225860.39205  23136887.18105  -1717992.53347  23136884.74347      4146.93800
   1510786.73907  21244311.41507   1175599.77248  21244307.20448     -1193.04700
 08 11 11  0 26 59.9970000  0  9  3  6 13 16 19 21 23 25 31
 -21842386.88007  19634001.00907 -16991549.27949  19633998.40749      3294.92200
 -17306847.06907  19473914.43807 -13467560.11649  19473911.03649      2181.96900
 -10202990.11907  21672818.82107  -7925323.16647  21672814.07547      2947.46900
  -4562680.19407  19770221.73507  -3551913.57049  19770218.86449       182.46900
  -6045543.75306  22140249.17306  -4694042.26448  22140245.16148      4614.07800
  -5802865.60906  23000433.89906  -4509930.71047  23000429.26347      1719.34400
 -14374541.52906  20493124.75906 -11183893.89048  20493118.40748      1244.10900
  -2288058.43205  23125051.44605  -1766458.54047  23125048.93547      4146.48400
   1528721.56207  21247724.07907   1189574.94648  21247720.94248     -1198.04700
 08 11 11  0 27 14.9970000  0  9  3  6 13 16 19 21 23 25 31
 -21891751.67207  19624607.25107 -17030015.33749  19624604.41149      3287.28100
 -17339512.85707  19467698.14207 -13493013.97949  19467695.67349      2173.81300
 -10247134.48607  21664418.39207  -7959721.38147  21664413.52447      2938.64100
  -4565392.03807  19769705.85307  -3554026.70049  19769702.29849       179.29700
  -6114727.92206  22127084.36006  -4747951.99548  22127079.20848      4610.65600
  -5828602.12206  22995536.46206  -4529985.13747  22995532.23947      1712.43800
 -14393124.31507  20489588.95407 -11198373.97848  20489582.52448      1233.87500
  -2350249.54305  23113217.25105  -1814919.13547  23113214.06047      4146.00000
   1546730.27707  21251151.38407   1203607.68248  21251147.33748     -1202.89100
 08 11 11  0 27 29.9970000  0  9  3  6 13 16 19 21 23 25 31
 -21941003.94107  19615234.85307 -17068393.73449  19615231.34549      3279.65600
 -17372059.24807  19461505.16507 -13518374.79749  19461502.14649      2165.64100
 -10291150.06506  21656041.97006  -7994019.22547  21656037.89647      2930.03100
  -4568059.80406  19769198.45406  -3556105.47549  19769194.39949       176.35900
  -6183862.78306  22113928.48506  -4801823.30548  22113923.34148      4607.23400
  -5854237.76406  22990657.39906  -4549960.95047  22990653.88847      1705.59400
 -14411556.82807  20486081.32107 -11212736.98848  20486075.22448      1223.70300
  -2412436.41705  23101383.22005  -1863376.45347  23101379.77147      4145.57800
   1564809.95207  21254591.64207   1217695.72248  21254587.85648     -1207.73400
 08 11 11  0 27 44.9970000  0  9  3  6 13 16 19 21 23 25 31
 -21990141.13707  19605884.43107 -17106682.45749  19605881.51749      3271.98400
 -17404484.13507  19455334.79807 -13543640.94449  19455332.13849      2157.60900
 -10335034.54406  21647691.22806  -8028214.91947  21647686.64647      2921.34400
  -4570681.51807  19768699.15707  -3558148.38049  19768695.19649       173.21900
  -6252946.19006  22100782.73506  -4855654.54448  22100777.38048      4603.84400
  -5879770.35006  22985799.54806  -4569856.49047  22985794.90347      1698.75000
 -14429837.04906  20482602.14906 -11226981.30548  20482596.15348      1213.64100
  -2474616.87205  23089551.08705  -1911828.74547  23089546.93847      4145.18800
   1582962.68307  21258046.18107   1231840.70048  21258042.06348     -1212.59400
 08 11 11  0 27 59.9970000  0  9  3  6 13 16 19 21 23 25 31
 -22039162.96907  19596555.71207 -17144881.27549  19596553.07949      3264.37500
 -17436787.47007  19449187.65707 -13568812.36149  19449184.61049      2149.67200
 -10378787.76806  21639365.27406  -8062308.34447  21639361.48547      2912.68800
  -4573257.26007  19768209.45407  -3560155.45349  19768204.82549       170.28100
  -6321977.76706  22087646.15706  -4909445.36948  22087641.73548      4600.48400
  -5905199.78806  22980960.75106  -4589671.62547  22980956.10347      1692.12500
 -14447964.95206  20479152.81306 -11241106.93948  20479146.75548      1203.59400
  -2536790.67706  23077719.97006  -1960275.86347  23077716.00147      4144.82800
   1601188.15207  21261514.16507   1246042.35648  21261510.97448     -1217.35900
 08 11 11  0 28 14.9970000  0  9  3  6 13 16 19 21 23 25 31
 -22088071.14207  19587249.05607 -17182991.54149  19587245.95049      3256.81300
 -17468970.80007  19443063.61807 -13593890.28749  19443060.63049      2141.59400
 -10422411.01507  21631064.64907  -8096300.50147  21631060.48547      2903.85900
  -4575788.75307  19767727.63407  -3562128.05249  19767723.37249       167.32800
  -6390958.53706  22074519.57906  -4963196.60848  22074515.54848      4597.09400
  -5930527.33106  22976140.89906  -4609407.38647  22976136.29047      1685.20300
 -14465941.92106  20475731.97806 -11255114.98048  20475725.95048      1193.46900
  -2598959.15905  23065889.28205  -2008718.83847  23065886.54047      4144.42200
   1619484.83007  21264996.18107   1260299.49048  21264992.45448     -1222.14100
 08 11 11  0 28 29.9970000  0  9  3  6 13 16 19 21 23 25 31
 -22136864.07207  19577963.97007 -17221012.01149  19577960.97849      3249.09400
 -17501032.57807  19436962.11807 -13618873.49049  19436959.15349      2133.45300
 -10465902.77407  21622788.12607  -8130190.17447  21622784.57147      2895.17200
  -4578274.70007  19767254.62607  -3564065.14949  19767250.14249       164.25000
  -6459886.95606  22061403.25906  -5016907.06848  22061399.00948      4593.59400
  -5955751.48706  22971341.00106  -4629062.54847  22971336.13847      1678.25000
 -14483766.67406  20472339.36806 -11269004.42948  20472334.28648      1183.31300
  -2661120.66205  23054060.63405  -2057156.35247  23054057.55647      4144.01600
   1637854.08007  21268491.79807   1274613.16748  21268487.79848     -1226.95300
 08 11 11  0 28 44.9970000  0  9  3  6 13 16 19 21 23 25 31
 -22185540.80507  19568701.22807 -17258941.93049  19568698.56749      3241.28100
 -17532972.01307  19430884.29807 -13643761.36449  19430881.77149      2125.20300
 -10509261.92506  21614536.81306  -8163976.52448  21614533.42748      2886.21900
  -4580714.34407  19766790.17307  -3565966.16849  19766785.72849       161.14100
  -6528762.04806  22048296.39906  -5070575.95848  22048292.19248      4589.89100
  -5980871.35906  22966560.84506  -4648636.46547  22966556.04847      1671.21900
 -14501438.47106  20468977.00906 -11282774.67448  20468971.98948      1173.09400
  -2723274.25505  23042233.32905  -2105587.71647  23042230.14647      4143.34400
   1656296.51907  21272001.33707   1288983.89148  21271997.36848     -1231.90600
 08 11 11  0 28 59.9970000  0  9  3  6 13 16 19 21 23 25 31
 -22234101.29107  19559460.32107 -17296781.26949  19559457.40749      3233.54700
 -17564789.51507  19424829.50107 -13668554.21849  19424826.25149      2117.14100
 -10552488.78106  21606310.84506  -8197659.78247  21606308.14247      2877.40600
  -4583108.16907  19766335.25107  -3567831.48749  19766330.32949       158.15600
  -6597583.79406  22035200.23506  -5124203.27748  22035195.99348      4586.35900
  -6005887.02906  22961800.79806  -4668129.19547  22961796.07547      1664.28100
 -14518957.66006  20465642.95406 -11296426.00249  20465638.41149      1162.93800
  -2785420.08205  23030407.02405  -2154013.02047  23030404.56347      4142.81300
   1674811.75307  21275524.39207   1303411.33448  21275520.07948     -1236.67200
 08 11 11  0 29 14.9970000  0  9  3  6 13 16 19 21 23 25 31
 -22282547.00107  19550241.49307 -17334531.17449  19550238.06349      3225.89100
 -17596486.50807  19418797.56307 -13693253.17549  19418794.32549      2109.15600
 -10595584.21506  21598110.10306  -8231240.63347  21598106.70047      2868.73400
  -4585457.87107  19765887.56307  -3569662.42349  19765883.18549       155.21900
  -6666353.57606  22022113.93806  -5177790.11548  22022109.04048      4582.89100
  -6030799.85006  22957059.15706  -4687541.72347  22957054.94247      1657.45300
 -14536325.85007  20462338.38407 -11309959.66049  20462333.22049      1152.89100
  -2847559.45405  23018581.81305  -2202433.30947  23018580.18847      4142.40600
   1693398.26307  21279061.55607   1317894.31948  21279057.35348     -1241.35900
 08 11 11  0 29 29.9970000  0  9  3  6 13 16 19 21 23 25 31
 -22330876.77307  19541044.28207 -17372190.73649  19541041.41949      3218.23400
 -17628061.85807  19412789.14207 -13717857.33849  19412784.99349      2101.12500
 -10638546.93806  21589934.22806  -8264718.07447  21589930.45847      2859.84400
  -4587762.28207  19765449.34507  -3571458.08549  19765444.60349       152.20300
  -6735069.86906  22009037.61006  -5231335.28148  22009033.10348      4579.40600
  -6055608.57806  22952338.07106  -4706873.19747  22952333.83347      1650.54700
 -14553541.90707  20459062.25107 -11323374.77648  20459056.84948      1142.79700
  -2909690.99805  23006759.32905  -2250847.48747  23006756.69647      4141.92200
   1712057.06707  21282611.86007   1332433.63848  21282607.33748     -1246.25000
 08 11 11  0 29 44.9970000  0  9  3  6 13 16 19 21 23 25 31
 -22379091.70807  19531869.29807 -17409760.80749  19531866.52849      3210.60900
 -17659517.03407  19406803.68807 -13742367.87349  19406800.42749      2093.06300
 -10681378.39507  21581784.25107  -8298093.24047  21581779.75947      2851.14100
  -4590023.06007  19765018.99307  -3573219.72449  19765014.58749       149.42200
  -6803733.91506  21995971.01706  -5284839.72448  21995967.02448      4575.90600
  -6080314.63006  22947636.96206  -4726124.64847  22947631.96247      1643.70300
 -14570607.37307  20455814.91507 -11336672.54548  20455809.41148      1132.75000
  -2971816.02205  22994936.77405  -2299256.56347  22994934.29847      4141.53100
   1730786.38307  21286176.08707   1347027.88048  21286171.19648     -1250.93800
 08 11 11  0 29 59.9970000  0  9  3  6 13 16 19 21 23 25 31
 -22427190.94407  19522716.39207 -17447240.71849  19522713.21649      3202.76600
 -17690851.20607  19400840.70407 -13766784.10649  19400837.69249      2084.89100
 -10724077.59107  21573658.97807  -8331365.34947  21573654.18147      2842.23400
  -4592239.53307  19764597.08707  -3574946.85549  19764592.76749       146.25000
  -6872344.61606  21982914.79006  -5338302.59648  21982910.32948      4572.25000
  -6104916.95106  22942956.14906  -4745295.27047  22942950.76747      1636.60900
 -14587521.57206  20452595.85306 -11349852.43848  20452590.41548      1122.53100
  -3033933.61105  22983116.48505  -2347659.86647  22983114.39647      4140.82800
   1749587.13507  21289753.82907   1361677.81748  21289749.02848     -1255.79700
 08 11 11  0 30 14.9970000  0  9  3  6 13 16 19 21 23 25 31
 -22475171.84607  19513586.26707 -17484628.44449  19513582.50949      3194.87500
 -17722061.77007  19394901.75907 -13791104.02049  19394898.74349      2076.65600
 -10766641.87707  21565559.06307  -8364532.32347  21565555.83747      2833.17200
  -4594409.21707  19764184.73507  -3576637.52349  19764179.88849       143.15600
  -6940899.12606  21969869.15706  -5391721.67948  21969864.36448      4568.54700
  -6129412.86006  22938293.75906  -4764382.97047  22938289.67347      1629.57800
 -14604281.84307  20449406.53207 -11362912.40348  20449401.32948      1112.31300
  -3096040.90505  22971298.50105  -2396055.12347  22971295.36847      4140.21900
   1768461.90007  21293345.32907   1376385.41248  21293340.82948     -1260.73400
 08 11 11  0 30 29.9970000  0  9  3  6 13 16 19 21 23 25 31
 -22523035.71307  19504477.93807 -17521924.95249  19504474.93849      3187.12500
 -17753150.37107  19388985.82107 -13815328.89849  19388982.84949      2068.79700
 -10809072.18406  21557484.55606  -8397594.88047  21557481.48147      2824.42200
  -4596533.84907  19763780.49307  -3578293.08649  19763775.53649       140.35900
  -7009398.74006  21956834.24306  -5445097.98448  21956829.84948      4565.04700
  -6153803.68406  22933652.69606  -4783388.79447  22933648.27147      1622.82800
 -14620889.76806  20446245.93806 -11375853.64248  20446241.41148      1102.31300
  -3158139.28705  22959480.75105  -2444443.45047  22959478.51347      4139.95300
   1787408.97307  21296950.81307   1391149.35648  21296946.24348     -1265.39100
 08 11 11  0 30 44.9970000  0  9  3  6 13 16 19 21 23 25 31
 -22570785.03207  19495391.57107 -17559132.21049  19495388.31049      3179.39100
 -17784119.52007  19383092.38407 -13839460.70149  19383089.75949      2060.56300
 -10851370.95406  21549435.76706  -8430554.96147  21549431.84547      2815.50000
  -4598616.03407  19763384.04807  -3579915.56849  19763378.50149       137.34400
  -7077845.78606  21943809.07906  -5498433.32848  21943804.29848      4561.29700
  -6178092.04406  22929030.59506  -4802314.78446  22929026.10346      1615.71900
 -14637348.08307  20443114.38407 -11388678.30449  20443109.36049      1092.15600
  -3220231.13305  22947664.71205  -2492826.70247  22947662.43847      4139.20300
   1806425.66107  21300569.57107   1405967.54148  21300565.72848     -1270.09400
 08 11 11  0 30 59.9970000  0  9  3  6 13 16 19 21 23 25 31
 -22618419.03607  19486326.97007 -17596249.62649  19486323.52449      3171.89100
 -17814968.48407  19377222.11007 -13863498.84549  19377219.51349      2052.76600
 -10893537.48406  21541411.11806  -8463412.02547  21541407.93547      2806.89100
  -4600655.31407  19762996.05607  -3581504.62549  19762990.71249       134.71900
  -7146239.41406  21930793.86806  -5551727.06148  21930789.43548      4557.96900
  -6202277.04506  22924428.93806  -4821160.21946  22924423.89646      1609.10900
 -14653656.19107  20440011.76707 -11401385.94449  20440005.30649      1082.39100
  -3282315.56305  22935850.72805  -2541204.16447  22935848.75947      4138.82800
   1825512.39807  21304201.83707   1420840.30648  21304197.67748     -1274.57800
 08 11 11  0 31 14.9970000  0  9  3  6 13 16 19 21 23 25 31
 -22665935.54407  19477284.60307 -17633275.48049  19477281.08349      3163.76600
 -17845695.37107  19371374.85307 -13887441.86449  19371371.67749      2044.32800
 -10935569.69106  21533412.33706  -8496164.38947  21533410.02447      2797.46900
  -4602649.75507  19762616.55607  -3583058.73249  19762611.47449       131.34400
  -7214577.32306  21917790.25906  -5604977.36748  21917785.09948      4553.85900
  -6226356.57006  22919846.33706  -4839923.51147  22919841.69247      1601.64100
 -14669812.21207  20436936.57907 -11413975.06748  20436931.21648      1071.87500
  -3344390.39905  22924038.14205  -2589574.14247  22924035.85647      4137.95300
   1844671.11607  21307847.61007   1435769.16548  21307842.96648     -1279.75000
 08 11 11  0 31 29.9970000  0  9  3  6 13 16 19 21 23 25 31
 -22713332.73107  19468265.60307 -17670208.34749  19468262.11049      3155.98400
 -17876298.18307  19365551.58707 -13911288.20749  19365548.48549      2036.23400
 -10977465.45506  21525440.35306  -8528810.45247  21525437.93147      2788.68800
  -4604597.55507  19762245.89907  -3584576.50549  19762241.45449       128.51600
  -7282857.43406  21904796.86006  -5658182.63848  21904792.06048      4550.25000
  -6250328.61606  22915284.55606  -4858603.07847  22915280.26347      1594.65600
 -14685814.04307  20433891.89207 -11426444.03748  20433886.22448      1061.82800
  -3406453.60405  22912228.00905  -2637935.04747  22912225.39247      4137.39100
   1863903.74207  21311507.79007   1450755.61048  21311503.64948     -1284.46900
 08 11 11  0 31 44.9970000  0  9  3  6 13 16 19 21 23 25 31
 -22760613.87307  19459268.38407 -17707050.79749  19459264.95849      3148.37500
 -17906780.55707  19359751.19607 -13935040.69949  19359748.06349      2028.29700
 -11019227.83106  21517493.27406  -8561352.57547  21517489.84147      2779.89100
  -4606502.32707  19761883.44607  -3586060.73649  19761878.38449       125.75000
  -7351082.85906  21891814.29806  -5711345.29348  21891809.27848      4546.68800
  -6274196.59005  22910741.77405  -4877201.44247  22910737.73947      1587.92200
 -14701665.14607  20430875.47007 -11438795.55748  20430869.87648      1051.87500
  -3468508.43005  22900419.63405  -2686289.48147  22900416.46647      4136.90600
   1883206.69307  21315180.97007   1465796.85448  21315176.45048     -1289.01600
 08 11 11  0 31 59.9970000  0  9  3  6 13 16 19 21 23 25 31
 -22807779.13807  19450292.79007 -17743802.95849  19450289.50949      3140.51600
 -17937142.81507  19353973.22807 -13958699.59649  19353970.14249      2020.18800
 -11060857.27706  21509571.79006  -8593791.10147  21509567.61047      2770.89100
  -4608364.59707  19761529.23507  -3587511.86049  19761523.79449       122.75000
  -7419253.74606  21878841.64906  -5764465.45048  21878837.06048      4542.90600
  -6297960.68606  22906219.91506  -4895718.90747  22906215.80647      1580.79700
 -14717366.30607  20427887.25907 -11451030.24348  20427882.07548      1041.75000
  -3530555.13105  22888612.47805  -2734637.56147  22888609.02447      4136.18800
   1902579.37807  21318866.80607   1480892.44048  21318862.93848     -1293.81300
 08 11 11  0 32 14.9970000  0  9  3  6 13 16 19 21 23 25 31
 -22854827.79707  19441339.72807 -17780464.23649  19441336.93149      3132.48400
 -17967384.42207  19348218.54807 -13982264.48849  19348215.17749      2011.87500
 -11102353.04106  21501675.36006  -8626125.45747  21501671.38447      2761.75000
  -4610183.95507  19761182.75107  -3588929.55249  19761177.17749       119.62500
  -7487369.28906  21865879.76706  -5817542.50248  21865875.44648      4538.93800
  -6321620.24306  22901717.93806  -4914154.91247  22901713.50547      1573.62500
 -14732916.96207  20424928.18107 -11463147.64048  20424922.05648      1031.50000
  -3592592.92005  22876807.68805  -2782978.68847  22876803.13047      4135.50000
   1922022.31007  21322566.75107   1496042.76048  21322563.21248     -1298.78100
 08 11 11  0 32 29.9960000  0  9  3  6 13 16 19 21 23 25 31
 -22901753.43807  19432409.96507 -17817029.66549  19432407.10949      3124.71900
 -17997500.21707  19342487.69107 -14005731.33549  19342484.70749      2003.85900
 -11143708.88907  21493805.76207  -8658350.78447  21493801.92647      2752.76600
  -4611957.27607  19760845.27007  -3590311.35949  19760840.43849       116.82800
  -7555421.62406  21852928.85606  -5870570.28748  21852925.18048      4535.34400
  -6345170.51206  22897236.77706  -4932505.77847  22897232.60247      1566.64100
 -14748313.05207  20421998.50407 -11475144.59748  20421992.47748      1021.40600
  -3654614.38705  22865004.42605  -2831307.07647  22865000.90247      4134.78100
   1941537.13206  21326280.38706   1511249.08648  21326276.30148     -1303.39100
 08 11 11  0 32 44.9960000  0  9  3  6 13 16 19 21 23 25 31
 -22948566.80007  19423501.66007 -17853507.61149  19423498.52749      3116.89100
 -18027498.61707  19336779.16807 -14029106.71449  19336775.64149      1995.76600
 -11184934.84806  21485959.96506  -8690474.90147  21485956.96547      2743.81300
  -4613689.16507  19760516.23107  -3591660.88749  19760510.97749       113.87500
  -7623423.94806  21839989.32406  -5923559.10448  21839984.63748      4531.48400
  -6368618.64506  22892775.44106  -4950777.03547  22892769.81347      1559.50000
 -14763561.07907  20419096.90207 -11487026.16748  20419091.18448      1011.39100
  -3716631.92805  22853203.02005  -2879632.41747  22853199.52047      4133.92200
   1961121.90406  21330007.65206   1526509.92548  21330003.33648     -1308.14100
 08 11 11  0 32 59.9960000  0  9  3  6 13 16 19 21 23 25 31
 -22995263.29807  19414615.74607 -17889894.49649  19414613.18449      3108.95300
 -18057376.43307  19331093.37907 -14052388.13049  19331090.19549      1987.64100
 -11226026.16206  21478140.71506  -8722494.11447  21478137.51647      2734.73400
  -4615378.54807  19760194.31607  -3592977.28549  19760189.03949       111.10900
  -7691370.23306  21827058.61306  -5976504.24847  21827054.15647      4527.70300
  -6391961.92906  22888332.77706  -4968966.58847  22888328.16047      1552.60900
 -14778658.71907  20416223.91007 -11498790.57148  20416217.96948      1001.35900
  -3778640.05305  22841403.40205  -2927950.42247  22841399.65647      4133.43800
   1980776.57906  21333747.01206   1541825.23648  21333742.70348     -1312.81300
 08 11 11  0 33 14.9960000  0  9  3  6 13 16 19 21 23 25 31
 -23041842.68207  19405752.52007 -17926190.12249  19405748.91449      3101.39100
 -18087133.78007  19325430.68407 -14075575.66649  19325428.34849      1979.85900
 -11266982.92806  21470347.09806  -8754408.48647  21470344.09847      2725.98400
  -4617025.50807  19759880.87107  -3594260.63149  19759875.19949       108.48400
  -7759260.19606  21814140.32406  -6029405.51648  21814135.30548      4524.12500
  -6415200.34906  22883910.34806  -4987074.43147  22883905.57447      1545.78100
 -14793606.21307  20413380.08207 -11510437.96648  20413373.65248       991.54700
  -3840638.51205  22829604.36305  -2976260.89247  22829600.87547      4132.85900
   2000501.15406  21337500.62106   1557195.02248  21337495.77048     -1317.28100
 08 11 11  0 33 29.9960000  0  9  3  6 13 16 19 21 23 25 31
 -23088304.39807  19396910.91007 -17962394.06249  19396907.48149      3093.37500
 -18116769.76107  19319791.28507 -14098668.64349  19319788.38749      1971.51600
 -11307804.30506  21462578.93406  -8786217.35547  21462576.11347      2716.75000
  -4618629.48507  19759575.96507  -3595510.48549  19759570.59449       105.29700
  -7827093.04506  21801232.37106  -6082262.27848  21801226.77048      4520.10900
  -6438332.98506  22879508.54306  -5005099.84047  22879503.57847      1538.48400
 -14808402.89707  20410564.07407 -11521967.85848  20410558.09048       981.20300
  -3902626.52805  22817809.24605  -3024563.24147  22817804.57847      4131.96900
   2020295.90707  21341267.87907   1572619.49448  21341263.60248     -1322.15600
 08 11 11  0 33 44.9960000  0  9  3  6 13 16 19 21 23 25 31
 -23134647.65607  19388092.12907 -17998505.68749  19388088.39549      3085.73400
 -18146284.01707  19314174.65207 -14121666.74949  19314172.05149      1963.64100
 -11348489.50106  21454836.84806  -8817920.10947  21454833.62947      2707.93800
  -4620190.15407  19759279.02007  -3596726.58549  19759274.35649       102.68800
  -7894867.94806  21788335.27006  -6135073.88148  21788329.17248      4516.53100
  -6461359.08506  22875126.77706  -5023042.28846  22875121.73446      1531.68800
 -14823048.38907  20407777.01207 -11533379.92749  20407771.48149       971.43800
  -3964603.20205  22806014.87105  -3072856.76747  22806011.43847      4131.50000
   2040161.29206  21345048.03506   1588099.00348  21345044.14548     -1326.59400
 08 11 11  0 33 59.9960000  0  9  3  6 13 16 19 21 23 25 31
 -23180875.11907  19379295.38707 -18034527.09649  19379291.79749      3077.96900
 -18175679.31507  19308581.24607 -14144572.17249  19308578.32449      1955.65600
 -11389041.23606  21447120.44106  -8849518.88147  21447115.99647      2699.01600
  -4621710.24107  19758989.55107  -3597911.08449  19758984.47349       100.06300
  -7962587.34506  21775448.55106  -6187842.23248  21775443.30548      4512.73400
  -6484281.44206  22870764.88706  -5040903.88746  22870759.25846      1524.71900
 -14837545.57507  20405018.50407 -11544676.45648  20405013.20348       961.56300
  -4026571.36305  22794223.06605  -3121143.61247  22794219.00447      4130.95300
   2060094.51206  21348841.19106   1603631.35648  21348837.65648     -1331.12500
 08 11 11  0 34 14.9960000  0  9  3  6 13 16 19 21 23 25 31
 -23226985.71507  19370520.89507 -18070457.42149  19370517.01649      3070.26600
 -18204954.75407  19303009.90207 -14167384.18749  19303007.60949      1947.84400
 -11429458.58206  21439428.97306  -8881012.88847  21439424.41447      2690.12500
  -4623189.03907  19758708.32407  -3599063.39749  19758703.02749        97.28100
  -8030250.15706  21762572.88706  -6240566.48448  21762567.21148      4509.03100
  -6507099.08806  22866422.52706  -5058683.83346  22866416.74246      1517.75000
 -14851893.61307  20402288.09007 -11555856.77248  20402282.25848       951.60900
  -4088529.74605  22782433.09005  -3169422.87047  22782428.71147      4130.37500
   2080096.34806  21352647.43406   1619217.20248  21352643.53148     -1335.62500
 08 11 11  0 34 29.9960000  0  9  3  6 13 16 19 21 23 25 31
 -23272977.54707  19361768.69107 -18106295.21449  19361765.77049      3062.45300
 -18234108.58907  19297462.42607 -14190101.45049  19297459.30949      1939.78100
 -11469739.38306  21431763.58206  -8912400.51547  21431759.20347      2681.06300
  -4624624.89807  19758434.74607  -3600182.24449  19758429.53949        94.62500
  -8097854.20906  21749707.91806  -6293244.94248  21749701.90648      4505.26600
  -6529809.94706  22862101.30106  -5076380.60746  22862095.23446      1510.81300
 -14866090.66607  20399585.99607 -11566919.41648  20399580.85648       941.67200
  -4150476.40606  22770645.34006  -3217692.97447  22770640.89147      4129.65600
   2100168.51206  21356466.73106   1634857.83148  21356463.27748     -1340.25000
 08 11 11  0 34 44.9960000  0  9  3  6 13 16 19 21 23 25 31
 -23318853.39607  19353038.81607 -18142042.62549  19353036.17249      3054.37500
 -18263143.83807  19291937.24607 -14212726.32049  19291933.79349      1931.56300
 -11509886.52406  21424123.77706  -8943684.01547  21424119.71147      2671.70300
  -4626020.97607  19758169.30907  -3601270.11449  19758164.00049        91.50000
  -8165402.44206  21736853.89506  -6345879.92648  21736848.35648      4501.15600
  -6552417.03806  22857799.52706  -5093996.52446  22857793.94946      1503.29700
 -14880139.84107  20396912.57407 -11577866.84148  20396907.19148       931.43800
  -4212414.15106  22758858.87906  -3265956.13347  22758854.02347      4128.65600
   2120307.76207  21360299.47307   1650550.73348  21360295.24248     -1345.09400
 08 11 11  0 34 59.9960000  0  9  3  6 13 16 19 21 23 25 31
 -23364609.01107  19344331.81607 -18177696.35749  19344328.98849      3046.37500
 -18292056.16307  19286435.34807 -14235255.40149  19286432.05949      1923.40600
 -11549895.40906  21416510.94906  -8974859.76547  21416506.39847      2662.73400
  -4627373.11607  19757912.14507  -3602323.72649  19757906.93849        88.73400
  -8232890.24006  21724011.36306  -6398467.81847  21724005.82447      4497.21900
  -6574915.94706  22853517.38706  -5111528.13847  22853513.08647      1496.39100
 -14894037.00907  20394268.86307 -11588695.80948  20394262.76248       921.45300
  -4274338.47306  22747074.95706  -3314208.87947  22747069.93047      4127.87500
   2140518.50107  21364145.56607   1666299.35048  21364141.84448     -1349.68800
 08 11 11  0 35 14.9960000  0  9  3  6 13 16 19 21 23 25 31
 -23410248.21307  19335646.93407 -18213259.36149  19335643.88749      3038.79700
 -18320849.48207  19280956.17607 -14257691.75949  19280952.98849      1915.60900
 -11589769.55706  21408922.89506  -9005930.52347  21408919.08247      2653.85900
  -4628685.21207  19757662.55907  -3603346.14649  19757656.75049        86.18800
  -8300321.21106  21711180.10606  -6451011.40047  21711173.96547      4493.53100
  -6597310.42606  22849256.55106  -5128978.38947  22849252.57447      1489.57800
 -14907786.12007  20391652.28507 -11599409.39148  20391646.51248       911.76600
  -4336253.01706  22735293.44906  -3362453.94747  22735288.41847      4127.34400
   2160796.63607  21368004.30107   1682100.46948  21368000.75848     -1354.06300
 08 11 11  0 35 29.9960000  0  9  3  6 13 16 19 21 23 25 31
 -23455767.06007  19326984.97307 -18248728.59749  19326981.85249      3030.68800
 -18349520.15807  19275500.27007 -14280032.53749  19275496.99649      1907.29700
 -11629505.52007  21401361.82407  -9036893.61547  21401357.53547      2644.50000
  -4629953.56407  19757421.21507  -3604334.46649  19757416.04749        83.03100
  -8367691.33606  21698359.57406  -6503507.61648  21698353.96148      4489.25000
  -6619596.52306  22845014.86306  -5146344.18447  22845010.85247      1482.14100
 -14921383.43507  20389064.41807 -11610004.69848  20389058.92648       901.39100
  -4398153.87806  22723513.98806  -3410688.40247  22723508.95747      4126.28100
   2181145.78907  21371876.76207   1697956.93648  21371873.70748     -1358.93800
 08 11 11  0 35 44.9960000  0  9  3  6 13 16 19 21 23 25 31
 -23501164.26307  19318346.30107 -18284103.04849  19318343.07449      3022.73400
 -18378067.04907  19270067.93407 -14302276.88449  19270064.85249      1899.28100
 -11669101.56507  21393826.75407  -9067747.66548  21393823.10648      2635.31300
  -4631177.23207  19757188.15207  -3605287.97049  19757183.12949        80.32800
  -8434999.36606  21685551.18406  -6555955.42048  21685545.71148      4485.37500
  -6641773.15506  22840794.65206  -5163624.69747  22840790.36747      1475.10900
 -14934828.10107  20386505.80907 -11620481.05748  20386500.82448       891.54700
  -4460039.80806  22711737.34006  -3458911.20647  22711732.77747      4125.57800
   2201566.94907  21375763.10607   1713869.49348  21375759.41848     -1363.48400
 08 11 11  0 35 59.9960000  0  9  3  6 13 16 19 21 23 25 31
 -23546441.64907  19309730.11307 -18319384.12249  19309726.64549      3014.46900
 -18406492.09707  19264658.67607 -14324426.26449  19264656.00049      1890.93800
 -11708559.52007  21386318.19907  -9098494.13648  21386314.61748      2625.89100
  -4632358.27507  19756963.27007  -3606208.26649  19756958.16049        77.23400
  -8502246.74706  21672754.12906  -6608355.96948  21672748.86348      4481.04700
  -6663842.00406  22836596.02006  -5180821.20847  22836590.33247      1467.57800
 -14948121.99407  20383975.99607 -11630839.93248  20383970.24248       881.09400
  -4521912.43706  22699963.33206  -3507123.63247  22699959.25847      4124.45300
   2222058.11507  21379662.56607   1729836.63548  21379658.69148     -1368.50000
 08 11 11  0 36 14.9960000  0  9  3  6 13 16 19 21 23 25 31
 -23591602.43107  19301136.90207 -18354574.35249  19301133.34049      3006.73400
 -18434798.44807  19259272.27707 -14346483.16349  19259268.99649      1883.04700
 -11747882.49307  21378835.01207  -9129135.40448  21378831.94948      2616.90600
  -4633499.96907  19756745.80907  -3607097.91649  19756740.21149        74.65600
  -8569436.58806  21659968.30906  -6660711.68848  21659963.25448      4477.31300
  -6685806.20606  22832416.43406  -5197936.12847  22832410.93047      1460.75000
 -14961268.44507  20381474.26207 -11641083.93848  20381468.95748       871.34400
  -4583774.74306  22688191.28506  -3555328.01047  22688186.20347      4123.73400
   2242615.93306  21383574.63706   1745855.69148  21383570.47748     -1372.85900
 08 11 11  0 36 29.9960000  0  9  3  6 13 16 19 21 23 25 31
 -23636645.36707  19292564.94907 -18389672.75849  19292561.54349      2998.90600
 -18462985.02707  19253908.34007 -14368446.72249  19253904.82049      1875.04700
 -11787069.07407  21371378.37907  -9159670.40548  21371373.86348      2607.79700
  -4634601.24307  19756536.71507  -3607956.05449  19756531.36349        72.00000
  -8636567.46006  21647193.94906  -6713021.44747  21647188.64547      4473.48400
  -6707664.55306  22828257.03506  -5214968.60847  22828252.44947      1453.67200
 -14974266.42307  20379001.16807 -11651212.25648  20378995.48848       861.51600
  -4645625.39606  22676421.54306  -3603523.33947  22676416.19547      4122.96900
   2263241.51706  21387499.09806   1761927.55548  21387495.83248     -1377.29700
 08 11 11  0 36 44.9960000  0  9  3  6 13 16 19 21 23 25 31
 -23681569.55808  19284016.27708 -18424678.61449  19284013.03949      2991.01600
 -18491051.22607  19248567.96507 -14390316.48149  19248564.36349      1867.06300
 -11826118.78607  21363947.23807  -9190098.75848  21363943.72748      2598.73400
  -4635661.55607  19756334.56607  -3608782.27049  19756328.77749        69.34400
  -8703638.56506  21634430.61306  -6765284.64548  21634425.28948      4469.45300
  -6729416.39706  22824116.31606  -5231918.08747  22824112.55147      1446.57800
 -14987115.43607  20376555.74607 -11661224.48848  20376550.18448       851.59400
  -4707463.65806  22664653.76206  -3651709.01247  22664648.59847      4122.10900
   2283935.38006  21391437.09806   1778052.62648  21391433.52048     -1381.84400
 08 11 11  0 36 59.9960000  0  9  3  6 13 16 19 21 23 25 31
 -23726375.92408  19275489.90208 -18459592.66749  19275486.60649      2983.21900
 -18518998.15807  19243249.93407 -14412093.31049  19243246.53149      1859.23400
 -11865032.32606  21356542.16006  -9220420.98348  21356538.35248      2589.76600
  -4636682.16807  19756140.47307  -3609577.54849  19756135.16449        66.81300
  -8770650.70706  21621679.39506  -6817501.89048  21621673.50048      4465.64100
  -6751062.54506  22819997.72306  -5248785.22447  22819994.17247      1439.68800
 -14999816.44907  20374139.37907 -11671121.38248  20374133.25048       841.90600
  -4769290.30306  22652888.11306  -3699885.61847  22652883.49647      4121.54700
   2304696.32906  21395387.80906   1794229.97748  21395383.43448     -1386.26600
 08 11 11  0 37 14.9960000  0  9  3  6 13 16 19 21 23 25 31
 -23771065.52308  19266985.48808 -18494415.73449  19266982.67649      2975.29700
 -18546826.80807  19237954.38707 -14433777.97749  19237951.16049      1851.18800
 -11903810.50506  21349163.11306  -9250637.76148  21349159.42248      2580.62500
  -4637664.16107  19755953.25407  -3610342.74049  19755948.66049        64.09400
  -8837604.63506  21608938.36306  -6869673.75948  21608932.96548      4461.64100
  -6772603.82006  22815898.33206  -5265570.60647  22815894.79747      1432.57800
 -15012370.70707  20371749.97307 -11680903.92648  20371744.13748       831.98400
  -4831106.08406  22641124.46506  -3748053.74847  22641120.55147      4120.60900
   2325523.19806  21399351.06606   1810458.67848  21399347.05148     -1390.73400
 08 11 11  0 37 29.9960000  0  9  3  6 13 16 19 21 23 25 31
 -23815637.53807  19258503.73807 -18529147.16449  19258501.17249      2967.21900
 -18574536.73007  19232681.33207 -14455370.11949  19232677.97749      1843.03100
 -11942452.63006  21341809.52006  -9280748.51748  21341806.28548      2571.29700
  -4638607.08307  19755774.22307  -3611077.49749  19755768.48449        61.25000
  -8904499.41506  21596208.30906  -6921799.55748  21596202.81348      4457.35900
  -6794039.68406  22811819.34806  -5282273.86946  22811815.02346      1425.23400
 -15024777.81007  20369388.80907 -11690571.79648  20369383.11748       821.95300
  -4892910.39806  22629363.90206  -3796212.95147  22629360.15247      4119.54700
   2346416.39206  21403327.02006   1826739.06748  21403322.68848     -1395.39100
 08 11 11  0 37 44.9960000  0  9  3  6 13 16 19 21 23 25 31
 -23860086.27907  19250045.30107 -18563782.54649  19250042.78549      2959.17200
 -18602122.20207  19227432.01207 -14476865.28549  19227428.49649      1834.84400
 -11980952.89906  21334484.01206  -9310748.72348  21334479.90648      2561.92200
  -4639505.37807  19755603.18407  -3611777.47249  19755597.77049        58.42200
  -8971329.17206  21583491.16006  -6973874.69548  21583485.61348      4453.15600
  -6815364.34506  22807762.02006  -5298890.48147  22807757.36347      1417.90600
 -15037032.13407  20367057.37907 -11700120.62748  20367052.09448       811.87500
  -4954697.21306  22617606.22306  -3844358.50847  22617602.26647      4118.43800
   2367381.59906  21407316.65206   1843075.56448  21407312.56648     -1400.10900
 08 11 11  0 37 59.9960000  0  9  3  6 13 16 19 21 23 25 31
 -23904416.72707  19241609.78507 -18598325.74749  19241606.59849      2951.53100
 -18629588.42807  19222204.96507 -14498267.53649  19222201.54349      1827.25000
 -12019316.07006  21327182.99606  -9340642.09348  21327179.53948      2553.06300
  -4640364.20207  19755439.69907  -3612446.68849  19755434.95749        56.06300
  -9038098.69706  21570785.37106  -7025902.89148  21570780.25448      4449.42200
  -6836582.73206  22803724.55106  -5315424.31347  22803719.23147      1411.10900
 -15049138.78007  20364753.40207 -11709554.36948  20364747.75848       802.26600
  -5016471.39806  22605850.94106  -3892494.22647  22605847.28547      4117.92200
   2388413.54306  21411319.28506   1859464.05748  21411314.62948     -1404.25000
 08 11 11  0 38 14.9960000  0  9  3  6 13 16 19 21 23 25 31
 -23948629.97007  19233196.17607 -18632777.63249  19233192.85249      2943.35900
 -18656936.59407  19217000.92607 -14519577.79149  19216997.00449      1819.04700
 -12057543.19406  21319908.20706  -9370429.47248  21319905.47748      2543.68800
  -4641184.85507  19755283.57407  -3613086.16849  19755278.69949        53.15600
  -9104809.13506  21558091.04306  -7077885.05848  21558085.94548      4445.06300
  -6857696.13705  22799706.05105  -5331876.30346  22799701.21146      1403.89100
 -15061099.21507  20362477.03507 -11718874.19948  20362471.53148       792.18800
  -5078234.07306  22594098.20706  -3940620.98347  22594095.00847      4116.85900
   2409510.80606  21415333.16006   1875903.48148  21415329.40248     -1408.93800
 08 11 11  0 38 29.9960000  0  9  3  6 13 16 19 21 23 25 31
 -23992723.05908  19224805.89508 -18667135.87649  19224802.99649      2935.39100
 -18684163.91007  19211819.66807 -14540793.89149  19211815.91849      1811.03100
 -12095631.35906  21312659.76206  -9400108.56447  21312657.09847      2534.34400
  -4641964.62707  19755135.27707  -3613693.76449  19755129.89549        50.43800
  -9171457.20506  21545408.23806  -7129818.62048  21545402.92648      4441.03100
  -6878701.46205  22795707.90205  -5348244.08846  22795703.82846      1396.56300
 -15072910.52507  20360229.83207 -11728077.82048  20360223.47348       782.40600
  -5139982.08606  22582347.34006  -3988736.29647  22582343.96547      4115.89100
   2430676.26206  21419361.32406   1892396.01748  21419356.98148     -1413.37500
 08 11 11  0 38 44.9960000  0  9  3  6 13 16 19 21 23 25 31
 -24036701.09908  19216436.87108 -18701404.48349  19216433.95749      2928.00000
 -18711275.38307  19206660.62107 -14561919.71249  19206656.99649      1803.48400
 -12133586.04806  21305437.20706  -9429683.63647  21305434.40247      2525.79700
  -4642708.88807  19754993.64507  -3614273.71549  19754987.70749        48.39100
  -9238047.84607  21532736.94907  -7181707.42248  21532731.32448      4437.43800
  -6899603.79205  22791730.78505  -5364531.61647  22791726.85247      1390.03100
 -15084577.97307  20358009.50407 -11737169.36848  20358003.25048       773.03100
  -5201720.41906  22570599.44906  -4036844.08447  22570596.31347      4115.59400
   2451904.75306  21423400.49606   1908937.66748  21423396.30548     -1417.31300
 08 11 11  0 38 59.9960000  0  9  3  6 13 16 19 21 23 25 31
 -24080560.04908  19208091.27708 -18735580.28749  19208087.68449      2919.81300
 -18738267.62707  19201523.91007 -14582952.63349  19201520.28949      1795.34400
 -12171402.55506  21298242.11306  -9459151.05048  21298238.80148      2516.35900
  -4643413.94207  19754859.23107  -3614823.11649  19754854.22349        45.50000
  -9304577.10007  21520076.25407  -7233548.38848  21520071.00448      4433.04700
  -6920399.34305  22787773.59805  -5380735.94147  22787769.59847      1382.67200
 -15096097.91807  20355817.28507 -11746145.95548  20355811.85648       762.89100
  -5263445.10706  22558853.58206  -4084941.23447  22558850.64147      4114.31300
   2473199.69006  21427453.44906   1925531.09848  21427448.66848     -1422.06300
 08 11 11  0 39 14.9960000  0  9  3  6 13 16 19 21 23 25 31
 -24124296.84308  19199768.37908 -18769660.90549  19199764.96549      2911.85900
 -18765137.35107  19196411.09007 -14603890.07949  19196407.65249      1787.42200
 -12209077.80007  21291072.84807  -9488508.37148  21291069.35948      2507.17200
  -4644076.76208  19754733.34808  -3615339.60149  19754728.50049        42.98400
  -9371041.59406  21507428.67606  -7285338.89748  21507423.57048      4429.00000
  -6941084.74606  22783838.27006  -5396854.40247  22783833.33247      1375.59400
 -15107467.60006  20353653.81606 -11755005.44648  20353648.12148       753.15600
  -5325152.88406  22547110.93406  -4133025.20347  22547108.52347      4113.53100
   2494564.17706  21431518.75406   1942178.73748  21431514.46148     -1426.43800
 08 11 11  0 39 29.9960000  0  9  3  6 13 16 19 21 23 25 31
 -24167913.99808  19191468.13708 -18803648.30449  19191464.73149      2904.01600
 -18791887.21107  19191320.21507 -14624734.12849  19191317.13349      1779.56300
 -12246614.14307  21283930.12107  -9517757.45848  21283925.65648      2498.03100
  -4644700.03407  19754614.80907  -3615825.27949  19754610.21549        40.43800
  -9437443.79006  21494792.49606  -7337080.85248  21494787.57448      4425.00000
  -6961662.62406  22779921.98806  -5412889.10947  22779917.63347      1368.43800
 -15118689.61907  20351518.40207 -11763749.88448  20351512.74648       743.43800
  -5386846.05206  22535370.91806  -4181097.79847  22535368.34047      4112.59400
   2515995.40607  21435597.20707   1958878.37748  21435593.13748     -1430.76600
 08 11 11  0 39 44.9960000  0  9  3  6 13 16 19 21 23 25 31
 -24211410.57508  19183191.32408 -18837541.74249  19183187.81649      2895.89100
 -18818516.74907  19186253.45707 -14645484.40749  19186250.23149      1771.43800
 -12284010.92407  21276813.62907  -9546897.80648  21276810.14548      2488.56300
  -4645283.31707  19754503.65207  -3616279.78649  19754498.70349        37.67200
  -9503782.70506  21482168.52006  -7388773.49948  21482164.26248      4420.57800
  -6982132.32806  22776026.49606  -5428839.50447  22776022.09047      1361.10900
 -15129763.44807  20349410.72307 -11772378.85548  20349405.27348       733.48400
  -5448523.84006  22523634.19106  -4229158.37747  22523631.85247      4111.46900
   2537493.84306  21439687.82406   1975630.38348  21439684.30948     -1435.37500
 08 11 11  0 39 59.9960000  0  9  3  6 13 16 19 21 23 25 31
 -24254786.84108  19174936.80908 -18871341.42349  19174933.47349      2887.78100
 -18845025.84807  19181208.48807 -14666140.84449  19181205.86749      1763.20300
 -12321268.22206  21269723.05906  -9575929.46248  21269720.57048      2479.20300
  -4645826.56107  19754401.08207  -3616703.09449  19754395.66849        34.84400
  -9570058.16006  21469556.76206  -7440416.70048  21469552.00448      4416.23400
  -7002493.57506  22772151.62906  -5444705.41547  22772147.40647      1353.85900
 -15140689.16707  20347332.01207 -11780892.40648  20347326.22348       723.46900
  -5510186.07506  22511899.80906  -4277206.86847  22511897.92247      4110.29700
   2559059.57806  21443791.78506   1992434.83748  21443788.25048     -1439.90600
 08 11 11  0 40 14.9960000  0  9  3  6 13 16 19 21 23 25 31
 -24298041.51908  19166705.23808 -18905046.36849  19166702.02349      2879.70300
 -18871413.52407  19176187.32407 -14686702.67349  19176184.51649      1755.32800
 -12358384.74706  21262660.11306  -9604851.43248  21262658.02348      2469.82800
  -4646328.93407  19754304.73807  -3617094.56149  19754299.96949        32.29700
  -9636268.82306  21456957.59006  -7492009.41848  21456952.71148      4412.07800
  -7022745.35806  22768297.39506  -5460486.00147  22768293.51247      1346.45300
 -15151465.99706  20345281.05906 -11789289.94148  20345275.82048       713.59400
  -5571831.47906  22500169.36306  -4325242.21447  22500167.05147      4109.31300
   2580693.33406  21447908.79306   2009292.28948  21447904.97348     -1444.45300
 08 11 11  0 40 29.9960000  0  9  3  6 13 16 19 21 23 25 31
 -24341175.23408  19158497.52008 -18938657.05349  19158493.88349      2871.46900
 -18897680.85307  19171188.77007 -14707170.72649  19171185.54749      1747.04700
 -12395361.11906  21255623.13706  -9633664.20148  21255621.19548      2460.29700
  -4646791.39907  19754216.69907  -3617454.92349  19754212.13749        29.35900
  -9702415.44806  21444370.14506  -7543552.24248  21444365.66048      4407.56300
  -7042888.47006  22764465.55906  -5476181.95647  22764460.09047      1339.17200
 -15162094.96406  20343258.20706 -11797572.25548  20343252.95748       703.56300
  -5633460.69406  22488441.88706  -4373264.99147  22488438.88347      4107.93800
   2602394.06906  21452037.69906   2026201.94748  21452034.09048     -1449.07800
 08 11 11  0 40 44.9960000  0  9  3  6 13 16 19 21 23 25 31
 -24384189.40608  19150312.09808 -18972174.58749  19150308.74649      2863.64100
 -18923829.14207  19166212.71507 -14727546.00249  19166209.37949      1739.34400
 -12432198.58506  21248614.27006  -9662368.71948  21248610.30548      2451.21900
  -4647215.37407  19754136.27707  -3617785.30649  19754131.10649        26.96900
  -9768498.99106  21431795.25406  -7595045.91348  21431790.21948      4403.45300
  -7062924.20106  22760652.18406  -5491794.19147  22760648.29747      1332.20300
 -15172577.37306  20341263.48806 -11805740.37448  20341258.26248       693.90600
  -5695074.81006  22476717.27006  -4421275.96447  22476713.96947      4107.04700
   2624160.51006  21456180.07406   2043162.78748  21456176.10248     -1453.31300
 08 11 11  0 40 59.9960000  0  9  3  6 13 16 19 21 23 25 31
 -24427083.56207  19142149.84007 -19005598.59849  19142146.51249      2855.70300
 -18949858.08907  19161259.62107 -14747828.29149  19161256.47349      1731.25000
 -12468896.87707  21241631.02007  -9690964.78848  21241627.27348      2441.95300
  -4647600.75707  19754063.05107  -3618085.59649  19754058.02749        24.48400
  -9834518.94506  21419231.98106  -7646490.01248  21419226.99648      4399.28100
  -7082851.98606  22756860.10606  -5507322.32847  22756855.49247      1325.01600
 -15182913.02707  20339296.77007 -11813794.13648  20339291.19948       684.18800
  -5756673.36106  22464995.12906  -4469274.81547  22464992.30947      4106.06300
   2645992.74206  21460334.27006   2060174.90148  21460330.13348     -1457.60900
 08 11 11  0 41 14.9960000  0  9  3  6 13 16 19 21 23 25 31
 -24469859.42708  19134009.57408 -19038930.44149  19134006.24249      2847.67200
 -18975769.50907  19156329.02007 -14768019.00549  19156325.61749      1723.39100
 -12505457.18407  21234673.63707  -9719453.33648  21234669.90648      2432.59400
  -4647949.36807  19753996.26207  -3618357.24949  19753991.62949        21.84400
  -9900476.92906  21406680.37106  -7697885.83548  21406675.79748      4394.95300
  -7102673.74506  22753088.29306  -5522767.82047  22753083.74247      1317.76600
 -15193103.87307  20337357.70707 -11821735.07148  20337351.91448       674.45300
  -5818257.87106  22453276.41006  -4517262.73047  22453273.02047      4105.03100
   2667888.77506  21464500.55906   2077236.72148  21464497.21148     -1461.95300
 08 11 11  0 41 29.9960000  0  9  3  6 13 16 19 21 23 25 31
 -24512513.90108  19125892.90208 -19072167.69649  19125889.25849      2839.50000
 -19001560.41907  19151420.96507 -14788115.81849  19151417.89149      1715.28100
 -12541876.44106  21227743.33206  -9747831.96647  21227739.62947      2423.14100
  -4648258.12707  19753937.75407  -3618597.84349  19753933.44149        19.14100
  -9966369.53606  21394141.29306  -7749230.72248  21394136.88748      4390.60900
  -7122386.19906  22749337.09806  -5538128.18447  22749332.02047      1310.37500
 -15203147.01907  20335446.53507 -11829560.90048  20335441.49248       664.54700
  -5879825.15106  22441560.19906  -4565237.22647  22441556.81647      4103.81300
   2689851.74606  21468680.82406   2094350.71848  21468676.87948     -1466.51600
 08 11 11  0 41 44.9960000  0  9  3  6 13 16 19 21 23 25 31
 -24555050.20908  19117798.67608 -19105312.87549  19117795.25449      2831.75000
 -19027234.19707  19146535.52707 -14808121.35149  19146532.56349      1707.60900
 -12578157.90706  21220838.62906  -9776103.25548  21220835.41448      2414.10900
  -4648530.58207  19753885.85607  -3618810.15549  19753880.77749        16.87500
 -10032199.94806  21381614.21506  -7800527.13148  21381610.12148      4386.60900
  -7141992.60706  22745605.84806  -5553405.91847  22745600.80147      1303.50000
 -15213045.92007  20333563.19107 -11837274.34348  20333557.48848       655.03100
  -5941378.27406  22429846.84006  -4613200.67647  22429843.04747      4102.93800
   2711878.01706  21472871.68406   2111514.03348  21472867.82048     -1470.65600
 08 11 11  0 41 59.9960000  0  9  3  6 13 16 19 21 23 25 31
 -24597467.24708  19109726.36308 -19138365.11949  19109723.27349      2823.76600
 -19052789.98507  19141672.59807 -14828034.95649  19141670.03949      1699.73400
 -12614300.60707  21213960.94107  -9804266.40848  21213957.73448      2404.84400
  -4648765.87207  19753841.19107  -3618993.50249  19753835.94949        14.39100
 -10097967.02206  21369099.45706  -7851774.18848  21369094.53548      4382.23400
  -7161491.96706  22741895.76206  -5568600.22746  22741890.42246      1296.28100
 -15222799.82707  20331706.93407 -11844874.78748  20331701.42648       645.39100
  -6002916.13606  22418137.07406  -4661152.22647  22418132.52347      4101.93800
   2733968.50106  21477075.48106   2128727.38548  21477071.13748     -1474.92200
 08 11 11  0 42 14.9960000  0  9  3  6 13 16 19 21 23 25 31
 -24639762.56008  19101678.18408 -19171322.50249  19101675.44149      2815.85900
 -19078225.35307  19136832.06607 -14847854.71249  19136829.55549      1691.92200
 -12650301.95807  21207110.53507  -9832319.42848  21207107.93448      2395.60900
  -4648961.73307  19753803.89507  -3619146.11549  19753798.87149        12.00000
 -10163667.75106  21356597.20706  -7902969.54348  21356592.04748      4378.10900
  -7180881.75606  22738206.16806  -5583709.12947  22738200.77347      1289.23400
 -15232406.35706  20329878.48106 -11852360.40448  20329873.28148       635.78100
  -6064436.04806  22406430.53506  -4709089.81447  22406425.46547      4101.03100
   2756125.48706  21481292.47306   2145992.55448  21481287.97748     -1479.07800
 08 11 11  0 42 29.9960000  0  9  3  6 13 16 19 21 23 25 31
 -24681939.32208  19093652.16008 -19204187.52049  19093648.94549      2807.85900
 -19103543.66707  19132014.27707 -14867583.26349  19132011.53149      1684.01600
 -12686165.02907  21200285.71507  -9860264.68848  21200283.04748      2386.31300
  -4649121.42207  19753773.40207  -3619270.55449  19753768.39549         9.45300
 -10229305.42607  21344106.36307  -7954115.77048  21344101.49248      4373.78100
  -7200164.99706  22734536.41806  -5598735.05747  22734532.20747      1281.93800
 -15241868.87607  20328078.14507 -11859733.80248  20328072.44148       626.10900
  -6125940.99506  22394725.87106  -4757015.74647  22394721.56647      4099.79700
   2778345.58006  21485520.51206   2163306.89848  21485516.19148     -1483.45300
 08 11 11  0 42 44.9960000  0  9  3  6 13 16 19 21 23 25 31
 -24723997.20408  19085648.86308 -19236959.89449  19085646.10649      2799.96900
 -19128744.49107  19127218.69107 -14887220.26649  19127215.38749      1676.18800
 -12721889.26607  21193488.34007  -9888101.74048  21193483.90248      2377.03100
  -4649244.68507  19753749.77707  -3619366.60449  19753744.96949         7.09400
 -10294879.44907  21331628.01207  -8005212.39248  21331623.05948      4369.57800
  -7219341.34306  22730886.90206  -5613677.67247  22730882.67247      1274.85900
 -15251187.17507  20326304.59007 -11866994.82248  20326299.48148       616.51600
  -6187430.40406  22383025.27706  -4804929.55647  22383020.16847      4098.84400
   2800628.96306  21489760.82406   2180670.56548  21489756.76248     -1487.56300
 08 11 11  0 42 59.9960000  0  9  3  6 13 16 19 21 23 25 31
 -24765936.40507  19077667.81607 -19269639.80249  19077665.04749      2791.96900
 -19153828.38907  19122445.03507 -14906766.15749  19122442.41849      1668.35900
 -12757474.94707  21186716.33207  -9915830.83948  21186712.17248      2367.78100
  -4649332.03607  19753733.28507  -3619434.68149  19753728.02749         4.57800
 -10360389.88607  21319161.91807  -8056259.49148  21319156.03148      4365.20300
  -7238411.29306  22727257.90206  -5628537.39347  22727254.03547      1267.78100
 -15260361.83207  20324558.57407 -11874143.91548  20324553.33648       606.85900
  -6248904.52206  22371326.91806  -4852831.46247  22371321.84847      4097.82800
   2822975.21307  21494013.63707   2198083.20048  21494008.43448     -1491.87500
 08 11 11  0 43 14.9960000  0  9  3  6 13 16 19 21 23 25 31
 -24807755.39007  19069710.21507 -19302226.01449  19069706.87549      2784.06300
 -19178794.02107  19117694.42607 -14926219.89249  19117691.23849      1660.56300
 -12792920.54007  21179970.44107  -9943450.77648  21179967.27748      2358.57800
  -4649382.20007  19753723.66007  -3619473.77949  19753719.23449         2.31300
 -10425835.21907  21306708.31607  -8107255.84548  21306702.35648      4360.90600
  -7257373.26506  22723650.16806  -5643312.96547  22723645.54347      1260.67200
 -15269391.56107  20322840.27707 -11881180.08548  20322835.11348       597.23400
  -6310361.63906  22359631.70706  -4900720.12547  22359626.93047      4096.71900
   2845385.55607  21498278.22307   2215545.79948  21498273.32848     -1496.06300
 08 11 11  0 43 29.9960000  0  9  3  6 13 16 19 21 23 25 31
 -24849453.32708  19061775.53508 -19334717.92549  19061772.51649      2775.84400
 -19203640.75107  19112966.75407 -14945580.97649  19112963.03949      1652.42200
 -12828225.25206  21173252.48106  -9970960.94547  21173249.00847      2348.90600
  -4649394.62707  19753721.43407  -3619483.47449  19753717.03149        -0.43800
 -10491214.41807  21294266.30907  -8158200.66548  21294260.78948      4356.43800
  -7276226.46706  22720062.02006  -5658003.75746  22720057.94546      1253.23400
 -15278275.78507  20321150.16807 -11888102.87048  20321144.59048       587.46900
  -6371800.97506  22347940.85606  -4948594.90847  22347936.07847      4095.35900
   2867860.46807  21502555.03507   2233058.70348  21502550.22348     -1500.43800
 08 11 11  0 43 44.9960000  0  9  3  6 13 16 19 21 23 25 31
 -24891031.35208  19053863.30108 -19367116.38449  19053860.80149      2767.85900
 -19228369.73907  19108260.65207 -14964850.30449  19108257.61349      1644.70300
 -12863390.10306  21166560.32406  -9998362.13648  21166556.96148      2339.67200
  -4649370.56807  19753725.76207  -3619464.72949  19753721.41849        -2.79700
 -10556528.48807  21281838.05907  -8209094.73048  21281831.62948      4352.07800
  -7294971.99106  22716496.12106  -5672610.67247  22716490.67647      1246.14100
 -15287015.81507  20319486.93407 -11894913.29348  20319481.74248       577.82800
  -6433223.38106  22336252.41006  -4996456.51447  22336247.74247      4094.21900
   2890398.73306  21506843.52706   2250620.96248  21506839.32448     -1504.73400
 08 11 11  0 43 59.9960000  0  9  3  6 13 16 19 21 23 25 31
 -24932489.82008  19045973.80108 -19399421.69249  19045971.33649      2759.81300
 -19252981.44107  19103577.57407 -14984028.26049  19103574.21549      1636.79700
 -12898415.22606  21159896.14506 -10025654.45148  21159891.02748      2330.20300
  -4649310.29007  19753737.30907  -3619417.76049  19753732.28949        -5.37500
 -10621777.43906  21269420.98806  -8259938.05348  21269415.32048      4347.64100
  -7313610.07306  22712948.72306  -5687133.85247  22712943.31647      1238.82800
 -15295612.13407  20317851.32407 -11901611.74048  20317845.85648       568.18800
  -6494628.98906  22324566.92606  -5044305.03147  22324562.15247      4093.00000
   2912999.95106  21511144.32406   2268232.26048  21511140.55148     -1509.00000
 08 11 11  0 44 14.9960000  0  9  3  6 13 16 19 21 23 25 31
 -24973827.39408  19038107.60608 -19431632.78449  19038104.98449      2751.54700
 -19277474.75907  19098916.18407 -15003113.96049  19098913.47749      1628.67200
 -12933299.49107  21153258.03507 -10052836.98648  21153253.23148      2320.60900
  -4649212.94507  19753755.70707  -3619341.90049  19753751.28549        -8.01600
 -10686960.01306  21257017.12106  -8310729.66248  21257011.71948      4342.98400
  -7332139.56106  22709422.56606  -5701572.41247  22709417.30947      1231.29700
 -15304063.95006  20316242.98106 -11908197.57948  20316237.40248       558.40600
  -6556016.64006  22312885.64506  -5092139.58247  22312881.14847      4091.60900
   2935665.03506  21515457.80106   2285893.34748  21515453.69948     -1513.46900
 08 11 11  0 44 29.9960000  0  9  3  6 13 16 19 21 23 25 31
 -25015041.81008  19030264.83208 -19463747.92549  19030261.77749      2743.59400
 -19301847.54307  19094278.40207 -15022105.74849  19094275.62949      1621.01600
 -12968040.51007  21146647.67607 -10079907.92748  21146642.92648      2311.43800
  -4649076.34707  19753781.83207  -3619235.46949  19753777.35949       -10.28100
 -10752073.69106  21244626.15206  -8361467.57948  21244621.00448      4338.75000
  -7350558.11406  22705917.20706  -5715924.55147  22705912.52047      1224.40600
 -15312369.11807  20314662.09007 -11914669.14248  20314656.67248       549.00000
  -6617383.66106  22301206.92606  -5139957.99847  22301202.98847      4090.57800
   2958396.10506  21519783.51206   2303605.84148  21519778.79748     -1517.46900
 08 11 11  0 44 44.9960000  0  9  3  6 13 16 19 21 23 25 31
 -25056135.97408  19022444.93408 -19495769.35549  19022441.22749      2735.57800
 -19326102.90707  19089662.67607 -15041006.02649  19089659.67249      1613.04700
 -13002641.19207  21140062.93407 -10106869.47748  21140058.52048      2301.92200
  -4648903.70707  19753814.61307  -3619100.94649  19753810.67649       -12.79700
 -10817121.28406  21232248.59806  -8412154.01048  21232242.74248      4334.17200
  -7368868.84706  22702433.09006  -5730192.63547  22702427.86347      1217.04700
 -15320530.85907  20313108.97307 -11921028.92448  20313103.94948       539.29700
  -6678732.97806  22289532.55906  -5187762.66647  22289529.55547      4089.26600
   2981189.92506  21524121.02706   2321367.24848  21524116.14148     -1521.75000
 08 11 11  0 44 59.9960000  0  9  3  6 13 16 19 21 23 25 31
 -25097110.43007  19014647.62107 -19527697.49649  19014643.84049      2727.57800
 -19350241.28908  19085069.17608 -15059815.15749  19085066.06349      1605.29700
 -13037101.79706  21133504.58206 -10133721.91548  21133501.75448      2292.65600
  -4648695.43607  19753854.16807  -3618938.65949  19753850.32849       -15.14100
 -10882102.90606  21219883.11306  -8462789.03648  21219877.24648      4329.87500
  -7387072.10806  22698969.32406  -5744376.97847  22698964.21947      1209.93800
 -15328549.51207  20311582.54307 -11927277.25548  20311578.30148       529.73400
  -6740064.72306  22277861.52006  -5235553.59147  22277858.61747      4088.03100
   3004046.00706  21528470.22306   2339177.16548  21528465.53148     -1525.85900
 08 11 11  0 45 14.9960000  0  9  3  6 13 16 19 21 23 25 31
 -25137964.42308  19006873.64508 -19559531.78149  19006869.48849      2719.57800
 -19374262.13607  19080498.05907 -15078532.69949  19080495.57449      1597.45300
 -13071421.65806  21126973.80906 -10160464.66548  21126971.04748      2283.21900
  -4648451.09407  19753900.68407  -3618748.27549  19753896.34449       -17.51600
 -10947017.79006  21207529.75406  -8513372.05748  21207524.61348      4325.43800
  -7405167.00906  22695526.12106  -5758476.89647  22695521.36347      1202.71900
 -15336424.67407  20310084.01207 -11933413.74648  20310079.71148       520.26600
  -6801378.07206  22266194.56606  -5283330.20647  22266191.55547      4086.93800
   3026964.71806  21532831.46506   2357035.87348  21532826.41048     -1529.96900
 08 11 11  0 45 29.9960000  0  9  3  6 13 16 19 21 23 25 31
 -25178696.85508  18999122.23808 -19591271.34049  18999118.78549      2711.54700
 -19398164.41907  19075950.01207 -15097157.85549  19075946.80949      1589.59400
 -13105599.39607  21120470.30107 -10187096.67548  21120467.62548      2273.92200
  -4648169.51107  19753954.05907  -3618528.85749  19753950.45749       -19.87500
 -11011864.53906  21195190.31606  -8563901.97948  21195184.59848      4320.92200
  -7423152.26106  22692102.96506  -5772491.38047  22692099.03547      1195.51600
 -15344155.41006  20308613.33206 -11939437.69648  20308608.60948       510.65600
  -6862671.62306  22254529.96506  -5331091.39347  22254527.60247      4085.57800
   3049947.19406  21537204.59006   2374944.26748  21537199.87548     -1534.20300
 08 11 11  0 45 44.9960000  0  9  3  6 13 16 19 21 23 25 31
 -25219307.31908  18991394.52008 -19622915.85649  18991391.53949      2703.50000
 -19421948.14507  19071424.05907 -15115690.62349  19071421.03149      1581.81300
 -13139634.89207  21113993.84807 -10213617.84648  21113989.99648      2264.45300
  -4647850.88507  19754014.98107  -3618280.57849  19754011.36349       -22.29700
 -11076642.98106  21182863.12106  -8614378.67348  21182857.92648      4316.59400
  -7441027.88806  22688702.16006  -5786420.45247  22688696.77347      1188.25000
 -15351741.77407  20307169.69107 -11945349.15748  20307164.49248       501.15600
  -6923945.22106  22242870.36306  -5378837.04647  22242867.21547      4084.29700
   3072993.39006  21541590.46506   2392902.31748  21541585.30948     -1538.35900
 08 11 11  0 45 59.9960000  0  9  3  6 13 16 19 21 23 25 31
 -25259796.55908  18983689.48808 -19654465.90649  18983686.07449      2695.26600
 -19445613.96407  19066920.58207 -15134131.51349  19066917.42249      1573.87500
 -13173528.65507  21107544.63707 -10240028.57248  21107539.85648      2254.93800
  -4647495.73407  19754082.46507  -3618003.85449  19754078.75849       -24.84400
 -11141353.34806  21170549.48806  -8664802.32348  21170544.39548      4311.79700
  -7458794.45305  22685320.94105  -5800264.54447  22685316.21147      1180.84400
 -15359184.59707  20305753.94107 -11951148.76948  20305748.34048       491.50000
  -6985199.16306  22231214.08206  -5426567.38547  22231210.57847      4083.01600
   3096102.54706  21545987.98106   2410909.42548  21545983.31348     -1542.60900
 08 11 11  0 46 14.9960000  0  9  3  6 13 16 19 21 23 25 31
 -25300167.99807  18976007.31607 -19685924.17349  18976003.69949      2687.34400
 -19469165.53707  19062438.86307 -15152483.38749  19062435.74649      1566.14100
 -13207284.31207  21101120.77007 -10266331.66648  21101116.14148      2245.54700
  -4647107.99107  19754156.16807  -3617701.72149  19754152.43449       -27.09400
 -11205998.97906  21158247.52706  -8715175.54048  21158242.81348      4307.35900
  -7476455.45606  22681960.51206  -5814026.37447  22681955.87547      1173.70300
 -15366487.75207  20304364.24607 -11956839.54548  20304358.09848       482.07800
  -7046436.87606  22219561.09006  -5474285.06847  22219557.25447      4081.70300
   3119270.79706  21550396.73806   2428962.58248  21550392.00048     -1546.64100
 08 11 11  0 46 29.9960000  0  9  3  6 13 16 19 21 23 25 31
 -25340420.57908  18968347.59808 -19717289.82849  18968344.34449      2679.48400
 -19492602.07507  19057978.88707 -15170745.62649  19057975.97749      1558.51600
 -13240900.52407  21094723.61307 -10292526.11048  21094719.62148      2236.42200
  -4646686.68307  19754235.95707  -3617373.42849  19754232.17249       -29.23400
 -11270578.69006  21145958.39506  -8765497.40248  21145953.55148      4303.03100
  -7494009.88106  22678619.10606  -5827705.09047  22678615.08247      1166.65600
 -15373650.37007  20303000.91007 -11962420.81748  20302994.39548       472.70300
  -7107657.13606  22207911.44906  -5521989.14947  22207907.70347      4080.71900
   3142499.10006  21554817.21506   2447062.54548  21554812.11348     -1550.57800
 08 11 11  0 46 44.9960000  0  9  3  6 13 16 19 21 23 25 31
 -25380548.22907  18960711.40207 -19748558.11949  18960707.89149      2671.10900
 -19515917.52207  19053542.32407 -15188913.51049  19053538.55949      1550.39100
 -13274371.19307  21088353.34807 -10318607.15947  21088350.46947      2226.65600
  -4646225.80107  19754324.02707  -3617014.30449  19754319.87949       -31.93800
 -11335086.38506  21133682.12906  -8815763.12448  21133678.35248      4298.21900
  -7511451.65705  22675299.87105  -5841296.07647  22675295.82447      1159.09400
 -15380666.55407  20301665.67607 -11967887.97148  20301660.28948       462.95300
  -7168853.68106  22196266.38706  -5569674.77247  22196262.37547      4079.10900
   3165793.30706  21559250.06606   2465213.84848  21559244.95348     -1555.04700
 08 11 11  0 46 59.9960000  0  9  3  6 13 16 19 21 23 25 31
 -25420558.22308  18953097.60608 -19779734.72649  18953093.98149      2663.26600
 -19539119.00607  19049127.08207 -15206992.57749  19049123.27749      1542.81300
 -13307703.36206  21082010.77706 -10344580.29447  21082006.79347      2217.40600
  -4645732.61807  19754418.17607  -3616630.01349  19754413.53549       -34.07800
 -11399528.98406  21121419.40206  -8865978.12348  21121415.47348      4293.81300
  -7528787.91306  22672001.44906  -5854804.86747  22671997.18847      1152.03100
 -15387543.56207  20300357.24607 -11973246.68748  20300351.29348       453.68800
  -7230033.44206  22184624.67606  -5617347.30247  22184620.81347      4077.90600
   3189146.07507  21563694.08207   2483410.78248  21563689.16448     -1558.96900
 08 11 11  0 47 14.9960000  0  9  3  6 13 16 19 21 23 25 31
 -25460446.77108  18945507.27708 -19810816.72349  18945503.87949      2655.28100
 -19562203.16607  19044734.30107 -15224980.23349  19044730.51649      1535.12500
 -13340893.36206  21075695.16806 -10370442.64448  21075691.43448      2208.03100
  -4645203.64007  19754518.39507  -3616217.82249  19754514.74249       -36.29700
 -11463902.56306  21109170.41006  -8916139.33648  21109165.35948      4289.43800
  -7546015.01405  22668723.77005  -5868228.56547  22668719.23847      1144.95300
 -15394277.95107  20299075.53507 -11978494.27148  20299070.10948       444.31300
  -7291192.68406  22172985.79306  -5665003.85747  22172982.74247      4076.68800
   3212560.91007  21568149.70707   2501656.08248  21568145.28948     -1562.85900
 08 11 11  0 47 29.9960000  0  9  3  6 13 16 19 21 23 25 31
 -25500216.70707  18937938.84807 -19841806.28249  18937935.81349      2647.35900
 -19585172.83907  19040363.25407 -15242878.68449  19040360.31649      1527.45300
 -13373943.91006  21069406.31606 -10396196.30248  21069403.04748      2198.65600
  -4644641.81307  19754625.37907  -3615780.04349  19754621.07849       -38.62500
 -11528209.58706  21096932.88706  -8966248.68948  21096927.94548      4284.87500
  -7563135.66706  22665465.53506  -5881569.35147  22665460.77347      1137.79700
 -15400872.90107  20297820.34807 -11983633.19548  20297816.22348       434.96900
  -7352333.94206  22161351.70706  -5712646.37447  22161348.39547      4075.43800
   3236034.91006  21572616.08206   2519947.49048  21572612.14148     -1566.98400
 08 11 11  0 47 44.9960000  0  9  3  6 13 16 19 21 23 25 31
 -25539866.75408  18930394.16808 -19872702.43649  18930390.99649      2639.32800
 -19608027.07907  19036014.23807 -15260687.17549  19036011.48149      1519.68800
 -13406854.01907  21063143.99607 -10421840.53648  21063139.80148      2189.29700
  -4644046.09907  19754738.62107  -3615315.85849  19754734.45749       -40.89100
 -11592448.76006  21084708.05906  -9016305.18348  21084703.87948      4280.32800
  -7580148.87005  22662227.32405  -5894826.37146  22662222.90646      1130.57800
 -15407327.46107  20296592.23807 -11988662.74548  20296587.66848       425.54700
  -7413455.94506  22149720.79306  -5760273.91747  22149717.09047      4074.14100
   3259568.91706  21577094.55906   2538285.65248  21577090.62948     -1570.95300
 08 11 11  0 47 59.9960000  0  9  3  6 13 16 19 21 23 25 31
 -25579396.23708  18922871.77708 -19903504.63149  18922868.60249      2631.34400
 -19630765.27207  19031687.53507 -15278405.24649  19031684.33249      1512.15600
 -13439622.76107  21056908.15207 -10447374.61848  21056903.37548      2179.96900
  -4643416.01707  19754858.33207  -3614824.88049  19754854.17649       -43.07800
 -11656619.37206  21072496.79306  -9066308.25248  21072491.73448      4275.82800
  -7597054.09005  22659010.11305  -5907999.29347  22659004.92247      1123.57800
 -15413641.16607  20295390.98107 -11993582.52548  20295386.07848       416.35900
  -7474557.72506  22138093.08206  -5807885.67447  22138090.09047      4072.85900
   3283163.43106  21581584.38706   2556670.97048  21581579.87148     -1574.92200
 08 11 11  0 48 14.9960000  0  9  3  6 13 16 19 21 23 25 31
 -25618803.81308  18915372.87108 -19934211.84649  18915369.93049      2623.21900
 -19653386.07307  19027382.74607 -15296031.83849  19027379.68049      1504.25000
 -13472248.45107  21050698.70707 -10472797.23148  21050695.81348      2170.42200
  -4642750.34607  19754985.28507  -3614306.18049  19754980.93049       -45.43800
 -11720719.77506  21060299.05106  -9116256.62148  21060294.08648      4271.15600
  -7613849.32505  22655815.12905  -5921086.47447  22655809.56347      1116.21900
 -15419812.69407  20294216.91807 -11998391.52548  20294211.20348       406.90600
  -7535637.69006  22126469.93406  -5855480.41847  22126467.09847      4071.37500
   3306819.77706  21586086.69906   2575104.46948  21586082.71148     -1578.98400
 08 11 11  0 48 29.9960000  0  9  3  6 13 16 19 21 23 25 31
 -25658088.70907  18907897.12907 -19964823.46249  18907893.74649      2615.01600
 -19675888.98607  19023100.88707 -15313566.58349  19023097.32049      1496.32800
 -13504730.52206  21044517.38706 -10498107.97047  21044515.34047      2160.71900
  -4642048.42907  19755118.50407  -3613759.23649  19755114.53549       -47.98400
 -11784749.11406  21048114.71506  -9166149.60548  21048109.74248      4266.35900
  -7630534.18806  22652639.48106  -5934087.67347  22652635.09047      1108.73400
 -15425841.53907  20293069.55907 -12003089.33348  20293063.80948       397.25000
  -7596695.12406  22114851.09006  -5903057.62647  22114848.05147      4069.84400
   3330538.37106  21590599.72306   2593586.45848  21590596.08648     -1583.28100
 08 11 11  0 48 44.9960000  0  9  3  6 13 16 19 21 23 25 31
 -25697253.39607  18900444.16807 -19995341.39449  18900440.67249      2606.92200
 -19698276.65307  19018840.45707 -15331011.50749  19018837.10949      1488.64100
 -13537071.57506  21038363.61306 -10523308.78148  21038360.78948      2151.32800
  -4641312.89607  19755258.82407  -3613186.10049  19755255.04349       -50.17200
 -11848709.71806  21035943.98806  -9215989.02748  21035938.80148      4261.67200
  -7647111.19405  22649485.02705  -5947004.81347  22649480.64547      1101.42200
 -15431730.56807  20291948.77007 -12007678.18648  20291943.08248       387.92200
  -7657732.28706  22103236.18406  -5950619.02547  22103232.72347      4068.40600
   3354316.49306  21595124.80906   2612114.84648  21595121.30948     -1587.17200
 08 11 11  0 48 59.9960000  0  9  3  6 13 16 19 21 23 25 31
 -25736296.58308  18893014.73108 -20025764.65149  18893011.43049      2598.73400
 -19720547.90107  19014602.22307 -15348365.72849  19014598.63749      1480.70300
 -13569270.24007  21032236.70707 -10548398.63448  21032232.44948      2141.76600
  -4640542.67707  19755405.26207  -3612585.92949  19755401.28149       -52.60900
 -11912600.18006  21023785.30906  -9265773.76848  21023780.50848      4256.90600
  -7663579.16306  22646351.44106  -5959837.00347  22646347.31347      1094.10900
 -15437478.77207  20290855.00407 -12012157.30548  20290848.73148       378.51600
  -7718747.76206  22091624.81606  -5998163.55047  22091621.91847      4066.82800
   3378155.30406  21599661.16006   2630690.53348  21599658.03148     -1591.40600
 08 11 11  0 49 14.9960000  0  9  3  6 13 16 19 21 23 25 31
 -25775218.38208  18885607.79308 -20056093.34049  18885605.23149      2590.71900
 -19742702.92707  19010386.20707 -15365629.38449  19010382.84449      1473.10900
 -13601326.38707  21026136.91007 -10573377.44748  21026132.68848      2132.31300
  -4639738.02607  19755558.76207  -3611958.93349  19755554.62949       -54.75000
 -11976420.24706  21011641.41006  -9315503.69148  21011636.18448      4252.34400
  -7679938.03205  22643238.84005  -5972584.14747  22643233.67647      1086.93800
 -15443086.40807  20289788.14507 -12016526.90648  20289781.39848       369.17200
  -7779741.27706  22080018.52006  -6045690.95447  22080015.22747      4065.46900
   3402054.47306  21604209.40206   2649313.23148  21604205.85648     -1595.32800
 08 11 11  0 49 29.9960000  0  9  3  6 13 16 19 21 23 25 31
 -25814020.30208  18878224.02708 -20086328.60049  18878221.59449      2582.98400
 -19764743.21907  19006192.16007 -15382803.64449  19006188.59449      1465.68800
 -13633241.31107  21020063.72307 -10598246.20248  21020060.12148      2123.09400
  -4638900.19207  19755717.94107  -3611306.08149  19755713.48149       -56.78100
 -12040171.13306  20999509.41806  -9365179.70848  20999504.93448      4247.92200
  -7696189.07406  22640145.65206  -5985247.30647  22640141.20347      1079.95300
 -15448554.96607  20288747.43407 -12020788.13148  20288741.11348       360.03100
  -7840714.11606  22068415.16006  -6093202.27847  22068412.60247      4064.28100
   3426012.52606  21608767.98106   2667981.83448  21608764.39548     -1599.06300
 08 11 11  0 49 44.9960000  0  9  3  6 13 16 19 21 23 25 31
 -25852702.80008  18870863.44908 -20116470.80349  18870860.74249      2574.67200
 -19786669.49107  19002019.86307 -15399889.05249  19002016.86749      1457.75000
 -13665015.69107  21014016.96507 -10623005.46648  21014013.81348      2113.35900
  -4638030.04507  19755883.59807  -3610628.04449  19755879.50449       -59.23400
 -12103853.31706  20987391.39506  -9414802.17448  20987386.43848      4243.00000
  -7712332.95305  22637073.44105  -5997826.95147  22637069.03947      1072.57800
 -15453885.28006  20287732.45706 -12024941.63548  20287727.22748       350.59400
  -7901666.71506  22056817.12106  -6140697.78547  22056813.02047      4062.64100
   3450028.64306  21613337.96506   2686695.68248  21613334.90248     -1603.14100
 08 11 11  0 49 59.9960000  0  9  3  6 13 16 19 21 23 25 31
 -25891264.40408  18863525.11308 -20146518.82349  18863522.14149      2566.54700
 -19808480.45307  18997869.41807 -15416884.60449  18997866.63749      1450.12500
 -13696648.03906  21007997.05106 -10647654.05048  21007993.94948      2103.92200
  -4637126.39107  19756055.48107  -3609923.89949  19756051.56649       -61.48400
 -12167465.16806  20975286.24606  -9464369.84748  20975281.86748      4238.29700
  -7728368.18806  22634022.48106  -6010321.89547  22634017.25847      1065.23400
 -15459076.14307  20286744.82407 -12028986.48448  20286739.38348       341.26600
  -7962597.43806  22045221.30906  -6188176.25847  22045217.94147      4061.15600
   3474104.03506  21617919.55106   2705455.71248  21617916.30148     -1607.10900
 08 11 11  0 50 14.9960000  0  9  3  6 13 16 19 21 23 25 31
 -25929702.31008  18856211.07408 -20176470.44749  18856207.90649      2558.78100
 -19830173.58807  18993741.58207 -15433788.33749  18993737.78149      1442.65600
 -13728135.63206  21002005.64506 -10672189.84848  21002002.30948      2094.67200
  -4636186.54307  19756234.63707  -3609191.55249  19756230.32049       -63.51600
 -12231003.91606  20963195.15206  -9513880.56548  20963190.66448      4233.81300
  -7744292.28406  22630992.09006  -6022730.28447  22630987.52347      1058.26600
 -15464125.19507  20285784.77707 -12032920.83148  20285778.84848       332.17200
  -8023503.43706  22033631.87906  -6235635.46847  22033628.12947      4059.95300
   3498241.26306  21622512.72306   2724263.91848  21622508.77748     -1610.85900
 08 11 11  0 50 29.9960000  0  9  3  6 13 16 19 21 23 25 31
 -25968020.95608  18848919.20708 -20206329.13649  18848915.75449      2550.51600
 -19851753.22407  18989634.92607 -15450603.63649  18989631.32049      1434.82800
 -13759482.57106  20996040.37906 -10696616.05548  20996037.21548      2085.00000
  -4635214.93107  19756419.29307  -3608434.45249  19756415.19149       -65.92200
 -12294473.50006  20951117.21506  -9563337.36948  20951113.34448      4228.84400
  -7760109.41306  22627982.65206  -6035055.29747  22627978.05547      1050.79700
 -15469036.87207  20284849.87107 -12036748.11448  20284844.61748       322.73400
  -8084388.67306  22022045.44906  -6283078.49847  22022041.85647      4058.26600
   3522435.90106  21627116.79306   2743116.86248  21627112.85248     -1614.98400
 08 11 11  0 50 44.9960000  0  9  3  6 13 16 19 21 23 25 31
 -26006218.13708  18841650.30108 -20236093.16949  18841646.98149      2542.34400
 -19873217.40207  18985550.16807 -15467328.96049  18985547.26249      1427.04700
 -13790686.69707  20990102.93407 -10720930.96048  20990099.09848      2075.43800
  -4634209.60107  19756610.65207  -3607651.07249  19756605.74649       -68.17200
 -12357871.67606  20939052.72306  -9612738.54848  20939048.59448      4224.09400
  -7775817.44906  22624993.18406  -6047295.33047  22624988.63347      1043.53100
 -15473809.35807  20283941.78507 -12040466.93848  20283936.56648       313.48400
  -8145250.95806  22010464.11306  -6330503.63747  22010460.32847      4056.75000
   3546689.79406  21631732.49606   2762015.97048  21631728.52348     -1618.95300
 08 11 11  0 50 59.9960000  0  9  3  6 13 16 19 21 23 25 31
 -26044293.97708  18834404.91008 -20265762.67349  18834401.04349      2534.42200
 -19894566.37507  18981488.01207 -15483964.51749  18981484.91849      1419.46900
 -13821748.13207  20984192.12107 -10745134.67548  20984187.31348      2066.03100
  -4633170.79007  19756808.69907  -3606841.62749  19756804.04349       -70.32800
 -12421198.24206  20927002.24606  -9662083.92548  20926997.80948      4219.43800
  -7791416.53405  22622024.42605  -6059450.43747  22622019.76647      1036.35900
 -15478443.01007  20283059.69907 -12044077.58348  20283054.41048       304.28100
  -8206090.14506  21998886.87906  -6377910.79448  21998883.83648      4055.20300
   3571002.71806  21636359.41806   2780961.08448  21636354.95348     -1622.82800
 08 11 11  0 51 14.9960000  0  9  3  6 13 16 19 21 23 25 31
 -26082249.43708  18827182.16008 -20295338.35649  18827179.31649      2526.51600
 -19915800.95307  18977446.95707 -15500510.93649  18977443.99249      1411.93800
 -13852667.53607  20978307.89507 -10769227.71748  20978303.58248      2056.65600
  -4632099.35807  19757012.33207  -3606006.74649  19757007.62149       -72.43800
 -12484453.86206  20914965.23106  -9711374.00748  20914960.87548      4214.79700
  -7806907.23106  22619077.08206  -6071521.11547  22619072.53147      1029.28100
 -15482938.71707  20282204.21507 -12047580.73648  20282199.39148       295.26600
  -8266906.79706  21987313.87906  -6425300.37948  21987310.61748      4053.82800
   3595373.61706  21640996.72306   2799951.38048  21640992.67248     -1626.56300
 08 11 11  0 51 29.9960000  0  9  3  6 13 16 19 21 23 25 31
 -26120084.33308  18819982.30108 -20324820.08849  18819978.89549      2518.40600
 -19936921.48907  18973427.88707 -15516968.49249  18973424.67249      1404.29700
 -13883445.17006  20972450.93406 -10793210.27247  20972447.28147      2047.10900
  -4630995.57807  19757222.28507  -3605146.66249  19757217.60249       -74.57800
 -12547638.49806  20902941.31606  -9760608.78548  20902937.16448      4210.03100
  -7822289.75506  22616149.86306  -6083507.49147  22616145.29747      1021.93800
 -15487296.91207  20281374.52007 -12050976.73348  20281369.59448       286.04700
  -8327700.85106  21975744.94906  -6472672.36448  21975742.07848      4052.25000
   3619802.56106  21645645.17606   2818986.92147  21645641.15647     -1630.45300
 08 11 11  0 51 44.9960000  0  9  3  6 13 16 19 21 23 25 31
 -26157799.49808  18812805.37108 -20354208.52649  18812801.96949      2510.45300
 -19957928.70807  18969430.32407 -15533337.74849  18969427.25049      1396.78100
 -13914081.37606  20966620.91006 -10817082.65048  20966617.97348      2037.78100
  -4629860.09407  19757438.57407  -3604261.86749  19757432.92649       -76.71900
 -12610752.62106  20890931.66006  -9809788.62048  20890926.75048      4205.34400
  -7837564.76106  22613243.58206  -6095410.10547  22613238.15247      1014.85900
 -15491518.53607  20280571.41807 -12054266.31148  20280566.14148       276.95300
  -8388472.75306  21964180.33206  -6520027.07748  21964177.75048      4050.79700
   3644288.26006  21650304.81606   2838066.65848  21650301.12948     -1634.29700
 08 11 11  0 51 59.9960000  0  9  3  6 13 16 19 21 23 25 31
 -26195394.44608  18805651.67608 -20383503.29649  18805648.21549      2502.51600
 -19978822.56807  18965454.41007 -15549618.67949  18965451.07049      1389.28100
 -13944575.98106  20960817.52006 -10840844.67848  20960815.46148      2028.39100
  -4628692.88007  19757660.39507  -3603352.34949  19757655.24649       -78.73400
 -12673795.84606  20878934.63706  -9858913.20448  20878929.66048      4200.64100
  -7852732.04906  22610357.05906  -6107228.75247  22610352.45747      1007.59400
 -15495603.41807  20279793.65207 -12057449.34248  20279788.55148       267.90600
  -8449222.10306  21952620.65206  -6567364.20848  21952617.06348      4049.35900
   3668830.76706  21654975.13706   2857190.66648  21654970.48848     -1638.00000
 08 11 11  0 52 14.9960000  0  9  3  6 13 16 19 21 23 25 31
 -26232869.02408  18798520.29308 -20412704.26349  18798516.34849      2494.51600
 -19999602.72307  18961499.98107 -15565811.00349  18961496.77749      1381.73400
 -13974928.73806  20955042.05106 -10864496.18748  20955039.35648      2018.92200
  -4627493.67007  19757889.04307  -3602417.89949  19757883.70749       -80.82800
 -12736767.63606  20866951.97306  -9907982.11748  20866946.53548      4195.85900
  -7867791.33406  22607491.48806  -6118963.25747  22607486.61347      1000.56300
 -15499551.49507  20279042.86307 -12060525.77248  20279037.41848       258.79700
  -8509948.38706  21941064.56606  -6614683.37648  21941061.38348      4047.76600
   3693430.42705  21659656.17605   2876359.21548  21659651.77748     -1641.73400
 08 11 11  0 52 29.9960000  0  9  3  6 13 16 19 21 23 25 31
 -26270223.12208  18791411.88708 -20441811.35649  18791408.80949      2485.84400
 -20020269.35807  18957566.95707 -15581914.87649  18957564.07449      1373.60900
 -14005139.38906  20949293.90206 -10888036.94448  20949289.32048      2008.87500
  -4626262.66407  19758122.94107  -3601458.69149  19758117.79349       -83.51600
 -12799667.79506  20854981.98806  -9956995.22748  20854977.54348      4190.50000
  -7882742.55605  22604645.61305  -6130613.56947  22604641.17647       992.68800
 -15503363.00307  20278317.48807 -12063495.79948  20278312.11748       249.14100
  -8570651.36606  21929513.53506  -6661984.39048  21929510.06648      4045.65600
   3718086.98806  21664348.31606   2895572.09948  21664344.01648     -1646.06300
 08 11 11  0 52 44.9960000  0  9  3  6 13 16 19 21 23 25 31
 -26307454.28508  18784326.93408 -20470822.64649  18784324.26649      2477.85900
 -20040820.18107  18953656.61307 -15597928.49349  18953652.88349      1366.03100
 -14035205.46206  20943572.47306 -10911465.04448  20943567.52748      1999.43800
  -4624997.44007  19758364.11307  -3600472.80949  19758359.13749       -85.53100
 -12862493.51606  20843026.99606 -10005950.32848  20843021.83648      4185.76600
  -7897583.25605  22601821.91805  -6142177.76147  22601817.16847       985.53100
 -15507035.73707  20277618.60607 -12066357.68748  20277612.70348       240.18800
  -8631328.34406  21917966.98106  -6709265.13748  21917964.04348      4044.15600
   3742802.91506  21669051.80906   2914831.21148  21669047.32048     -1649.87500
 08 11 11  0 52 59.9960000  0  9  3  6 13 16 19 21 23 25 31
 -26344563.91808  18777265.33208 -20499739.25749  18777262.07849      2470.03100
 -20061256.52307  18949767.63707 -15613852.90149  18949764.40649      1358.68800
 -14065128.19406  20937877.37906 -10934781.44447  20937873.93047      1990.23400
  -4623699.43007  19758610.73807  -3599461.37549  19758605.95749       -87.51600
 -12925246.03406  20831085.67606 -10054848.39948  20831080.40648      4181.15600
  -7912314.62405  22599018.94105  -6153656.75047  22599014.64847       978.67200
 -15510571.17307  20276945.69107 -12069112.59348  20276939.95348       231.20300
  -8691980.38006  21906425.30106  -6756526.44048  21906422.21148      4042.73400
   3767576.54106  21673766.13706   2934135.30448  21673761.30148     -1653.39100
 08 11 11  0 53 14.9960000  0  9  3  6 13 16 19 21 23 25 31
 -26381553.46108  18770226.48808 -20528562.26649  18770223.49249      2462.10900
 -20081580.10507  18945899.74607 -15629689.45849  18945897.13749      1351.28100
 -14094909.14506  20932210.27006 -10957987.37548  20932207.10248      1980.82800
  -4622370.36107  19758864.02007  -3598425.74149  19758859.02349       -89.53100
 -12987926.74606  20819158.13706 -10103690.50848  20819153.42648      4176.45300
  -7926938.35105  22596235.51205  -6165051.85547  22596231.17647       971.43800
 -15513971.16707  20276299.16007 -12071761.92648  20276292.57048       222.21900
  -8752608.85507  21894888.56607  -6803769.39548  21894885.71548      4041.28100
   3792406.17906  21678490.81606   2953483.07248  21678486.26248     -1657.07800
 08 11 11  0 53 29.9960000  0  9  3  6 13 16 19 21 23 25 31
 -26418428.40508  18763209.32408 -20557295.99049  18763206.43849      2454.40600
 -20101796.66907  18942053.06607 -15645442.61849  18942050.24649      1344.12500
 -14124553.93906  20926569.03506 -10981087.20348  20926565.62548      1971.64100
  -4621015.96507  19759121.47307  -3597370.37049  19759116.91049       -91.25000
 -13050541.06606  20807242.60606 -10152480.87848  20807237.75048      4171.96900
  -7941459.87405  22593472.23105  -6176367.35247  22593467.70347       964.67200
 -15517241.57907  20275677.10607 -12074310.32148  20275671.13748       213.57800
  -8813219.16907  21883354.51207  -6850998.20248  21883351.24248      4039.96900
   3817286.06606  21683224.87906   2972869.97048  21683220.56648     -1660.43800
 08 11 11  0 53 44.9960000  0  9  3  6 13 16 19 21 23 25 31
 -26455179.98607  18756215.73107 -20585933.59949  18756212.55949      2445.57800
 -20121897.51907  18938228.23807 -15661105.61749  18938224.84049      1335.78100
 -14154053.64506  20920955.27706 -11004074.02148  20920953.14548      1961.45300
  -4619627.38407  19759385.77007  -3596288.36049  19759381.69149       -94.03100
 -13113080.03206  20795341.64506 -10201212.54748  20795336.41848      4166.43800
  -7955870.55105  22590729.44905  -6187596.44547  22590725.79747       956.48400
 -15520373.73507  20275080.88707 -12076750.97748  20275075.00048       203.84400
  -8873802.35607  21871825.74607  -6898205.87248  21871822.36348      4037.67200
   3842224.87706  21687970.78506   2992302.78048  21687966.61348     -1664.96900
 08 11 11  0 53 59.9960000  0  9  3  6 13 16 19 21 23 25 31
 -26491808.23908  18749245.46508 -20614475.09149  18749242.32849      2438.25000
 -20141882.81807  18934424.98107 -15676678.57549  18934421.67249      1328.90600
 -14183408.07206  20915370.21506 -11026947.59648  20915367.21948      1952.54700
  -4618204.64307  19759655.92607  -3595179.73149  19759652.18049       -95.46900
 -13175543.28206  20783455.49606 -10249885.20948  20783450.24648      4162.18800
  -7970170.28405  22588008.85605  -6198739.10547  22588004.54747       950.10900
 -15523367.92606  20274510.45706 -12079084.11748  20274505.12548       195.51600
  -8934358.05207  21860303.15207  -6945392.11848  21860299.01248      4036.54700
   3867222.39506  21692728.19906   3011781.35448  21692723.79348     -1668.04700
 08 11 11  0 54 14.9960000  0  9  3  6 13 16 19 21 23 25 31
 -26528319.18007  18742297.99607 -20642925.17149  18742294.38349      2430.28100
 -20161758.57907  18930642.62907 -15692166.18149  18930639.35249      1321.48400
 -14212623.26706  20909810.38706 -11049712.68348  20909807.06648      1943.15600
  -4616753.96407  19759932.47307  -3594049.33349  19759928.64549       -97.54700
 -13237936.72206  20771582.11306 -10298503.46948  20771577.07848      4157.29700
  -7984365.07305  22585307.52005  -6209800.00147  22585303.08647       943.03100
 -15526230.31507  20273965.97307 -12081314.55648  20273960.58648       186.56300
  -8994892.09807  21848783.61307  -6992561.48848  21848780.22348      4035.00000
   3892272.47906  21697494.55906   3031300.84947  21697490.07847     -1671.59400
 08 11 11  0 54 29.9960000  0  9  3  6 13 16 19 21 23 25 31
 -26564707.70108  18735373.37908 -20671279.87349  18735370.18849      2422.06300
 -20181519.84607  18926882.18407 -15707564.56049  18926878.89849      1313.87500
 -14241694.08106  20904278.38706 -11072365.26048  20904274.98848      1933.45300
  -4615270.39807  19760214.60607  -3592893.31649  19760211.06649       -99.81300
 -13300254.94006  20759723.93406 -10347063.12048  20759717.76248      4152.20300
  -7998449.64605  22582627.66805  -6220775.01447  22582622.38747       935.42200
 -15528955.98706  20273447.30106 -12083438.47148  20273442.29748       177.32800
  -9055399.14407  21837269.30107  -7039709.82948  21837265.91848      4033.12500
   3917380.01706  21702272.46506   3050865.13548  21702268.07848     -1675.59400
 08 11 11  0 54 44.9960000  0  9  3  6 13 16 19 21 23 25 31
 -26600977.86608  18728471.66008 -20699542.33949  18728468.25849      2414.06300
 -20201170.78907  18923142.88707 -15722876.98149  18923139.25049      1306.39100
 -14270624.57006  20898773.35606 -11094908.48848  20898770.10948      1924.03100
  -4613758.06207  19760502.43407  -3591714.88149  19760498.46149      -101.71900
 -13362501.72107  20747878.56607 -10395567.09848  20747872.71148      4147.46900
  -8012428.23205  22579966.77705  -6231667.40447  22579962.94947       928.39100
 -15531549.30306  20272953.77006 -12085459.24648  20272949.11348       168.46900
  -9115883.05807  21825759.43407  -7086840.13548  21825756.90248      4031.51600
   3942540.81306  21707060.53506   3070470.93048  21707056.66848     -1679.15600
 08 11 11  0 54 59.9960000  0  9  3  6 13 16 19 21 23 25 31
 -26637129.76708  18721592.01208 -20727712.64449  18721588.57049      2406.04700
 -20220711.90407  18919424.39507 -15738103.82449  18919420.60649      1298.92200
 -14299414.91706  20893294.30906 -11117342.50048  20893290.98848      1914.53100
  -4612217.00707  19760795.52007  -3590514.06749  19760791.58249      -103.76600
 -13424677.28007  20736047.15207 -10444015.58348  20736041.22748      4142.42200
  -8026301.04905  22577327.98805  -6242477.40347  22577323.60247       921.14100
 -15534010.86806  20272485.76206 -12087377.36048  20272480.71548       159.54700
  -9176343.88907  21814254.22307  -7133952.46148  21814250.17248      4029.82800
   3967754.38006  21711858.34006   3090117.82847  21711854.54747     -1682.81300
 08 11 11  0 55 14.9960000  0  9  3  6 13 16 19 21 23 25 31
 -26673160.86408  18714735.49608 -20755788.82249  18714732.43049      2398.26600
 -20240140.61407  18915727.15207 -15753243.07249  18915723.55549      1291.68800
 -14328062.52906  20887842.82406 -11139665.34148  20887839.72348      1905.28100
  -4610645.26407  19761094.92607  -3589289.34549  19761090.55149      -105.62500
 -13486778.92507  20724229.91807 -10492406.47948  20724223.72748      4137.89100
  -8040065.53105  22574708.12105  -6253202.97347  22574704.20747       914.15600
 -15536338.21207  20272042.86307 -12089190.88548  20272037.73448       150.84400
  -9236778.84906  21802753.15206  -7181044.62248  21802750.72348      4028.32800
   3993023.12906  21716666.86306   3109807.73948  21716662.72348     -1686.23400
 08 11 11  0 55 29.9960000  0  9  3  6 13 16 19 21 23 25 31
 -26709074.94008  18707901.32408 -20783773.81749  18707897.70749      2390.09400
 -20259460.54407  18912050.25407 -15768297.55949  18912047.25849      1284.10900
 -14356570.89706  20882418.34806 -11161879.63548  20882415.10948      1895.79700
  -4609046.30607  19761398.94907  -3588043.39149  19761394.98449      -107.79700
 -13548809.90406  20712425.02006 -10540742.30148  20712419.75848      4132.81300
  -8053725.01006  22572109.88706  -6263846.73047  22572104.35947       906.90600
 -15538535.04707  20271625.13707 -12090902.71948  20271619.24248       141.85900
  -9297191.17106  21791257.09006  -7228119.15848  21791254.25448      4026.46900
   4018343.43406  21721485.52006   3129537.82647  21721481.09847     -1690.03100
 08 11 11  0 55 44.9950000  0  9  3  6 13 16 19 21 23 25 31
 -26744860.72008  18701091.44408 -20811658.83049  18701087.71049      2381.92200
 -20278661.93207  18908396.71807 -15783259.67149  18908393.68749      1276.53100
 -14384929.24606  20877021.68706 -11183977.06348  20877018.19848      1886.00000
  -4607411.69107  19761710.10107  -3586769.66949  19761706.17149      -109.92200
 -13610757.17606  20700636.55406 -10589012.89648  20700630.78448      4127.60900
  -8067270.18005  22569531.68705  -6274401.40447  22569526.53047       899.43800
 -15540592.94207  20271233.21007 -12092506.27748  20271227.81948       132.85900
  -9357567.93206  21779768.03806  -7275165.95848  21779765.27648      4024.59400
   4043722.26906  21726315.35106   3149313.52648  21726311.06248     -1693.85900
 08 11 11  0 55 59.9950000  0  9  3  6 13 16 19 21 23 25 31
 -26780527.80208  18694303.96008 -20839451.36449  18694301.03849      2374.14100
 -20297752.40807  18904763.67907 -15798135.36049  18904760.90949      1269.28100
 -14413146.40906  20871652.41306 -11205964.45848  20871648.83548      1876.71900
  -4605746.12607  19762026.60807  -3585471.83349  19762023.48749      -111.71900
 -13672633.77006  20688861.75706 -10637228.41048  20688856.23048      4123.00000
  -8080707.87305  22566974.67905  -6284872.32447  22566969.10547       892.60900
 -15542517.27607  20270867.04607 -12094005.77548  20270861.72248       124.10900
  -9417921.96506  21768282.64806  -7322195.05848  21768279.91348      4023.03100
   4069157.71306  21731155.64006   3169133.32948  21731151.26948     -1697.09400
 08 11 11  0 56 14.9950000  0  9  3  6 13 16 19 21 23 25 31
 -26816076.55708  18687539.64808 -20867151.69449  18687536.53849      2365.78100
 -20316733.30707  18901152.02307 -15812925.67049  18901148.88649      1261.53100
 -14441223.01306  20866309.39006 -11227842.33148  20866306.36648      1866.92200
  -4604052.25707  19762349.04607  -3584151.94249  19762345.16349      -114.10900
 -13734437.86006  20677100.66306 -10685387.44048  20677095.92948      4117.60900
  -8094039.49005  22564437.05405  -6295260.62347  22564432.22647       884.96900
 -15544310.55107  20270525.70207 -12095403.14348  20270520.38248       114.98400
  -9478251.55906  21756802.00706  -7369205.13148  21756799.25748      4020.93800
   4094645.45806  21736004.99906   3188993.87148  21736001.45248     -1701.06300
 08 11 11  0 56 29.9950000  0  9  3  6 13 16 19 21 23 25 31
 -26851502.33308  18680798.49108 -20894756.19049  18680794.78849      2357.70300
 -20335600.31807  18897561.67907 -15827627.23349  18897558.23349      1254.12500
 -14469154.57006  20860994.33506 -11249607.17348  20860990.31248      1857.35900
  -4602325.75307  19762677.60107  -3582806.61849  19762673.51149      -116.06300
 -13796164.84306  20665354.90506 -10733486.39448  20665349.78048      4112.68800
  -8107260.36205  22561921.44405  -6305562.58247  22561916.85547       877.70300
 -15545968.69307  20270210.26507 -12096695.22248  20270204.60548       106.20300
  -9538551.93306  21745327.30406  -7416192.43448  21745323.78848      4019.18800
   4120189.68606  21740866.35806   3208898.44147  21740862.09347     -1704.79700
 08 11 11  0 56 44.9950000  0  9  3  6 13 16 19 21 23 25 31
 -26886808.77908  18674079.59308 -20922267.70549  18674076.30049      2349.79700
 -20354357.23308  18893992.54608 -15842243.01249  18893989.42549      1246.79700
 -14496944.65306  20855705.64806 -11271261.79548  20855702.00348      1847.96900
  -4600570.37907  19763012.21007  -3581438.80149  19763007.03449      -117.95300
 -13857818.16206  20653622.80406 -10781527.93548  20653617.55848      4107.78100
  -8120374.54706  22559425.66306  -6315781.42547  22559421.96047       870.73400
 -15547495.55007  20269919.62407 -12097884.99548  20269914.13648        97.48400
  -9598826.57306  21733857.20206  -7463159.66548  21733854.53048      4017.48400
   4145786.58105  21745736.87405   3228844.04947  21745733.15947     -1708.25000
 08 11 11  0 56 59.9950000  0  9  3  6 13 16 19 21 23 25 31
 -26921998.38408  18667383.24908 -20949688.18249  18667379.88649      2341.37500
 -20373006.60708  18890443.61608 -15856774.99949  18890440.30849      1239.06300
 -14524595.61306  20850443.41306 -11292808.00448  20850440.39048      1838.09400
  -4598788.73707  19763351.42107  -3580050.51649  19763346.65149      -120.29700
 -13919400.07106  20641903.96806 -10829513.84548  20641898.73748      4102.34400
  -8133384.39506  22556950.26506  -6325918.97947  22556946.70647       863.17200
 -15548893.87707  20269653.65507 -12098974.61848  20269648.00348        88.29700
  -9659077.65506  21722391.99106  -7510108.55848  21722389.56948      4015.28100
   4171433.51105  21750617.28805   3248828.63947  21750614.11247     -1712.06300
 08 11 11  0 57 14.9950000  0  9  3  6 13 16 19 21 23 25 31
 -26957064.41008  18660710.52308 -20977012.34949  18660707.42949      2333.56300
 -20391541.83807  18886916.37407 -15871218.02249  18886913.15549      1231.81300
 -14552100.72606  20845209.81906 -11314240.56248  20845206.51548      1828.62500
  -4596974.01407  19763696.21007  -3578636.44149  19763691.94449      -122.17200
 -13980903.69406  20630200.08506 -10877438.72348  20630195.19048      4097.53100
  -8146283.17106  22554496.25706  -6335969.96547  22554491.70647       856.09400
 -15550157.37107  20269413.04607 -12099959.16748  20269407.31548        79.64100
  -9719298.31906  21710932.01506  -7557033.71348  21710929.89448      4013.57800
   4197137.04505  21755508.88205   3268857.35548  21755505.08548     -1715.54700
 08 11 11  0 57 29.9950000  0  9  3  6 13 16 19 21 23 25 31
 -26992009.47308  18654060.39008 -21004242.27349  18654057.48049      2325.70300
 -20409965.65908  18883410.61608 -15885574.24249  18883406.95249      1224.65600
 -14579462.56606  20840003.89006 -11335561.48348  20839999.97648      1819.26600
  -4595129.02607  19764047.64007  -3577198.79249  19764043.18349      -123.93800
 -14042331.22306  20618510.91306 -10925304.31748  20618506.32748      4092.67200
  -8159073.26305  22552062.21005  -6345936.27647  22552058.40547       849.17200
 -15551288.45607  20269198.13207 -12100840.54148  20269192.74148        71.09400
  -9779490.77906  21699478.28806  -7603936.91948  21699476.26948      4011.95300
   4222894.44505  21760410.31205   3288928.03048  21760406.39048     -1718.92200
 08 11 11  0 57 44.9950000  0  9  3  6 13 16 19 21 23 25 31
 -27026836.43108  18647432.99108 -21031380.16149  18647429.92949      2317.81300
 -20428281.05207  18879925.28807 -15899845.97749  18879921.42149      1217.31300
 -14606683.97406  20834823.03806 -11356772.96248  20834820.13648      1809.98400
  -4593256.62907  19764403.74907  -3575739.78949  19764399.77649      -125.81300
 -14103685.57406  20606835.24106 -10973112.88248  20606830.63248      4087.73400
  -8171757.66706  22549648.85806  -6355820.21047  22549643.90147       842.07800
 -15552290.42307  20269007.46807 -12101621.30748  20269001.99548        62.43800
  -9839657.72906  21688028.28006  -7650820.22748  21688025.76548      4010.21900
   4248702.75005  21765321.74905   3309038.37748  21765318.39448     -1722.37500
 08 11 11  0 57 59.9950000  0  9  3  6 13 16 19 21 23 25 31
 -27061543.94308  18640828.67908 -21058424.97049  18640825.89049      2309.73400
 -20446486.89908  18876460.90508 -15914032.34449  18876457.79649      1209.93800
 -14633763.91206  20829669.93706 -11377874.22048  20829667.63248      1800.50000
  -4591355.88907  19764765.49907  -3574258.70149  19764760.81949      -127.70300
 -14164965.17806  20595174.21006 -11020863.21648  20595169.24148      4082.65600
  -8184335.08006  22547254.71006  -6365620.80947  22547250.23347       834.79700
 -15553162.44706  20268841.14806 -12102300.81548  20268835.88248        53.75000
  -9899797.80706  21676584.65506  -7697682.61148  21676581.42148      4008.26600
   4274562.91706  21770242.17906   3329189.13948  21770239.15548     -1725.90600
 08 11 11  0 58 14.9950000  0  9  3  6 13 16 19 21 23 25 31
 -27096130.06408  18634247.36608 -21085375.19849  18634244.21849      2301.68800
 -20464581.04208  18873017.44408 -15928131.66949  18873014.43349      1202.59400
 -14660699.75806  20824544.59306 -11398863.19848  20824541.44848      1790.87500
  -4589424.54707  19765133.49907  -3572753.75749  19765128.95249      -129.71900
 -14226167.70106  20583528.08506 -11068553.49948  20583522.70248      4077.68800
  -8196803.38406  22544882.36606  -6375336.37047  22544877.98747       827.64100
 -15553902.40907  20268700.53807 -12102877.40948  20268694.92148        45.03100
  -9959908.51606  21665145.99106  -7744522.13448  21665142.69048      4006.39100
   4300476.94806  21775173.52306   3349381.86248  21775170.64048     -1729.39100
 08 11 11  0 58 29.9950000  0  9  3  6 13 16 19 21 23 25 31
 -27130595.09108  18627688.65508 -21112231.05549  18627685.68749      2293.67200
 -20482564.30408  18869595.43708 -15942144.60249  18869591.94049      1195.28100
 -14687492.05406  20819445.60806 -11419740.30548  20819442.70248      1781.45300
  -4587463.20707  19765506.38207  -3571225.44749  19765502.06949      -131.67200
 -14287293.38706  20571896.04606 -11116183.90048  20571891.10148      4072.59400
  -8209163.02606  22542530.29606  -6384967.24847  22542525.85147       820.40600
 -15554510.95706  20268584.79606 -12103351.60648  20268579.32348        36.29700
 -10019990.01706  21653712.53806  -7791338.87548  21653710.01948      4004.57800
   4326444.20405  21780114.52305   3369616.07348  21780111.62848     -1732.64100
 08 11 11  0 58 44.9950000  0  9  3  6 13 16 19 21 23 25 31
 -27164938.96308  18621152.93708 -21138992.52449  18621150.09749      2285.71900
 -20500436.69708  18866194.54608 -15956071.13849  18866190.88249      1188.00000
 -14714140.81006  20814374.91306 -11440505.56748  20814371.42148      1771.89100
  -4585471.99607  19765885.32707  -3569673.85549  19765880.77349      -133.64100
 -14348342.02206  20560278.93706 -11163754.24548  20560274.35848      4067.53100
  -8221414.10006  22540199.10106  -6394513.51547  22540194.26547       813.23400
 -15554988.50507  20268494.07707 -12103723.73748  20268489.11648        27.64100
 -10080042.21206  21642284.97606  -7838132.77848  21642282.00348      4002.65600
   4352464.58205  21785066.71805   3389891.68348  21785063.33948     -1736.25000
 08 11 11  0 58 59.9950000  0  9  3  6 13 16 19 21 23 25 31
 -27199162.41608  18614640.74108 -21165660.13549  18614637.09749      2277.46900
 -20518198.91808  18862814.55408 -15969911.82749  18862811.05849      1180.42200
 -14740646.59706  20809330.84306 -11461159.42448  20809326.73048      1762.21900
  -4583451.48107  19766269.96807  -3568099.42349  19766264.98749      -135.79700
 -14409313.99306  20548676.06906 -11211264.88148  20548671.37448      4062.10900
  -8233557.23206  22537888.28806  -6403975.71447  22537883.10147       805.90600
 -15555335.74907  20268427.64807 -12103994.33148  20268422.56948        18.79700
 -10140065.33206  21630863.10806  -7884904.02148  21630859.73048      4000.48400
   4378537.27706  21790028.39006   3410208.05348  21790024.50348     -1739.92200
 08 11 11  0 59 14.9950000  0  9  3  6 13 16 19 21 23 25 31
 -27233265.35608  18608150.95208 -21192233.85749  18608147.50349      2269.67200
 -20535851.22008  18859455.30408 -15983666.85749  18859451.89449      1173.29700
 -14767009.48107  20804314.95207 -11481701.92448  20804310.08548      1752.85900
  -4581401.90307  19766659.92907  -3566502.35349  19766655.09749      -137.45300
 -14470209.25906  20537088.61606 -11258715.73048  20537083.52348      4057.26600
  -8245592.49706  22535598.15506  -6413353.86247  22535593.02647       798.92200
 -15555552.99007  20268386.64007 -12104163.62648  20268380.87448        10.29700
 -10200059.22006  21619446.28806  -7931652.49748  21619442.79248      3998.75000
   4404662.05206  21794999.10106   3430565.00548  21794995.52348     -1743.26600
 08 11 11  0 59 29.9950000  0  9  3  6 13 16 19 21 23 25 31
 -27267247.36708  18601684.74108 -21218713.34449  18601680.74549      2261.31300
 -20553393.14608  18856117.17908 -15997335.88749  18856114.09749      1165.64100
 -14793228.90507  20799325.73307 -11502132.65048  20799320.78448      1743.04700
  -4579322.74907  19767055.58507  -3564882.24549  19767050.55449      -139.70300
 -14531027.05406  20525515.80406 -11306106.20948  20525510.66748      4051.84400
  -8257519.33006  22533328.27306  -6422647.46846  22533323.53446       791.32800
 -15555640.16907  20268370.11607 -12104231.58448  20268363.87048         1.29700
 -10260023.13806  21608035.28006  -7978377.62048  21608032.34748      3996.40600
   4430839.27206  21799981.23306   3450962.81047  21799976.78047     -1746.98400
 08 11 11  0 59 44.9950000  0  9  3  6 13 16 19 21 23 25 31
 -27301106.72108  18595241.25708 -21245097.24549  18595237.94049      2253.26600
 -20570823.13908  18852800.09308 -16010917.70649  18852797.12849      1158.45300
 -14819303.12907  20794363.28007 -11522450.20848  20794359.05848      1733.53100
  -4577212.43007  19767457.39007  -3563237.84049  19767452.26949      -141.59400
 -14591765.44307  20513957.51507 -11353434.81148  20513952.10148      4046.68800
  -8269335.88506  22531080.55406  -6431855.16547  22531075.12847       784.20300
 -15555595.66107  20268378.28807 -12104196.91348  20268372.64448        -7.28100
 -10319955.13306  21596630.21806  -8025077.88448  21596628.59348      3994.45300
   4457070.50206  21804972.76506   3471402.70448  21804968.53048     -1750.43800
 08 11 11  0 59 59.9950000  0  9  3  6 13 16 19 21 23 25 31
 -27334845.59408  18588820.90508 -21271387.27749  18588817.90549      2245.04700
 -20588143.60408  18849504.38208 -16024414.17149  18849500.85149      1150.81300
 -14845234.42007  20789428.41307 -11542656.41548  20789425.94448      1723.75000
  -4575073.18807  19767864.83507  -3561570.91249  19767859.33949      -143.78100
 -14652426.54507  20502414.14807 -11400703.19749  20502409.23349      4041.35900
  -8281044.46406  22528851.98306  -6440978.73847  22528847.08947       776.82800
 -15555421.99307  20268411.25707 -12104061.61548  20268406.10548       -16.01600
 -10379857.24306  21585231.78006  -8071754.83748  21585229.87448      3992.23400
   4483353.37505  21809974.11605   3491882.83948  21809970.12448     -1754.07800
 08 11 11  1  0 14.9950000  0  9  3  6 13 16 19 21 23 25 31
 -27368464.83108  18582423.34308 -21297584.07849  18582420.70649      2237.42200
 -20605355.28707  18846228.94407 -16037825.86549  18846225.43349      1144.00000
 -14871023.30806  20784521.25706 -11562751.66348  20784517.51948      1714.68800
  -4572905.70107  19768276.79607  -3559881.95649  19768271.56549      -145.28100
 -14713010.63607  20490885.17907 -11447911.57349  20490880.47649      4036.56300
  -8292645.82006  22526644.02306  -6450018.73847  22526639.35147       769.95300
 -15555120.14207  20268469.05407 -12103826.43248  20268463.88248       -24.20300
 -10439729.81406  21573837.77306  -8118408.76148  21573836.25748      3990.75000
   4509686.96906  21814985.46006   3512402.47848  21814981.72248     -1757.10900
 08 11 11  1  0 29.9950000  0  9  3  6 13 16 19 21 23 25 31
 -27401964.02108  18576048.65508 -21323687.34149  18576046.22649      2229.39100
 -20622457.87208  18842974.74108 -16051152.56249  18842970.88649      1136.73400
 -14896669.44006  20779640.53806 -11582735.68548  20779636.80448      1705.09400
  -4570709.73507  19768694.87407  -3558170.81349  19768689.59749      -147.23400
 -14773517.38507  20479371.30407 -11495059.68449  20479366.22249      4031.28100
  -8304139.50606  22524456.78806  -6458974.85647  22524452.13247       762.81300
 -15554689.84407  20268551.20207 -12103491.16248  20268545.60848       -32.84400
 -10499572.18506  21562450.14806  -8165039.17048  21562448.25748      3988.60900
   4536071.52906  21820006.72606   3532961.86048  21820002.76148     -1760.54700
 08 11 11  1  0 44.9950000  0  9  3  6 13 16 19 21 23 25 31
 -27435346.06408  18569696.55408 -21349699.32249  18569693.22649      2221.64100
 -20639454.41307  18839740.21007 -16064396.61349  18839736.85549      1129.60900
 -14922175.70607  20774786.97607 -11602610.68448  20774783.48348      1695.84400
  -4568488.36307  19769117.50707  -3556439.87449  19769112.40149      -148.85900
 -14833949.31107  20467871.46007 -11542149.48449  20467866.62849      4026.37500
  -8315528.54306  22522289.97606  -6467849.44146  22522285.11646       755.85900
 -15554134.36707  20268656.95207 -12103058.31848  20268651.26948       -41.15600
 -10559387.10506  21551067.78006  -8211648.16848  21551065.94848      3986.84400
   4562503.99705  21825035.51505   3553558.53648  21825032.16348     -1763.76600
 08 11 11  1  0 59.9950000  0  9  3  6 13 16 19 21 23 25 31
 -27468607.37508  18563367.05408 -21375617.21649  18563363.59349      2213.46900
 -20656341.77207  18836526.56907 -16077555.59749  18836522.95649      1122.29700
 -14947538.73607  20769960.92907 -11622374.09748  20769957.62448      1686.20300
  -4566238.18607  19769545.00707  -3554686.49749  19769541.23349      -150.89100
 -14894302.95607  20456386.96807 -11589178.30249  20456381.92149      4021.04700
  -8326809.49306  22520143.39006  -6476639.81646  22520138.86646       748.56300
 -15553450.44807  20268787.06207 -12102525.41848  20268781.16348       -49.84400
 -10619171.00806  21539691.39006  -8258233.01448  21539688.95248      3984.62500
   4588987.47606  21830075.87406   3574194.98348  21830070.56248     -1767.18800
 08 11 11  1  1 14.9950000  0  9  3  6 13 16 19 21 23 25 31
 -27501746.78408  18557060.96808 -21401440.12549  18557057.98749      2205.37500
 -20673118.61108  18833333.86608 -16090628.45549  18833330.63649      1114.87500
 -14972757.15607  20765161.79607 -11642024.81148  20765157.74548      1676.50000
  -4563958.07107  19769978.92907  -3552909.79049  19769975.00749      -153.00000
 -14954576.79007  20444917.09307 -11636144.90949  20444912.18749      4015.65600
  -8337981.02506  22518017.17106  -6485344.84946  22518012.82746       741.17200
 -15552637.15507  20268941.81207 -12101891.67548  20268936.33548       -58.50000
 -10678922.16906  21528321.39806  -8304792.34448  21528318.01548      3982.40600
   4615523.20706  21835125.76506   3594872.14947  21835120.52347     -1770.68800
 08 11 11  1  1 29.9950000  0  9  3  6 13 16 19 21 23 25 31
 -27534768.72808  18550777.06908 -21427171.51049  18550773.89849      2197.23400
 -20689789.61607  18830161.46007 -16103618.84749  18830158.35149      1107.59400
 -14997835.38107  20760389.44407 -11661566.29448  20760385.38248      1666.84400
  -4561652.40207  19770418.16307  -3551113.17049  19770414.06949      -154.84400
 -15014775.05507  20433461.51507 -11683052.65249  20433456.46449      4010.43800
  -8349047.58506  22515911.27306  -6493968.16846  22515906.81246       733.95300
 -15551699.13507  20269120.09307 -12101160.76848  20269114.96448       -66.95300
 -10738644.84806  21516956.80406  -8351329.47748  21516953.64848      3980.26600
   4642106.55205  21840184.03005   3615586.40747  21840179.57747     -1774.07800
 08 11 11  1  1 44.9950000  0  9  3  6 13 16 19 21 23 25 31
 -27567667.45508  18544516.68708 -21452806.87549  18544513.26949      2189.06300
 -20706349.16007  18827010.52307 -16116522.39149  18827007.19049      1100.17200
 -15022767.64407  20755644.74907 -11680994.03848  20755640.99948      1657.17200
  -4559315.44207  19770862.67907  -3549292.17149  19770858.61249      -156.93800
 -15074891.71207  20422021.90507 -11729896.79449  20422016.51149      4004.96900
  -8360003.37606  22513826.31206  -6502505.13846  22513821.49146       726.56300
 -15550630.94007  20269323.55407 -12100328.41848  20269318.42548       -75.67200
 -10798333.04106  21505598.32706  -8397839.74248  21505595.23748      3977.93800
   4668743.33805  21845253.21805   3636342.30847  21845249.06247     -1777.70300
 08 11 11  1  1 59.9950000  0  9  3  6 13 16 19 21 23 25 31
 -27600447.83208  18538278.71808 -21478350.01449  18538275.21049      2181.51600
 -20722802.33908  18823879.43708 -16129343.03049  18823875.78449      1093.40600
 -15047558.87806  20750926.92106 -11700311.89548  20750923.63648      1648.18800
  -4556952.32907  19771312.17907  -3547450.78049  19771308.17949      -158.32800
 -15134931.53307  20410596.71807 -11776681.06949  20410591.35549      4000.20300
  -8370853.35406  22511761.14006  -6510959.65446  22511756.35846       719.85900
 -15549437.56807  20269550.39007 -12099398.53648  20269545.26948       -83.64100
 -10857991.35706  21494245.87406  -8444326.73448  21494241.99148      3976.23400
   4695428.22304  21850330.77304   3657135.66447  21850326.89447     -1780.43800
 08 11 11  1  2 14.9950000  0  9  3  6 13 16 19 21 23 25 31
 -27633111.18408  18532063.26508 -21503801.97949  18532059.71049      2173.46900
 -20739150.45508  18820768.60808 -16142081.82449  18820765.15949      1086.15600
 -15072210.50607  20746236.60807 -11719520.97348  20746233.04248      1638.57800
  -4554564.34307  19771766.89007  -3545590.02049  19771762.71049      -160.25000
 -15194895.69507  20399185.50707 -11823406.38249  20399179.98749      3994.79700
  -8381598.83206  22509716.87406  -6519332.76146  22509711.44846       712.60900
 -15548120.82307  20269801.13207 -12098372.51448  20269795.17148       -92.12500
 -10917621.03406  21482898.77306  -8490791.41848  21482894.72248      3974.17200
   4722159.62005  21855417.50705   3677965.31647  21855413.87847     -1783.82800
 08 11 11  1  2 29.9950000  0  9  3  6 13 16 19 21 23 25 31
 -27665655.58808  18525869.97608 -21529161.24849  18525866.77649      2165.40600
 -20755391.86007  18817677.92907 -16154737.46349  18817674.49149      1078.98400
 -15096720.32207  20741572.66307 -11738619.50848  20741568.77648      1628.98400
  -4552149.66907  19772226.53007  -3543708.46349  19772222.07749      -162.06300
 -15254782.09507  20387789.27307 -11870071.11148  20387784.17948      3989.60900
  -8392238.01906  22507692.18706  -6527623.07446  22507687.04646       705.53100
 -15546678.92706  20270075.02306 -12097248.96348  20270069.35548      -100.51600
 -10977219.73106  21471557.76506  -8537231.93948  21471553.54248      3972.04700
   4748939.38405  21860513.92905   3698832.62847  21860510.23747     -1787.09400
 08 11 11  1  2 44.9950000  0  9  3  6 13 16 19 21 23 25 31
 -27698077.63408  18519700.23308 -21554425.17849  18519696.92549      2157.53100
 -20771523.03507  18814608.36607 -16167307.19549  18814604.90149      1071.92200
 -15121084.92706  20736935.96006 -11757604.91248  20736931.85548      1619.64100
  -4549704.86907  19772691.89007  -3541803.42649  19772687.71849      -163.85900
 -15314587.19607  20376408.70207 -11916672.48149  20376403.55849      3984.42200
  -8402767.27006  22505689.04606  -6535827.61746  22505683.40546       698.43800
 -15545108.66007  20270374.10107 -12096025.39648  20270368.55448      -108.73400
 -11036783.70106  21460222.90506  -8583645.40948  21460218.62448      3969.95300
   4775770.85206  21865619.79606   3719740.22447  21865615.87447     -1790.35900
 08 11 11  1  2 59.9950000  0  9  3  6 13 16 19 21 23 25 31
 -27730378.43907  18513553.54607 -21579594.64049  18513550.28049      2149.87500
 -20787545.33907  18811559.46007 -16179792.11849  18811556.12049      1065.06300
 -15145305.30306  20732327.42906 -11776477.95648  20732322.95248      1610.46900
  -4547230.94606  19773162.62406  -3539875.70349  19773157.94449      -165.34400
 -15374311.48807  20365043.92907 -11963210.89348  20365038.00748      3979.46900
  -8413187.72406  22503705.92906  -6543947.47846  22503700.60146       691.57800
 -15543411.29106  20270697.38206 -12094702.80048  20270692.05448      -116.92200
 -11096313.83406  21448894.84306  -8630032.51648  21448890.76948      3968.12500
   4802652.89506  21870735.06206   3740687.24047  21870730.70647     -1793.25000
 08 11 11  1  3 14.9950000  0  9  3  6 13 16 19 21 23 25 31
 -27762559.81808  18507429.51508 -21604671.03249  18507426.06549      2141.35900
 -20803460.70808  18808531.06908 -16192193.69449  18808527.22249      1057.34400
 -15169383.50607  20727745.29607 -11795240.17948  20727740.91348      1600.37500
  -4544730.05307  19773638.79607  -3537926.96149  19773633.82349      -167.68800
 -15433956.84607  20353693.57707 -12009687.79148  20353688.08548      3973.64100
  -8423501.43706  22501743.29606  -6551984.12646  22501738.49946       683.98400
 -15541589.17507  20271044.21007 -12093282.98448  20271038.28448      -125.68800
 -11155811.75506  21437572.95206  -8676394.51748  21437568.26148      3965.39100
   4829583.41005  21875859.69405   3761672.02347  21875856.29247     -1797.01600
 08 11 11  1  3 29.9950000  0  9  3  6 13 16 19 21 23 25 31
 -27794618.92408  18501329.16308 -21629652.15949  18501325.48349      2133.09400
 -20819266.50108  18805523.25708 -16204509.90649  18805519.11249      1049.92200
 -15193316.70506  20723190.62406 -11813889.44248  20723186.53048      1590.60900
  -4542199.45307  19774120.16307  -3535955.07149  19774115.42949      -169.81300
 -15493520.11707  20342359.33507 -12056100.72748  20342354.12848      3968.04700
  -8433705.44206  22499801.38206  -6559935.31446  22499797.44446       676.45300
 -15539639.75207  20271414.66307 -12091763.97248  20271409.14848      -134.34400
 -11215274.40906  21426257.71806  -8722729.04048  21426252.81948      3962.92200
   4856565.02306  21880993.89806   3782696.60847  21880989.81247     -1800.48400
 08 11 11  1  3 44.9950000  0  9  3  6 13 16 19 21 23 25 31
 -27826559.91808  18495250.71808 -21654541.23449  18495247.65549      2125.39100
 -20834966.79508  18802535.51508 -16216743.89649  18802531.69049      1043.15600
 -15217108.80206  20718662.84306 -11832428.73048  20718659.49548      1581.39100
  -4539643.17507  19774606.63207  -3533963.18149  19774602.39449      -171.35900
 -15553005.21707  20331039.56207 -12102452.76248  20331034.48748      3963.07800
  -8443803.81406  22497879.94406  -6567804.20847  22497876.10547       669.57800
 -15537567.16207  20271809.63207 -12090148.97148  20271803.92948      -142.37500
 -11274705.57507  21414948.66307  -8769039.03848  21414943.42948      3960.93800
   4883593.56306  21886137.28806   3803757.79447  21886134.33947     -1803.56300
 08 11 11  1  3 59.9950000  0  9  3  6 13 16 19 21 23 25 31
 -27858380.97707  18489195.53007 -21679336.85149  18489192.77349      2117.48400
 -20850560.04808  18799568.26508 -16228894.47549  18799564.72249      1036.14100
 -15240758.07006  20714162.81206 -11850856.73048  20714159.65148      1571.93800
  -4537059.35007  19775098.38207  -3531949.81249  19775093.90549      -173.07800
 -15612410.17907  20319734.91307 -12148742.35149  20319729.92549      3957.71900
  -8453794.79306  22495978.24906  -6575589.39047  22495975.46447       662.62500
 -15535369.81507  20272227.55407 -12088436.76048  20272222.31248      -150.48400
 -11334103.14406  21403645.24106  -8815322.80748  21403640.08948      3958.89100
   4910670.47606  21891290.20206   3824856.64647  21891286.74947     -1806.57800
 08 11 11  1  4 14.9950000  0  9  3  6 13 16 19 21 23 25 31
 -27890083.86508  18483162.73308 -21704040.39149  18483159.78049      2109.68800
 -20866048.28708  18796620.90508 -16240963.22749  18796618.19849      1029.14100
 -15264266.42607  20709689.46807 -11869174.93748  20709686.17148      1562.59400
  -4534450.20107  19775594.95207  -3529916.70249  19775589.79249      -174.70300
 -15671736.83707  20308445.91307 -12194970.90149  20308440.31549      3952.60900
  -8463680.38905  22494097.21805  -6583292.45746  22494093.53446       655.62500
 -15533049.99106  20272668.85106 -12086629.11648  20272663.38648      -158.65600
 -11393468.82706  21392348.89006  -8861581.78348  21392344.19848      3956.62500
   4937793.71406  21896451.70206   3845991.57248  21896448.45248     -1809.65600
 08 11 11  1  4 29.9950000  0  9  3  6 13 16 19 21 23 25 31
 -27921666.77207  18477152.39007 -21728650.43849  18477149.67149      2101.65600
 -20881429.71307  18793694.00707 -16252948.74849  18793690.74949      1021.95300
 -15287631.81907  20705242.68707 -11887381.73248  20705239.91348      1552.98400
  -4531813.63207  19776096.56207  -3527862.23749  19776091.93349      -176.59400
 -15730982.89907  20297171.56207 -12241136.67349  20297166.02349      3947.12500
  -8473458.69005  22492236.05405  -6590911.93346  22492232.38646       648.37500
 -15530606.07706  20273133.89806 -12084724.77848  20273128.70648      -167.01600
 -11452800.36206  21381057.92906  -8907814.12848  21381053.69848      3954.32800
   4964965.23506  21901621.93706   3867164.16848  21901618.66748     -1812.92200
 08 11 11  1  4 44.9950000  0  9  3  6 13 16 19 21 23 25 31
 -27953130.14908  18471165.14808 -21753167.35249  18471161.96849      2093.71900
 -20896704.81507  18790787.24107 -16264851.42649  18790783.37049      1014.98400
 -15310854.73107  20700823.97607 -11905477.52248  20700820.98348      1543.62500
  -4529150.10307  19776603.67907  -3525786.75249  19776598.31549      -178.32800
 -15790148.72107  20285912.25707 -12287239.90349  20285906.58149      3941.90600
  -8483129.96105  22490396.17105  -6598447.99346  22490390.92946       641.32800
 -15528038.62407  20273622.60807 -12082724.16948  20273617.13648      -175.03100
 -11512097.90306  21369774.43706  -8954019.98548  21369769.89448      3952.15600
   4992184.39006  21906801.71006   3888373.85547  21906798.85147     -1816.07800
 08 11 11  1  4 59.9950000  0  9  3  6 13 16 19 21 23 25 31
 -27984473.14807  18465201.07707 -21777590.47449  18465197.47649      2085.43800
 -20911872.81208  18787900.86608 -16276670.63549  18787897.22649      1007.57800
 -15333934.32807  20696431.99907 -11923461.62548  20696429.03448      1533.76600
  -4526458.91407  19777115.57707  -3523689.72849  19777110.41749      -180.37500
 -15849233.24707  20274669.06207 -12333279.78449  20274663.57749      3936.15600
  -8492693.37006  22488576.92906  -6605899.98946  22488571.57346       633.79700
 -15525346.92107  20274134.71807 -12080626.74648  20274129.21048      -183.71900
 -11571360.36406  21358496.85806  -9000198.52448  21358493.05848      3949.59400
   5019451.83006  21911990.28806   3909621.19047  21911987.62447     -1819.56300
 08 11 11  1  5 14.9950000  0  9  3  6 13 16 19 21 23 25 31
 -28015695.35408  18459259.69408 -21801919.46449  18459256.12049      2077.37500
 -20926933.67907  18785034.76507 -16288406.37249  18785031.33949      1000.48400
 -15356870.13807  20692067.87407 -11941333.68048  20692064.37048      1524.21900
  -4523739.70707  19777632.48307  -3521570.87949  19777627.31549      -182.21900
 -15908235.88207  20263441.35107 -12379255.86949  20263436.08949      3930.78100
  -8502148.61406  22486777.75706  -6613267.68646  22486772.51146       626.73400
 -15522531.07506  20274670.44406 -12078432.59648  20274664.90148      -191.96900
 -11630587.11006  21347226.40506  -9046349.20648  21347223.14448      3947.15600
   5046767.88706  21917188.96806   3930906.38048  21917185.98048     -1822.71900
 08 11 11  1  5 29.9950000  0  9  3  6 13 16 19 21 23 25 31
 -28046798.88808  18453340.76508 -21826155.98949  18453337.66749      2069.62500
 -20941889.35207  18782189.22607 -16300060.12649  18782184.99549       993.59400
 -15379664.22307  20687729.94407 -11959095.31248  20687726.80048      1514.87500
  -4520994.58107  19778155.11607  -3519431.82049  19778149.92549      -183.85900
 -15967158.25007  20252229.10807 -12425169.40349  20252223.34349      3925.46900
  -8511497.70706  22484998.11606  -6620552.73146  22484993.26946       619.68800
 -15519593.31906  20275229.76506 -12076143.43848  20275224.35848      -199.87500
 -11689779.80306  21335962.46806  -9092473.37348  21335958.72648      3945.01600
   5074130.26006  21922395.32706   3952227.67847  21922392.15947     -1825.65600
 08 11 11  1  5 44.9950000  0  9  3  6 13 16 19 21 23 25 31
 -28077780.94108  18447445.14008 -21850297.85049  18447441.67949      2061.34400
 -20956737.35207  18779363.61607 -16311630.00249  18779359.79249       986.25000
 -15402314.03407  20683419.68707 -11976744.51948  20683416.11248      1505.07800
  -4518220.99307  19778682.71007  -3517270.58649  19778677.92149      -185.93800
 -16025997.64406  20241032.25706 -12471018.28949  20241026.56249      3919.84400
  -8520738.05106  22483240.01506  -6627752.99546  22483235.64046       612.40600
 -15516531.32407  20275812.50707 -12073757.48348  20275806.87848      -208.35900
 -11748935.63206  21324705.36606  -9138568.82448  21324702.08948      3942.40600
   5101541.46906  21927612.35106   3973586.99548  21927607.99548     -1829.15600
 08 11 11  1  5 59.9950000  0  9  3  6 13 16 19 21 23 25 31
 -28108645.79208  18441571.80408 -21874348.38149  18441568.45249      2053.51600
 -20971481.92907  18776557.25707 -16323119.28249  18776553.53849       979.34400
 -15424823.56007  20679136.96807 -11994284.43148  20679132.89048      1495.73400
  -4515422.96307  19779215.04607  -3515090.30449  19779210.37049      -187.53100
 -16084758.07407  20229849.99107 -12516805.62649  20229845.74149      3914.50000
  -8529873.81905  22481500.56205  -6634871.78346  22481497.08146       605.34400
 -15513349.39807  20276418.40507 -12071278.06548  20276412.68348      -216.37500
 -11808058.41206  21313454.35106  -9184638.51148  21313451.87048      3940.14100
   5128997.09906  21932836.86606   3994980.94548  21932832.51948     -1832.06300
 08 11 11  1  6 14.9950000  0  9  3  6 13 16 19 21 23 25 31
 -28139390.57008  18435721.12408 -21898305.34049  18435717.75749      2045.64100
 -20986120.28907  18773772.03007 -16334525.79649  18773768.28049       972.34400
 -15447189.81807  20674880.73307 -12011712.68348  20674877.03848      1486.32800
  -4512597.54807  19779752.75707  -3512888.69749  19779748.12449      -189.26600
 -16143436.29206  20218684.17106 -12562528.89349  20218679.38649      3909.17200
  -8538901.92705  22479783.21805  -6641906.73446  22479778.39046       598.29700
 -15510044.88707  20277046.78007 -12068703.13948  20277041.65148      -224.40600
 -11867144.86006  21302210.77306  -9230679.88848  21302207.57748      3937.85900
   5156500.18706  21938070.33506   4016411.88048  21938066.09348     -1835.10900
 08 11 11  1  6 29.9950000  0  9  3  6 13 16 19 21 23 25 31
 -28170014.39908  18429893.53808 -21922168.05749  18429890.12849      2037.48400
 -21000651.82907  18771006.50707 -16345849.07249  18771003.02349       965.18800
 -15469412.13407  20670651.99907 -12029028.77348  20670648.75348      1476.60900
  -4509744.37707  19780296.05407  -3510665.44649  19780291.00349      -191.25000
 -16202031.39807  20207533.67907 -12608187.40649  20207529.13249      3903.46900
  -8547821.70506  22478085.99906  -6648857.14146  22478080.03446       590.90600
 -15506617.21807  20277698.42107 -12066032.23348  20277693.82748      -232.75000
 -11926193.93706  21290974.14006  -9276692.15848  21290971.48048      3935.25000
   5184051.29106  21943313.58506   4037880.24848  21943309.61648     -1838.46900
 08 11 11  1  6 44.9950000  0  9  3  6 13 16 19 21 23 25 31
 -28200518.38807  18424088.87407 -21945937.38749  18424085.98749      2029.56300
 -21015077.66107  18768261.39807 -16357089.97749  18768257.94449       958.18800
 -15491491.45807  20666450.71007 -12046233.44148  20666447.05048      1467.09400
  -4506864.19407  19780843.97607  -3508421.15949  19780839.48349      -192.96900
 -16260544.19406  20196399.48306 -12653781.78049  20196394.71849      3898.04700
  -8556634.12205  22476408.66305  -6655723.98946  22476403.56546       583.78100
 -15503067.74906  20278373.89806 -12063266.42848  20278369.42548      -240.84400
 -11985206.47106  21279743.79606  -9322675.93548  21279741.28448      3932.82800
   5211649.16706  21948565.36606   4059385.03148  21948561.48048     -1841.51600
 08 11 11  1  6 59.9950000  0  9  3  6 13 16 19 21 23 25 31
 -28230902.54608  18418306.70208 -21969613.35349  18418303.81949      2021.64100
 -21029398.08307  18765536.23307 -16368248.74949  18765532.38649       951.23400
 -15513428.01507  20662276.03807 -12063326.87048  20662272.46048      1457.73400
  -4503957.20207  19781397.21007  -3506155.96949  19781392.60549      -194.59400
 -16318974.48206  20185280.52306 -12699311.87749  20185275.12449      3892.56300
  -8565339.42405  22474752.24105  -6662507.33346  22474747.61646       576.85900
 -15499396.83106  20279073.08506 -12060405.99748  20279068.26148      -248.73400
 -12044182.34106  21268521.17106  -9368631.15948  21268518.49948      3930.51600
   5239293.41606  21953825.01506   4080925.96248  21953822.44848     -1844.46900
 08 11 11  1  7 14.9950000  0  9  3  6 13 16 19 21 23 25 31
 -28261168.62908  18412547.44408 -21993197.31449  18412544.18749      2013.95300
 -21043614.76707  18762831.07707 -16379326.68449  18762827.58149       944.40600
 -15535223.39307  20658128.56207 -12080310.28648  20658124.63248      1448.46900
  -4501024.91107  19781955.50707  -3503871.08049  19781951.06549      -196.14100
 -16377323.69006  20174176.96006 -12744778.78748  20174171.67548      3887.35900
  -8573939.05105  22473115.55405  -6669208.34346  22473111.44446       569.93800
 -15495606.22606  20279794.28006 -12057452.28848  20279789.73048      -256.53100
 -12103122.70406  21257305.01506  -9414558.71948  21257302.28448      3928.31300
   5266982.35506  21959094.74106   4102501.73548  21959091.70648     -1847.28100
 08 11 11  1  7 29.9950000  0  9  3  6 13 16 19 21 23 25 31
 -28291318.21807  18406810.27307 -22016690.49749  18406807.04649      2006.12500
 -21057729.45307  18760145.02307 -16390325.12249  18760141.79649       937.73400
 -15556879.21807  20654007.31207 -12097184.95448  20654003.72248      1439.14100
  -4498069.23607  19782517.63207  -3501567.95449  19782513.34349      -197.73400
 -16435593.35806  20163088.17906 -12790183.71449  20163083.48749      3882.09400
  -8582434.85305  22471499.06205  -6675828.51046  22471495.16346       563.06300
 -15491698.02906  20280537.89806 -12054406.94248  20280533.42148      -264.34400
 -12162029.04006  21246095.35806  -9460459.74448  21246092.19048      3926.09400
   5294714.16406  21964371.49106   4124110.89248  21964368.99148     -1850.14100
 08 11 11  1  7 44.9950000  0  9  3  6 13 16 19 21 23 25 31
 -28321352.31308  18401095.03808 -22040093.69249  18401091.55849      1998.15600
 -21071743.50307  18757478.31907 -16401245.16049  18757474.82349       930.68800
 -15578396.62607  20649912.70207 -12113951.76148  20649908.53048      1429.57800
  -4495091.25007  19783084.33507  -3499247.45749  19783079.93349      -199.56300
 -16493784.34306  20152014.46006 -12835527.32848  20152009.90548      3876.51600
  -8590827.95605  22469902.49905  -6682368.55546  22469898.10146       555.85900
 -15487673.58907  20281304.31907 -12051271.03048  20281298.72248      -272.48400
 -12220902.17506  21234891.99106  -9506334.92148  21234888.82348      3923.54700
   5322487.68806  21969657.42906   4145752.54048  21969653.70248     -1853.18800
 08 11 11  1  7 59.9950000  0  9  3  6 13 16 19 21 23 25 31
 -28351264.47708  18395403.11608 -22063401.87349  18395399.33149      1990.15600
 -21085650.49507  18754832.07707 -16412081.77549  18754828.76949       923.67200
 -15599769.02707  20645845.89807 -12130605.57448  20645841.56248      1420.12500
  -4492084.51007  19783656.98307  -3496904.54849  19783652.54249      -201.31300
 -16551889.94906  20140957.39006 -12880804.42249  20140952.08949      3870.95300
  -8599111.78705  22468326.28005  -6688823.51546  22468321.99546       548.84400
 -15483526.65307  20282092.99907 -12048039.66848  20282087.29248      -280.45300
 -12279735.36206  21223696.27306  -9552178.96148  21223692.90148      3920.90600
   5350309.18206  21974951.61606   4167431.58448  21974947.87848     -1856.31300
 08 11 11  1  8 14.9950000  0  9  3  6 13 16 19 21 23 25 31
 -28381056.21007  18389733.56207 -22086616.19649  18389730.41749      1982.15600
 -21099451.77607  18752205.67107 -16422836.01149  18752202.21449       916.59400
 -15620997.66407  20641806.11607 -12147147.37548  20641802.36648      1410.53100
  -4489050.28407  19784234.21007  -3494540.22749  19784229.82349      -203.12500
 -16609911.17506  20129916.53006 -12926015.76649  20129911.39049      3865.31300
  -8607287.61004  22466769.28804  -6695194.27746  22466765.85546       541.42200
 -15479258.87307  20282905.52307 -12044714.12548  20282899.66748      -288.56300
 -12338529.54706  21212508.48306  -9597992.61348  21212505.55448      3918.39100
   5378177.30206  21980254.12406   4189146.96148  21980250.67948     -1859.46900
 08 11 11  1  8 29.9950000  0  9  3  6 13 16 19 21 23 25 31
 -28410729.94607  18384086.93707 -22109738.58449  18384084.11249      1974.39100
 -21113150.22807  18749598.81207 -16433510.12149  18749595.08149       909.79700
 -15642085.35707  20637793.05407 -12163579.35248  20637789.73748      1401.15600
  -4485991.35207  19784816.45207  -3492156.64449  19784811.46049      -204.73400
 -16667850.58306  20118891.29606 -12971163.35849  20118886.14849      3859.89100
  -8615358.25904  22465233.31204  -6701483.07546  22465229.84746       534.68800
 -15474873.07707  20283739.66307 -12041296.62948  20283734.19448      -296.26600
 -12397287.08006  21201327.08506  -9643777.69848  21201324.42548      3915.98400
   5406088.98006  21985566.32706   4210896.28948  21985561.87448     -1862.15600
 08 11 11  1  8 44.9950000  0  9  3  6 13 16 19 21 23 25 31
 -28440285.17607  18378462.32707 -22132768.62549  18378459.42949      1966.45300
 -21126745.44507  18747012.06907 -16444103.78649  18747008.46449       902.92200
 -15663031.64207  20633806.53807 -12179901.13948  20633803.20248      1391.76600
  -4482907.22807  19785403.21807  -3489753.43149  19785398.78049      -206.37500
 -16725707.46206  20107881.46806 -13016246.62249  20107876.69449      3854.39100
  -8623323.10705  22463718.33505  -6707689.45346  22463714.11646       527.51600
 -15470368.97707  20284596.70207 -12037786.94948  20284591.14848      -304.17200
 -12456007.26906  21190153.38206  -9689533.68448  21190150.70248      3913.46900
   5434044.77506  21990885.49106   4232679.98448  21990881.85548     -1865.12500
 08 11 11  1  8 59.9950000  0  9  3  6 13 16 19 21 23 25 31
 -28469721.34707  18372861.10807 -22155705.89949  18372857.75749      1958.45300
 -21140236.73707  18744444.59307 -16454616.47949  18744440.95249       896.04700
 -15683835.35107  20629848.31207 -12196111.82348  20629844.80448      1382.20300
  -4479796.97707  19785994.78807  -3487329.87049  19785990.41749      -208.20300
 -16783480.73506  20096887.24906 -13061264.74749  20096882.30449      3848.84400
  -8631181.30005  22462224.01505  -6713812.67746  22462218.67946       520.32800
 -15465745.98407  20285476.60107 -12034184.61348  20285470.90948      -312.09400
 -12514688.86406  21178986.49106  -9735259.59148  21178984.11248      3910.89100
   5462045.34406  21996213.74906   4254498.55948  21996210.65148     -1868.10900
 08 11 11  1  9 14.9950000  0  9  3  6 13 16 19 21 23 25 31
 -28499036.39507  18367282.91307 -22178548.79049  18367279.20649      1950.50000
 -21153622.58807  18741897.36607 -16465047.00649  18741893.56949       889.10900
 -15704495.20207  20625916.68707 -12212210.41548  20625912.64848      1372.71900
  -4476659.10307  19786591.91307  -3484884.77249  19786587.14849      -209.89100
 -16841168.55906  20085909.87406 -13106216.28549  20085904.68349      3843.21900
  -8638931.34904  22460747.62404  -6719851.74046  22460743.83546       513.32800
 -15461002.75907  20286379.46007 -12030488.59548  20286373.31548      -319.98400
 -12573330.01306  21167828.11606  -9780953.99448  21167824.88648      3908.18800
   5490092.25106  22001551.18706   4276353.25048  22001547.95248     -1871.20300
 08 11 11  1  9 29.9950000  0  9  3  6 13 16 19 21 23 25 31
 -28528234.39707  18361726.57707 -22201300.46949  18361723.08949      1942.78100
 -21166906.96307  18739369.08507 -16475398.46249  18739365.46449       882.29700
 -15725014.91507  20622012.14007 -12228199.80148  20622007.76548      1363.40600
  -4473497.50707  19787193.21007  -3482421.20449  19787188.86649      -211.46900
 -16898774.52006  20074948.10806 -13151104.04449  20074942.78449      3837.73400
  -8646576.96703  22459292.18703  -6725809.35346  22459289.15146       506.43800
 -15456143.48807  20287303.99907 -12026702.15048  20287298.60148      -327.70300
 -12631934.20206  21156675.97606  -9826619.57948  21156672.36248      3905.81300
   5518181.39406  22006896.80406   4298240.86348  22006893.28448     -1873.82800
 08 11 11  1  9 44.9950000  0  9  3  6 13 16 19 21 23 25 31
 -28557313.52908  18356193.06208 -22223959.53749  18356189.56549      1934.67200
 -21180088.06707  18736861.15507 -16485669.45949  18736857.43749       875.25000
 -15745392.61707  20618134.64007 -12244078.52348  20618130.87448      1353.71900
  -4470310.30007  19787799.64807  -3479937.68149  19787795.73749      -213.31300
 -16956296.65406  20064001.78806 -13195926.49449  20063996.53849      3831.95300
  -8654116.45503  22457857.39803  -6731684.31645  22457853.68345       499.07800
 -15451166.58307  20288251.05407 -12022824.04948  20288245.74148      -335.71900
 -12690499.38606  21145531.85106  -9872254.79248  21145527.79648      3902.98400
   5546314.46606  22012250.12406   4320162.70048  22012246.46048     -1877.12500
 08 11 11  1  9 59.9950000  0  9  3  6 13 16 19 21 23 25 31
 -28586273.88807  18350682.08507 -22246526.04749  18350678.96049      1926.54700
 -21193166.16507  18734372.38207 -16495860.17849  18734368.89849       868.21900
 -15765628.38207  20614283.29607 -12259846.64848  20614280.05448      1344.10900
  -4467097.49407  19788411.42107  -3477434.20749  19788407.16749      -215.25000
 -17013734.82706  20053071.54606 -13240683.49349  20053066.68749      3826.14100
  -8661550.03904  22456444.36604  -6737476.80746  22456439.13646       492.00000
 -15446072.40307  20289219.86607 -12018854.57848  20289214.40948      -343.75000
 -12749025.30606  21134394.49106  -9917859.39648  21134391.15148      3900.12500
   5574491.24206  22017612.54606   4342118.58348  22017608.66748     -1880.17200
 08 11 11  1 10 14.9950000  0  9  3  6 13 16 19 21 23 25 31
 -28615117.67207  18345193.34307 -22269001.72449  18345190.00349      1918.96900
 -21206143.57307  18731902.72607 -16505972.44149  18731899.55849       861.79700
 -15785724.59807  20610459.43707 -12275506.03048  20610455.36648      1335.10900
  -4463861.43206  19789027.38206  -3474912.60249  19789022.78049      -216.51600
 -17071091.02506  20042157.71006 -13285376.62049  20042151.89449      3820.84400
  -8668879.79904  22455049.20204  -6743188.24545  22455044.77645       485.12500
 -15440863.23207  20290211.32707 -12014795.48448  20290206.36248      -351.12500
 -12807513.89806  21123264.83506  -9963434.92248  21123260.95648      3897.85900
   5602709.36906  22022981.83506   4364106.70548  22022977.82748     -1882.60900
 08 11 11  1 10 29.9950000  0  9  3  6 13 16 19 21 23 25 31
 -28643843.99607  18339726.60807 -22291385.87549  18339723.67149      1911.14100
 -21219019.47907  18729452.15507 -16516005.60849  18729448.98049       854.98400
 -15805680.13407  20606661.85107 -12291055.81248  20606657.82348      1325.65600
  -4460601.25107  19789647.75707  -3472372.21049  19789643.15149      -218.17200
 -17128364.11206  20031258.49906 -13330004.98049  20031253.19049      3815.32800
  -8676104.68504  22453673.39804  -6748818.01246  22453669.58546       478.00000
 -15435538.45807  20291224.95207 -12010646.32848  20291219.65148      -358.82800
 -12865963.84806  21112142.29606 -10008980.32348  21112137.42548      3895.34400
   5630969.70406  22028359.38206   4386127.70348  22028356.21848     -1885.48400
 08 11 11  1 10 44.9950000  0  9  3  6 13 16 19 21 23 25 31
 -28672452.36507  18334282.81207 -22313678.10449  18334279.46049      1903.14100
 -21231793.39407  18727021.81207 -16525959.29249  18727018.99149       848.09400
 -15825494.44907  20602891.64807 -12306495.54048  20602887.17548      1316.14100
  -4457316.32507  19790272.91307  -3469812.52749  19790267.80449      -219.89100
 -17185553.20006  20020376.08506 -13374567.89549  20020370.72649      3809.60900
  -8683224.16504  22452319.19404  -6754365.68846  22452315.63246       471.01600
 -15430097.88807  20292260.14007 -12006406.93648  20292255.04248      -366.68800
 -12924374.32106  21101026.71806 -10054494.96948  21101022.68748      3892.60900
   5659272.70806  22033744.87406   4408181.94648  22033741.88248     -1888.40600
 08 11 11  1 10 59.9950000  0  9  3  6 13 16 19 21 23 25 31
 -28700941.93607  18328861.46007 -22335877.75349  18328857.90949      1895.28100
 -21244464.62907  18724610.49107 -16535832.98749  18724607.61249       841.35900
 -15845166.80707  20599147.93707 -12321824.65648  20599143.92948      1306.70300
  -4454005.68707  19790902.55407  -3467232.81749  19790897.81949      -221.62500
 -17242657.35806  20009509.46006 -13419064.63149  20009504.50349      3804.10900
  -8690237.44704  22450985.21804  -6759830.56946  22450981.19446       463.95300
 -15424540.91607  20293317.66307 -12002076.84948  20293312.55048      -374.37500
 -12982744.13006  21089919.70206 -10099977.93048  21089915.82348      3889.85900
   5687618.94406  22039139.31206   4430269.86748  22039136.01948     -1891.32800
 08 11 11  1 11 14.9950000  0  9  3  6 13 16 19 21 23 25 31
 -28729312.39807  18323463.05407 -22357984.61049  18323459.96449      1887.64100
 -21257033.15807  18722218.71007 -16545626.64449  18722215.25749       834.78100
 -15864696.91807  20595431.48307 -12337042.92748  20595427.59348      1297.56300
  -4450669.28906  19791537.78006  -3464633.02849  19791532.83549      -223.00000
 -17299676.18206  19998658.76506 -13463494.88149  19998654.03849      3798.67200
  -8697144.37504  22449671.11604  -6765212.63745  22449666.82745       457.21900
 -15418867.66007  20294397.44407 -11997656.15348  20294392.20248      -381.79700
 -13041072.79906  21078819.81206 -10145428.84348  21078815.75348      3887.43800
   5716008.53406  22044541.45206   4452391.58648  22044538.69448     -1893.81300
 08 11 11  1 11 29.9950000  0  9  3  6 13 16 19 21 23 25 31
 -28757567.34307  18318086.04607 -22380001.44449  18318083.12449      1879.56300
 -21269502.64507  18719846.04607 -16555343.12449  18719842.57749       827.79700
 -15884088.39307  20591741.11607 -12352153.16548  20591738.26148      1287.89100
  -4447310.71806  19792176.80406  -3462015.97148  19792171.55448      -224.84400
 -17356612.96706  19987824.56906 -13507861.19649  19987819.39849      3792.84400
  -8703948.25904  22448375.97604  -6770514.33645  22448371.51545       449.81300
 -15413081.71407  20295498.39807 -11993147.64048  20295492.94048      -389.68800
 -13099363.61406  21067727.07706 -10190850.25748  21067723.08148      3884.46900
   5744437.85006  22049951.63206   4474544.26648  22049948.78448     -1896.79700
 08 11 11  1 11 44.9950000  0  9  3  6 13 16 19 21 23 25 31
 -28785699.68507  18312732.51507 -22401922.74349  18312729.53049      1871.46900
 -21281866.03307  18717493.38207 -16564976.93049  18717489.79649       820.75000
 -15903334.13007  20588078.51507 -12367149.83648  20588075.69848      1278.26600
  -4443922.73107  19792821.42107  -3459375.97949  19792816.24149      -226.73400
 -17413460.37306  19977006.55406 -13552157.85349  19977001.16749      3786.90600
  -8710642.31303  22447102.01503  -6775730.50045  22447097.16345       442.70300
 -15407176.21907  20296622.64807 -11988545.96948  20296617.08148      -397.64100
 -13157609.11806  21056643.17906 -10236236.33248  21056639.07748      3881.60900
   5772913.77306  22055370.89006   4496733.26348  22055367.53848     -1899.79700
 08 11 11  1 11 59.9950000  0  9  3  6 13 16 19 21 23 25 31
 -28813713.95007  18307401.86607 -22423752.03749  18307397.97249      1863.78100
 -21294128.07807  18715159.96007 -16574531.76649  18715156.05449       814.17200
 -15922438.67307  20584443.06207 -12382036.48048  20584439.15548      1269.09400
  -4440509.96607  19793471.00707  -3456716.68949  19793466.23049      -228.21900
 -17470222.86606  19966205.32706 -13596388.34749  19966199.35849      3781.51600
  -8717231.03404  22445848.68704  -6780864.60845  22445843.60545       435.90600
 -15401156.26407  20297767.97607 -11983855.10548  20297762.55448      -404.98400
 -13215813.62406  21045567.17906 -10281590.47348  21045563.21448      3879.03100
   5801431.48306  22060797.40506   4518954.80248  22060794.61248     -1902.42200
 08 11 11  1 12 14.9950000  0  9  3  6 13 16 19 21 23 25 31
 -28841611.59507  18302092.89007 -22445490.45349  18302089.46449      1855.93800
 -21306290.20607  18712845.39007 -16584008.74649  18712842.26149       807.45300
 -15941403.43707  20580834.14807 -12396814.20948  20580830.96848      1259.59400
  -4437073.76507  19794125.46807  -3454039.13349  19794119.82749      -229.93800
 -17526901.51206  19955419.99906 -13640553.52149  19955413.90149      3775.76600
  -8723715.86703  22444615.14003  -6785917.72545  22444609.26145       428.93800
 -15395023.35507  20298934.06907 -11979076.21748  20298929.46048      -412.64100
 -13273978.19506  21034498.71006 -10326913.50448  21034494.84748      3876.28100
   5829989.39706  22066232.41306   4541207.69748  22066228.88648     -1905.20300
 08 11 11  1 12 29.9950000  0  9  3  6 13 16 19 21 23 25 31
 -28869390.26807  18296806.95207 -22467136.16749  18296802.87849      1848.06300
 -21318350.40807  18710550.39807 -16593406.31649  18710546.81249       800.73400
 -15960226.13607  20577253.02307 -12411481.25548  20577249.39448      1250.20300
  -4433612.03907  19794784.21007  -3451341.68649  19794778.91749      -231.50000
 -17583493.82706  19944650.60106 -13684651.41949  19944644.88249      3769.98400
  -8730094.50502  22443400.74102  -6790888.11646  22443395.26946       421.87500
 -15388775.63407  20300123.50707 -11974207.87348  20300118.33948      -420.20300
 -13332100.21506  21023438.40506 -10372203.37348  21023435.20648      3873.53100
   5858589.85706  22071674.30406   4563493.73748  22071671.30448     -1907.95300
 08 11 11  1 12 44.9950000  0  9  3  6 13 16 19 21 23 25 31
 -28897049.28207  18291543.38207 -22488688.64549  18291539.74949      1839.84400
 -21330307.98807  18708275.23307 -16602723.90049  18708271.28449       793.59400
 -15978906.12707  20573698.46807 -12426037.07848  20573695.42148      1240.46900
  -4430124.02107  19795447.42907  -3448623.75449  19795442.88249      -233.50000
 -17639998.92407  19933897.92907 -13728681.36249  19933892.52349      3764.03100
  -8736366.12303  22442208.65503  -6795775.10545  22442202.77645       414.45300
 -15382412.53507  20301334.52307 -11969249.62648  20301329.10148      -428.17200
 -13390178.67806  21012386.52306 -10417459.30048  21012383.17548      3870.35900
   5887233.47706  22077125.03806   4585813.39448  22077122.30848     -1911.09400
 08 11 11  1 12 59.9950000  0  9  3  6 13 16 19 21 23 25 31
 -28924590.10507  18286302.22607 -22510149.01849  18286299.25749      1832.17200
 -21342164.41007  18706018.62407 -16611962.67149  18706015.40549       787.09400
 -15997444.69207  20570170.39007 -12440482.71248  20570167.59348      1231.21900
  -4426611.00207  19796115.82707  -3445886.33949  19796111.49549      -234.96900
 -17696417.78106  19923161.10806 -13772644.08849  19923156.35149      3758.40600
  -8742532.23904  22441034.05404  -6800579.84946  22441030.45246       407.65600
 -15375935.57407  20302567.39007 -11964202.64648  20302561.60548      -435.54700
 -13448214.50906  21001342.60806 -10462682.00648  21001339.19048      3867.70300
   5915918.70806  22082583.47606   4608165.47248  22082580.72648     -1913.67200
 08 11 11  1 13 14.9950000  0  9  3  6 13 16 19 21 23 25 31
 -28952014.74507  18281083.95207 -22531518.87149  18281080.44449      1824.48400
 -21353921.96707  18703781.23307 -16621124.39949  18703777.88649       780.46900
 -16015844.11407  20566669.08507 -12454819.92148  20566666.07748      1222.00000
  -4423075.20907  19796788.60807  -3443131.17849  19796784.50749      -236.42200
 -17752752.45506  19912441.24906 -13816541.22649  19912436.25349      3752.85900
  -8748595.03103  22439879.08503  -6805304.08946  22439876.53846       400.62500
 -15369347.23707  20303821.28007 -11959068.89848  20303815.56948      -442.87500
 -13506209.73606  20990306.77306 -10507873.08048  20990303.14048      3864.98400
   5944643.13706  22088049.32706   4630548.09447  22088046.92147     -1916.31300
 08 11 11  1 13 29.9950000  0  9  3  6 13 16 19 21 23 25 31
 -28979323.21607  18275887.24107 -22552798.19349  18275883.59749      1816.59400
 -21365580.63007  18701562.67907 -16630209.06449  18701559.52649       773.82800
 -16034104.21106  20563194.62406 -12469048.58148  20563191.14448      1212.65600
  -4419516.45806  19797466.27306  -3440358.14049  19797461.98349      -238.06300
 -17809002.69606  19901737.24106 -13860372.57449  19901731.32349      3747.12500
  -8754554.45803  22438745.71803  -6809947.86745  22438741.35545       393.78100
 -15362647.70007  20305096.13207 -11953848.49248  20305090.61648      -450.37500
 -13564163.82506  20979278.37406 -10553032.09648  20979275.32348      3862.18800
   5973406.81606  22093523.53806   4652961.31448  22093520.56548     -1918.95300
 08 11 11  1 13 44.9950000  0  9  3  6 13 16 19 21 23 25 31
 -29006513.80807  18270712.86607 -22573985.67049  18270709.70649      1808.65600
 -21377138.93807  18699363.26507 -16639215.53249  18699360.06249       767.01600
 -16052223.36907  20559746.20207 -12483167.40348  20559743.36248      1203.10900
  -4415933.12307  19798147.74107  -3437565.93649  19798143.94849      -239.87500
 -17865166.71206  19891049.59306 -13904136.74149  19891044.12049      3741.28100
  -8760408.77804  22437631.01504  -6814509.58646  22437627.63246       386.68800
 -15355835.54207  20306392.32707 -11948540.33348  20306386.54648      -458.07800
 -13622074.87707  20968257.92107 -10598157.58548  20968254.84748      3859.15600
   6002211.20906  22099004.32706   4675406.25248  22099002.19048     -1921.84400
 08 11 11  1 13 59.9950000  0  9  3  6 13 16 19 21 23 25 31
 -29033586.14107  18265560.98307 -22595080.99649  18265557.88249      1800.98400
 -21388596.60807  18697183.19407 -16648143.58449  18697179.74549       760.64100
 -16070201.27807  20556325.17907 -12497176.16648  20556321.52348      1193.96900
  -4412324.76107  19798834.49907  -3434754.22749  19798830.28849      -241.25000
 -17921243.85606  19880378.31906 -13947833.20249  19880373.09349      3735.70300
  -8766157.68904  22436538.26504  -6818989.34846  22436533.91346       380.00000
 -15348910.72707  20307710.49107 -11943144.37648  20307704.11248      -465.21900
 -13679942.14506  20957247.03006 -10643248.95148  20957242.64848      3856.45300
   6031056.59806  22104494.60106   4697883.14048  22104491.39848     -1924.29700
 08 11 11  1 14 14.9950000  0  9  3  6 13 16 19 21 23 25 31
 -29060540.65207  18260432.22607 -22616084.51049  18260428.70249      1793.20300
 -21399954.01007  18695022.00707 -16656993.50049  18695017.78049       753.93800
 -16088038.36407  20552931.26507 -12511075.20648  20552926.62448      1184.59400
  -4408691.65507  19799525.44407  -3431923.26049  19799521.92149      -242.89100
 -17977234.02406  19869723.59306 -13991461.91449  19869718.71449      3729.90600
  -8771801.44304  22435464.00704  -6823387.08546  22435459.92946       372.96900
 -15341873.89507  20309049.33507 -11937661.13848  20309043.02648      -472.71900
 -13737765.65106  20946242.95206 -10688306.22248  20946239.79248      3853.60900
   6059942.57806  22109990.74106   4720391.63848  22109988.22248     -1926.93800
 08 11 11  1 14 29.9950000  0  9  3  6 13 16 19 21 23 25 31
 -29087378.37107  18255324.94407 -22636997.02549  18255321.51149      1785.20300
 -21411212.42707  18692879.40507 -16665766.29849  18692875.50349       747.26600
 -16105735.47907  20549563.99107 -12524865.16548  20549559.86248      1175.06300
  -4405035.01707  19800221.95207  -3429073.93549  19800217.39449      -244.64100
 -18033138.18906  19859085.35806 -14035023.57949  19859080.24549      3724.00000
  -8777341.08104  22434410.53004  -6827703.67546  22434406.49146       365.59400
 -15334726.31207  20310409.49107 -11932091.61648  20310403.40948      -480.23400
 -13795546.05307  20935247.87407 -10733329.91448  20935244.45648      3850.50000
   6088867.93406  22115494.89006   4742930.84248  22115492.24148     -1929.75000
 08 11 11  1 14 44.9950000  0  9  3  6 13 16 19 21 23 25 31
 -29114097.39007  18250240.65507 -22657817.03749  18250237.58149      1777.37500
 -21422370.14707  18690756.42907 -16674460.62649  18690752.96449       740.60900
 -16123290.76307  20546223.01507 -12538544.61048  20546219.19448      1165.71900
  -4401352.97406  19800922.58506  -3426204.80949  19800917.12849      -246.18800
 -18088954.30606  19848463.97606 -14078516.65849  19848459.12849      3718.23400
  -8782774.87104  22433376.10104  -6831937.79546  22433372.26946       358.89100
 -15327466.34307  20311791.47607 -11926434.51148  20311784.84348      -487.57800
 -13853281.30906  20924261.17106 -10778318.41348  20924257.96048      3847.65600
   6117834.27906  22121007.45206   4765501.97748  22121004.39048     -1932.29700
