     2.10           OBSERVATION DATA    G (GPS)             RINEX VERSION / TYPE
Pinnacle 1.00                           06-NOV-08 23:49     PGM / RUN BY / DATE
build April 19, 2002                                        COMMENT
-Unknown-           -Unknown-                               OBSERVER / AGENCY
         Begin Pinnacle project                             COMMENT
1105                                                        COMMENT
                                                            COMMENT
                                                            COMMENT
November 6, 2008 11:42:26 pm                                COMMENT
                                                            COMMENT
                                                            COMMENT
D:\2008-----\GPS\---\20081105\Pinnacle.dbd          COMMENT
         End Pinnacle project                               COMMENT
                                                            COMMENT
PA65                                                        MARKER NAME
PA65(Tail)(Head)                                            MARKER NUMBER
AF83006AI2O         TPS GB-1000         3.1 Jun,28,2007 p3  REC # / TYPE / VERS
-Unknown-           PG-A1           NONE                    ANT # / TYPE
 -3152285.2427  3978565.6686  3849583.4534                  APPROX POSITION XYZ
        1.4297        0.0000        0.0000                  ANTENNA: DELTA H/E/N
     1     1                                                WAVELENGTH FACT L1/2
     7    L1    L2    C1    P1    P2    D1    D2            # / TYPES OF OBSERV
    30.000                                                  INTERVAL
  2008    11     5     0    40    0.0000000     GPS         TIME OF FIRST OBS
  2008    11     5     2    40    0.0000000     GPS         TIME OF LAST OBS
    11                                                      # OF SATELLITES
   G 3   241   241   241   241   241   241   241            PRN / # OF OBS
   G 6   241   241   241   241   241   241   241            PRN / # OF OBS
   G 7   133   133   133   133   133   133   133            PRN / # OF OBS
   G13   241   241   241   241   241   241   241            PRN / # OF OBS
   G16   241   241   241   241   241   241   241            PRN / # OF OBS
   G19   241   241   241   241   241   241   241            PRN / # OF OBS
   G21   186   186   186   186   186   186   186            PRN / # OF OBS
   G23   241   241   241   241   241   241   241            PRN / # OF OBS
   G25   235   235   235   235   235   235   235            PRN / # OF OBS
   G27    86    86    86    86    86    86    86            PRN / # OF OBS
   G31   140   137   140   137   137   140   137            PRN / # OF OBS
SE TPS f47e5280                                             COMMENT
                                                            END OF HEADER
 08 11  5  0 40  0.0000000  0  8G16G 6G31G 3G23G13G21G19            
 108662315.023    84671932.9614   20677747.561 8  20677747.04546  20677749.91546
      -648.237        -505.122  
 108946611.833    84893465.7014   20731847.691 8  20731847.41546  20731851.34846
      1552.651        1209.856  
 115353464.775    89885817.5684   21951031.260 7  21951031.85544  21951034.72445
     -2051.698       -1598.726  
 110724730.125    86279019.0754   21070214.262 8  21070213.70046  21070218.12146
      2625.283        2045.676  
 113805610.044    88679701.3714   21656485.593 8  21656485.45845  21656486.45545
       583.142         454.399  
 121087835.107    94354165.6084   23042246.304 6  23042245.98944  23042250.18644
      2229.476        1737.251  
 126381837.436    98479354.4914   24049662.245 6  24049661.97343  24049665.03443
       994.382         774.850  
 124843613.319    97280742.3094   23756946.549 6  23756945.06044  23756949.31044
      3700.668        2883.637  
 08 11  5  0 40 30.0000000  0  8G16G 6G31G 3G23G13G21G19            
 108682145.094    84687384.9604   20681521.099 8  20681520.70746  20681523.65746
      -673.615        -524.894  
 108900541.924    84857567.0654   20723080.890 8  20723080.70946  20723084.90546
      1518.798        1183.484  
 115415447.216    89934115.5544   21962826.511 7  21962826.84145  21962829.87945
     -2080.314       -1621.029  
 110646455.865    86218026.1434   21055319.046 8  21055318.54246  21055323.19746
      2593.147        2020.635  
 113788695.666    88666521.3234   21653266.961 7  21653266.69045  21653267.68245
       544.619         424.388  
 121021468.230    94302451.1644   23029617.141 7  23029616.89244  23029621.12044
      2195.104        1710.471  
 126352473.540    98456473.5204   24044074.633 7  24044074.12843  24044077.85543
       963.345         750.652  
 124732943.235    97194505.8964   23735886.742 7  23735885.69944  23735889.39344
      3677.459        2865.565  
 08 11  5  0 41  0.0000000  0  8G16G 6G31G 3G23G13G21G19            
 108702675.535    84703382.7044   20685427.842 7  20685427.13746  20685430.45146
      -694.509        -541.184  
 108855428.738    84822413.9374   20714496.149 8  20714495.93446  20714500.60746
      1489.306        1160.502  
 115478227.905    89983035.5374   21974773.206 7  21974773.49245  21974776.92045
     -2104.490       -1639.866  
 110569086.091    86157738.0054   21040596.079 7  21040595.37846  21040600.15446
      2565.396        1999.007  
 113772876.980    88654195.0654   21650256.590 8  21650256.48645  21650257.62345
       510.510         397.801  
 120956073.000    94251493.8384   23017172.755 7  23017172.47644  23017177.05844
      2165.126        1687.094  
 126323981.396    98434271.8654   24038652.161 6  24038651.71343  24038656.43643
       936.678         729.873  
 124622910.443    97108766.0944   23714947.706 6  23714946.49044  23714950.85944
      3658.608        2850.869  
 08 11  5  0 41 30.0000000  0  8G16G 6G31G 3G23G13G21G19            
 108723840.532    84719874.9074   20689455.369 8  20689454.87946  20689457.93846
      -715.553        -557.574  
 108811208.057    84787956.2694   20706081.321 8  20706080.80246  20706085.31846
      1459.659        1137.395  
 115541741.458    90032526.5964   21986859.537 7  21986859.69844  21986863.01744
     -2128.804       -1658.807  
 110492557.467    86098105.3214   21026032.908 8  21026032.36246  21026037.38646
      2537.428        1977.212  
 113758089.671    88642672.4734   21647442.687 7  21647442.61345  21647443.73245
       476.237         371.095  
 120891586.452    94201244.5784   23004902.227 7  23004902.31844  23004905.63644
      2134.902        1663.555  
 126296297.601    98412700.1054   24033384.177 6  24033383.91543  24033387.36343
       909.809         708.940  
 124513452.202    97023473.9834   23694118.744 7  23694118.10944  23694121.97544
      3639.509        2835.979  
 08 11  5  0 42  0.0000000  0  8G16G 6G31G 3G23G13G21G19            
 108745549.935    84736791.3214   20693586.992 8  20693586.33546  20693589.57146
      -731.411        -569.932  
 108767790.977    84754124.7694   20697819.142 8  20697818.77046  20697823.16446
      1435.095        1118.255  
 115605897.909    90082518.6104   21999068.369 7  21999068.27044  21999071.72544
     -2147.971       -1673.742  
 110416782.172    86039059.6394   21011613.403 8  21011612.81046  21011617.72546
      2514.573        1959.404  
 113744244.284    88631883.8484   21644808.127 7  21644807.78245  21644809.15545
       447.103         348.390  
 120827920.685    94151634.8854   22992787.121 7  22992786.64544  22992790.23344
      2109.777        1643.983  
 126269334.351    98391689.7844   24028253.060 6  24028252.10543  24028257.17843
       888.054         691.990  
 124404481.520    96938561.7814   23673382.898 7  23673381.82844  23673384.83944
      3625.499        2825.066  
 08 11  5  0 42 30.0000000  0  8G16G 6G31G 3G23G13G21G19            
 108767718.145    84754065.2474   20697805.238 8  20697804.68346  20697807.95446
      -746.187        -581.442  
 108725093.821    84720854.2554   20689694.227 8  20689693.88646  20689699.09246
      1411.642        1099.983  
 115670612.145    90132945.2474   22011382.389 7  22011382.67044  22011386.50044
     -2166.046       -1687.817  
 110341677.381    85980536.4344   20997321.336 8  20997320.96446  20997325.72746
      2492.694        1942.361  
 113731256.672    88621763.6144   21642336.423 7  21642336.40345  21642337.87445
       419.016         326.512  
 120764994.081    94102601.1644   22980812.426 7  22980812.51944  22980815.63444
      2085.607        1625.150  
 126243008.960    98371176.4984   24023243.465 6  24023242.77943  24023247.99343
       867.261         675.788  
 124295915.934    96853965.2274   23652723.375 7  23652722.42844  23652725.76244
      3612.482        2814.919  
 08 11  5  0 43  0.0000000  0  9G16G 6G31G 3G23G13G21G19G25         
 108790304.174    84771664.7454   20702103.020 8  20702102.31446  20702105.78346
      -758.657        -591.159  
 108683076.908    84688113.8104   20681698.795 8  20681698.30846  20681703.21246
      1390.372        1083.405  
 115735843.662    90183774.9814   22023796.069 7  22023796.00644  22023799.94144
     -2181.835       -1700.132  
 110267204.469    85922505.5964   20983149.586 8  20983149.19246  20983154.20446
      2473.031        1927.044  
 113719087.058    88612280.7814   21640020.639 7  21640020.65545  21640022.43245
       393.190         306.384  
 120702768.215    94054113.4714   22968971.047 7  22968970.72844  22968974.39444
      2063.670        1608.053  
 126217282.568    98351129.9714   24018347.773 6  24018347.00843  24018350.83043
       848.676         661.319  
 124187717.308    96769654.6244   23632134.042 7  23632133.32844  23632135.95144
      3601.638        2806.466  
 128775529.492   100344568.5224   24505165.802 6  24505164.67342  24505170.61742
      3049.738        2376.432  
 08 11  5  0 43 30.0000000  0  9G16G 6G31G 3G23G13G21G19G25         
 108813208.383    84789512.1764   20706461.645 8  20706460.90846  20706464.30446
      -768.165        -598.567  
 108641642.260    84655827.0744   20673813.913 8  20673813.62246  20673818.40146
      1372.048        1069.126  
 115801493.279    90234930.5094   22036288.686 7  22036288.37344  22036292.34244
     -2194.667       -1710.139  
 110193266.763    85864891.8114   20969079.815 8  20969079.36446  20969084.33446
      2456.255        1913.961  
 113707636.912    88603358.5804   21637841.468 7  21637841.62345  21637843.54545
       370.273         288.529  
 120641146.586    94006096.6284   22957244.502 6  22957244.42944  22957248.34244
      2044.557        1593.160  
 126192058.502    98331474.8474   24013548.495 6  24013548.34843  24013551.53743
       833.023         649.119  
 124079789.631    96685555.1284   23611595.963 7  23611594.82944  23611597.90244
      3593.644        2800.247  
 128684080.160   100273309.3194   24487764.363 6  24487763.66843  24487769.13443
      3046.970        2374.258  
 08 11  5  0 44  0.0000000  0  9G16G 6G31G 3G23G13G21G19G25         
 108836396.605    84807580.9224   20710874.311 8  20710873.89646  20710877.08746
      -776.616        -605.151  
 108600757.288    84623968.6524   20666033.965 8  20666033.73846  20666038.15546
      1354.722        1055.629  
 115867527.258    90286385.5374   22048854.290 6  22048854.18244  22048858.49244
     -2206.488       -1719.342  
 110119832.307    85807670.1644   20955105.713 8  20955105.00546  20955110.39446
      2440.464        1901.661  
 113696873.447    88594971.4484   21635793.352 7  21635792.91945  21635794.74745
       348.383         271.469  
 120580098.430    93958526.6414   22945627.515 7  22945627.26844  22945631.31844
      2026.404        1579.011  
 126167304.577    98312186.0704   24008838.061 6  24008837.03843  24008841.09843
       818.344         637.683  
 123972101.741    96601642.4964   23591104.069 7  23591102.82544  23591106.31944
      3586.615        2794.766  
 128592714.357   100202115.2084   24470377.543 6  24470378.36243  24470381.65643
      3045.178        2372.862  
 08 11  5  0 44 30.0000000  0  9G16G 6G31G 3G23G13G21G19G25         
 108859789.752    84825809.3504   20715325.735 7  20715325.11646  20715328.58146
      -782.816        -609.984  
 108560344.162    84592477.9034   20658343.799 8  20658343.40746  20658347.73246
      1339.590        1043.837  
 115933866.558    90338078.4814   22061478.378 6  22061478.38444  22061482.17144
     -2216.037       -1726.778  
 110046824.519    85750780.9904   20941213.040 8  20941212.36746  20941217.26246
      2426.824        1891.039  
 113686718.428    88587058.4384   21633860.926 7  21633860.22745  21633862.82445
       328.724         256.155  
 120519547.520    93911344.1254   22934105.592 7  22934105.68444  22934109.17544
      2010.423        1566.570  
 126142944.022    98293203.8344   24004202.144 6  24004201.31643  24004204.69343
       805.794         627.904  
 123864577.332    96517857.2454   23570642.430 7  23570641.01044  23570643.00444
      3581.766        2790.997  
 128501355.142   100130926.2394   24452992.464 6  24452991.30343  24452997.88443
      3045.552        2373.148  
 08 11  5  0 45  0.0000000  0  9G16G 6G31G 3G23G13G21G19G25         
 108883393.017    84844201.5004   20719816.915 8  20719816.61646  20719820.07446
      -790.372        -615.873  
 108520409.389    84561359.9024   20650744.237 8  20650743.74946  20650748.17846
      1323.087        1030.973  
 116000516.654    90390013.5994   22074161.398 7  22074161.29744  22074165.56644
     -2226.953       -1735.298  
 109974250.751    85694230.0054   20927402.848 8  20927402.21046  20927406.96046
      2411.753        1879.292  
 113677177.817    88579624.1794   21632045.328 7  21632045.02145  21632047.37745
       307.682         239.754  
 120459501.019    93864554.6344   22922679.070 7  22922678.60444  22922682.25044
      1993.030        1553.005  
 126118984.371    98274533.9794   23999642.215 6  23999642.22643  23999645.71543
       791.837         617.009  
 123757224.670    96434205.8144   23550213.984 6  23550212.64744  23550215.45944
      3575.403        2786.032  
 128410010.033   100059748.2474   24435610.997 7  24435611.36243  24435615.78043
      3044.482        2372.323  
 08 11  5  0 45 30.0000000  0  9G16G 6G31G 3G23G13G21G19G25         
 108907200.125    84862752.4844   20724347.376 8  20724346.85246  20724350.34246
      -796.801        -620.878  
 108480948.401    84530611.0744   20643235.123 8  20643234.75146  20643239.10746
      1307.624        1018.928  
 116067472.234    90442186.7474   22086902.436 7  22086902.83544  22086906.17644
     -2236.761       -1742.929  
 109902107.656    85638014.6124   20913674.424 8  20913673.77846  20913678.33746
      2397.743        1868.372  
 113668246.852    88572664.9744   21630346.016 7  21630345.68245  21630347.56045
       287.698         224.184  
 120399956.399    93818156.2204   22911347.744 7  22911347.60844  22911351.59444
      1976.604        1540.213  
 126095422.200    98256173.8374   23995159.349 6  23995158.60343  23995162.40843
       778.925         606.950  
 123650041.067    96350686.1364   23529817.125 6  23529815.93944  23529819.19944
      3570.108        2781.904  
 128318675.407    99988578.4184   24418230.995 7  24418231.00143  24418233.27343
      3044.472        2372.318  
 08 11  5  0 46  0.0000000  0  9G16G 6G31G 3G23G13G21G19G25         
 108931166.458    84881427.5514   20728907.794 8  20728907.46746  20728910.85046
      -801.609        -624.635  
 108441917.647    84500197.5054   20635807.608 8  20635807.44346  20635811.77546
      1293.753        1008.120  
 116134688.338    90494562.9174   22099693.659 7  22099693.59544  22099697.11044
     -2244.982       -1749.340  
 109830352.288    85582101.3394   20900019.756 8  20900019.18246  20900023.74546
      2385.274        1858.652  
 113659881.686    88566146.6534   21628754.226 7  21628753.66845  21628755.54745
       269.320         209.864  
 120340872.203    93772116.5894   22900104.578 7  22900104.72444  22900107.62744
      1961.670        1528.571  
 126072215.028    98238090.3274   23990742.679 6  23990742.16543  23990745.50743
       767.550         598.088  
 123542984.559    96267265.4764   23509444.636 6  23509443.52444  23509447.25744
      3566.308        2778.942  
 128227308.762    99917383.6364   24400844.946 7  24400844.58943  24400847.37743
      3045.976        2373.493  
 08 11  5  0 46 30.0000000  0  9G16G 6G31G 3G23G13G21G19G25         
 108955276.851    84900214.8654   20733496.046 8  20733495.45146  20733499.00446
      -806.180        -628.185  
 108403303.604    84470108.6364   20628459.862 8  20628459.32546  20628463.23846
      1280.112         997.488  
 116202150.491    90547130.8154   22112531.098 7  22112531.60344  22112534.79344
     -2252.933       -1755.541  
 109758972.130    85526480.4404   20886436.749 8  20886436.23246  20886440.35346
      2372.966        1849.064  
 113652068.165    88560058.1894   21627267.556 7  21627267.35045  21627268.67545
       251.158         195.704  
 120282235.864    93726425.9164   22888945.639 6  22888945.96444  22888949.98544
      1946.967        1517.107  
 126049349.707    98220273.2024   23986391.805 7  23986391.53843  23986395.00743
       756.334         589.341  
 123436043.254    96183934.6154   23489095.138 7  23489093.92344  23489096.46044
      3562.678        2776.100  
 128135897.535    99846154.1464   24383449.140 6  24383448.68743  24383452.87943
      3047.659        2374.778  
 08 11  5  0 47  0.0000000  0  9G16G 6G31G 3G23G13G21G19G25         
 108979506.076    84919094.7744   20738106.796 8  20738106.28846  20738109.53246
      -810.021        -631.183  
 108365082.396    84440325.8734   20621186.855 8  20621186.61346  20621190.62446
      1267.061         987.322  
 116269833.746    90599870.9914   22125411.012 6  22125411.29144  22125414.58044
     -2260.219       -1761.212  
 109687944.381    85471134.1454   20872920.317 8  20872919.96546  20872924.14746
      2361.282        1839.963  
 113644781.940    88554380.6004   21625880.996 7  21625880.62245  21625882.36345
       233.673         182.084  
 120224025.110    93681066.8834   22877868.780 6  22877868.99944  22877872.68444
      1932.840        1506.107  
 126026803.923    98202705.0624   23982101.295 6  23982101.07143  23982104.83743
       745.782         581.136  
 123329194.855    96100676.1334   23468762.614 7  23468761.39844  23468764.02844
      3559.631        2773.731  
 128044418.813    99774872.0514   24366041.738 6  24366042.12343  24366043.87043
      3049.994        2376.616  
 08 11  5  0 47 30.0000000  0  9G16G 6G31G 3G23G13G21G19G25         
 109003867.020    84938077.3224   20742742.712 8  20742742.19246  20742745.26346
      -814.546        -634.704  
 108327268.170    84410860.2514   20613990.559 8  20613990.10746  20613994.86346
      1253.361         976.648  
 116337751.397    90652793.8004   22138334.616 6  22138334.98344  22138338.70944
     -2268.159       -1767.398  
 109617284.381    85416074.4064   20859474.268 8  20859473.86846  20859478.18446
      2348.859        1830.279  
 113638036.846    88549124.6744   21624597.362 7  21624596.97145  21624598.70245
       215.498         167.920  
 120166255.894    93636051.9014   22866875.211 7  22866875.35444  22866879.36143
      1917.929        1494.488  
 126004592.742    98185397.6454   23977875.410 6  23977874.98543  23977877.61643
       734.456         572.291  
 123222455.424    96017502.5724   23448450.279 7  23448449.32444  23448452.23144
      3555.812        2770.761  
 127952887.837    99703549.2294   24348623.310 7  24348623.16143  24348627.19843
      3051.560        2377.835  
 08 11  5  0 48  0.0000000  0  9G16G 6G31G 3G23G13G21G19G25         
 109028356.836    84957160.2874   20747402.878 8  20747402.13746  20747405.65846
      -817.711        -637.176  
 108289859.529    84381710.6594   20606871.840 8  20606871.64646  20606876.14846
      1240.945         966.970  
 116405900.586    90705897.0454   22151302.569 6  22151302.83044  22151307.10543
     -2274.739       -1772.529  
 109546991.642    85361300.8534   20846097.905 8  20846097.35246  20846102.14746
      2337.692        1821.577  
 113631830.953    88544288.9044   21623416.887 8  21623416.33345  21623417.39345
       198.634         154.778  
 120108927.972    93591380.7974   22855966.709 7  22855967.13144  22855970.78644
      1904.299        1483.861  
 125982715.491    98168350.4014   23973712.339 6  23973710.71043  23973714.23543
       724.402         564.485  
 123115825.423    95934414.2884   23428159.777 6  23428158.72244  23428161.70444
      3553.222        2768.740  
 127861304.297    99632185.4784   24331196.053 7  24331195.19243  24331199.02643
      3054.389        2380.040  
 08 11  5  0 48 30.0000000  0  9G16G 6G31G 3G23G13G21G19G25         
 109052953.735    84976326.7024   20752083.164 8  20752082.86646  20752086.36346
      -821.932        -640.468  
 108252835.873    84352861.0664   20599826.356 8  20599826.07546  20599830.96646
      1227.444         956.454  
 116474260.039    90759164.1124   22164311.068 6  22164310.86543  22164315.51643
     -2282.399       -1778.495  
 109477046.581    85306798.2164   20832787.705 8  20832786.94346  20832792.03746
      2325.440        1812.027  
 113626143.317    88539856.9704   21622334.500 8  21622333.97145  21622335.14045
       180.704         140.804  
 120052021.651    93547038.2024   22845137.899 6  22845137.69443  22845141.05744
      1889.559        1472.397  
 125961152.715    98151548.2354   23969608.667 6  23969608.09543  23969612.06143
       713.244         555.767  
 123009285.875    95851396.5094   23407886.258 7  23407884.73544  23407887.36244
      3549.524        2765.862  
 127769648.648    99560765.5254   24313754.299 7  24313754.63943  24313759.09743
      3056.117        2381.393  
 08 11  5  0 49  0.0000000  0  9G16G 6G31G 3G23G13G21G19G25         
 109077669.329    84995585.6074   20756786.879 8  20756786.18446  20756789.37646
      -826.395        -643.943  
 108216209.860    84324321.3164   20592857.021 8  20592856.66346  20592861.61446
      1213.659         945.707  
 116542841.396    90812604.0984   22177361.376 6  22177362.76943  22177365.88143
     -2290.321       -1784.658  
 109407462.854    85252577.1324   20819546.496 8  20819545.83946  20819550.78846
      2312.856        1802.227  
 113620986.122    88535838.3604   21621353.064 8  21621352.59845  21621353.62445
       162.515         126.636  
 119995552.022    93503035.8934   22834392.332 6  22834391.82244  22834395.61944
      1874.451        1460.616  
 125939917.941    98135001.6354   23965567.495 7  23965567.39443  23965570.18043
       701.780         546.844  
 122902851.092    95768460.3494   23387631.889 7  23387630.48544  23387633.57544
      3545.479        2762.702  
 127677934.869    99489300.2724   24296302.442 7  24296301.78443  24296305.03444
      3057.497        2382.463  
 08 11  5  0 49 30.0000000  0  9G16G 6G31G 3G23G13G21G19G25         
 109102516.883    85014947.3314   20761514.876 8  20761514.27846  20761517.65346
      -829.928        -646.697  
 108179995.983    84296102.7244   20585966.072 8  20585965.74046  20585970.06346
      1200.771         935.667  
 116611658.086    90866227.4634   22190457.388 6  22190457.70143  22190461.50043
     -2297.272       -1790.075  
 109338255.941    85198649.6794   20806376.670 8  20806376.05346  20806381.51146
      2301.117        1793.077  
 113616373.196    88532243.8654   21620474.893 8  21620474.71945  21620475.89145
       145.193         113.137  
 119939535.355    93459386.5314   22823732.347 7  22823732.87343  22823735.81743
      1860.157        1449.475  
 125919026.393    98118722.5054   23961592.190 7  23961591.48843  23961595.20343
       691.153         538.548  
 122796537.563    95685618.6784   23367401.605 7  23367400.57944  23367403.21144
      3542.236        2760.192  
 127586178.550    99417801.8464   24278841.211 7  24278840.79343  24278844.00743
      3059.744        2384.214  
 08 11  5  0 50  0.0000000  0  9G16G 6G31G 3G23G13G21G19G25         
 109127472.952    85034393.6214   20766264.122 8  20766263.48746  20766266.93446
      -833.651        -649.603  
 108144172.204    84268188.1004   20579148.828 8  20579148.30246  20579153.08146
      1187.628         925.425  
 116680686.793    90920016.0474   22203593.065 6  22203593.24843  22203597.38043
     -2304.460       -1795.679  
 109269404.743    85144999.4114   20793274.696 8  20793274.16046  20793279.23046
      2289.134        1783.738  
 113612282.269    88529056.1214   21619696.820 8  21619696.34545  21619697.37145
       127.703          99.508  
 119883950.452    93416073.6384   22813155.139 7  22813155.06543  22813157.68543
      1845.626        1438.154  
 125898457.722    98102694.9684   23957677.986 7  23957677.59643  23957680.20743
       680.227         530.052  
 122690324.956    95602855.6524   23347189.848 7  23347188.77244  23347191.47244
      3538.736        2757.453  
 127494358.872    99346254.0714   24261368.004 6  24261367.63243  24261371.34643
      3061.722        2385.740  
 08 11  5  0 50 30.0000000  0  9G16G 6G31G 3G23G13G21G19G25         
 109152539.037    85053925.6304   20771034.292 7  20771033.61146  20771036.49746
      -837.363        -652.484  
 108108741.071    84240579.4414   20572406.429 8  20572405.93946  20572411.03246
      1174.473         915.168  
 116749929.284    90973971.2004   22216770.377 6  22216770.21644  22216773.92344
     -2311.642       -1801.273  
 109200912.999    85091629.2364   20780241.283 8  20780240.85546  20780245.51446
      2277.050        1774.320  
 113608715.259    88526276.6234   21619017.716 7  21619017.26545  21619018.71145
       110.173          85.847  
 119828801.374    93373100.3424   22802660.607 7  22802660.64443  22802663.24043
      1831.022        1426.767  
 125878215.380    98086921.7134   23953826.541 7  23953826.06843  23953829.10443
       669.314         521.558  
 122584217.694    95520174.7184   23326997.962 7  23326997.16444  23327000.38044
      3535.134        2754.639  
 127402479.592    99274659.8614   24243884.806 7  24243885.28743  24243887.05943
      3063.635        2387.237  
 08 11  5  0 51  0.0000000  0  9G16G 6G31G 3G23G13G21G19G25         
 109177716.677    85073544.5734   20775825.385 8  20775824.82446  20775827.55446
      -840.491        -654.925  
 108073705.581    84213279.0584   20565739.202 7  20565738.65446  20565743.31646
      1161.839         905.336  
 116819387.704    91028094.6194   22229987.477 6  22229987.62944  22229990.47944
     -2318.269       -1806.428  
 109132784.740    85038542.2784   20767276.872 8  20767276.27146  20767281.05746
      2265.469        1765.299  
 113605674.652    88523907.2994   21618439.420 7  21618438.89145  21618440.30845
        93.181          72.616  
 119774093.298    93330470.6674   22792249.736 6  22792249.70543  22792253.19443
      1816.851        1415.732  
 125858302.988    98071405.5664   23950036.789 7  23950036.59543  23950039.36143
       658.831         513.371  
 122478220.495    95437579.5584   23306827.663 7  23306826.98345  23306829.63345
      3531.981        2752.191  
 127310545.090    99203022.5824   24226389.742 7  24226389.43543  24226391.69143
      3065.989        2389.082  
 08 11  5  0 51 30.0000000  0  9G16G 6G31G 3G23G13G21G19G25         
 109202997.193    85093243.6794   20780636.187 8  20780635.61646  20780638.22846
      -845.458        -658.799  
 108039058.048    84186280.9914   20559145.959 8  20559145.52946  20559150.53146
      1147.400         894.078  
 116889053.120    91082379.3494   22243244.501 6  22243245.00644  22243247.71543
     -2326.692       -1813.003  
 109065013.267    84985733.3454   20754380.682 8  20754380.12546  20754384.39046
      2252.032        1754.832  
 113603152.343    88521941.8594   21617959.204 7  21617958.58845  21617960.41345
        74.377          57.955  
 119719819.589    93288179.4844   22781921.421 7  22781921.27943  22781925.22143
      1800.784        1403.217  
 125838713.819    98056141.2894   23946309.296 6  23946308.14443  23946311.94843
       646.493         503.765  
 122372327.573    95355065.6354   23286676.714 7  23286675.90345  23286678.61845
      3526.936        2748.258  
 127218548.632    99131337.0594   24208882.743 6  24208882.23943  24208884.70143
      3066.496        2389.477  
 08 11  5  0 52  0.0000000  0  9G16G 6G31G 3G23G13G21G19G25         
 109228398.094    85113036.5844   20785469.572 8  20785468.94446  20785472.11246
      -848.928        -661.503  
 108004817.223    84159599.8454   20552630.469 8  20552630.12346  20552634.62746
      1134.370         883.923  
 116958943.341    91136839.2364   22256544.513 6  22256544.73544  22256547.94344
     -2333.629       -1818.413  
 108997618.214    84933217.7214   20741555.506 8  20741554.88246  20741559.59446
      2239.974        1745.430  
 113601166.641    88520394.5364   21617581.508 8  21617580.97845  21617582.77545
        57.011          44.424  
 119666000.430    93246242.4864   22771679.843 6  22771680.10043  22771682.86943
      1786.162        1391.818  
 125819467.816    98041144.4274   23942646.721 7  23942647.21743  23942649.21143
       635.563         495.236  
 122266559.637    95272649.1064   23266549.412 7  23266548.60244  23266551.44644
      3523.259        2745.387  
 127126510.555    99059619.1014   24191369.332 7  24191369.72743  24191372.08543
      3068.379        2390.935  
 08 11  5  0 52 30.0000000  0  9G16G 6G31G 3G23G13G21G19G25         
 109253923.432    85132926.4604   20790326.575 7  20790325.81246  20790329.54446
      -853.907        -665.380  
 107970987.944    84133239.3794   20546192.909 8  20546192.65146  20546196.53946
      1119.814         872.584  
 117029062.434    91191477.4704   22269887.972 6  22269887.69244  22269891.11244
     -2342.125       -1825.021  
 108930605.540    84881000.0604   20728803.640 8  20728803.23446  20728807.53246
      2226.368        1734.834  
 113599721.620    88519268.5324   21617306.372 7  21617305.92145  21617307.70945
        38.170          29.744  
 119612641.961    93204664.4634   22761526.641 7  22761526.50643  22761529.60643
      1769.914        1379.147  
 125800570.821    98026419.4924   23939050.682 6  23939049.84243  23939052.41143
       623.096         485.516  
 122160923.509    95190335.2804   23246447.796 7  23246447.04545  23246449.74845
      3518.000        2741.304  
 127034436.990    98987873.5014   24173847.589 6  24173847.69843  24173850.97343
      3068.693        2391.175  
 08 11  5  0 53  0.0000000  0  9G16G 6G31G 3G23G13G21G19G25         
 109279595.429    85152930.6024   20795211.968 8  20795211.38746  20795214.95546
      -858.204        -668.731  
 107937593.576    84107217.7974   20539838.131 8  20539838.03946  20539842.16046
      1105.851         861.705  
 117099432.737    91246311.4564   22283279.293 6  22283278.54244  22283282.65044
     -2349.891       -1831.089  
 108863999.884    84829099.5524   20716129.065 8  20716128.61246  20716132.72346
      2213.339        1724.686  
 113598840.088    88518581.6084   21617138.385 7  21617137.72145  21617140.11845
        19.928          15.525  
 119559769.966    93163465.5104   22751465.241 7  22751464.97043  22751468.18143
      1754.231        1366.938  
 125782047.196    98011985.5134   23935526.198 6  23935524.89543  23935528.70643
       611.163         476.229  
 122055444.111    95108143.5924   23226375.260 6  23226374.12444  23226377.46844
      3513.290        2737.623  
 126942352.644    98916119.5064   24156323.571 6  24156323.05243  24156328.96243
      3069.588        2391.883  
 08 11  5  0 53 30.0000000  0  9G16G 6G31G 3G23G13G21G19G25         
 109305417.812    85173051.9344   20800125.807 8  20800125.42646  20800128.53446
      -863.270        -672.679  
 107904639.004    84081538.9204   20533566.883 8  20533566.45446  20533571.10446
      1091.126         850.222  
 117170057.908    91301344.0344   22296717.690 6  22296717.85244  22296721.80644
     -2358.440       -1837.743  
 108797807.059    84777520.7374   20703533.021 8  20703532.26546  20703536.74646
      2199.508        1713.902  
 113598526.731    88518337.4164   21617078.889 7  21617078.25345  21617080.22045
         0.954           0.739  
 119507390.321    93122650.2134   22741497.584 7  22741497.50543  22741500.63844
      1737.737        1354.061  
 125763902.735    97997847.0004   23932073.264 6  23932072.24243  23932075.47343
       598.451         466.319  
 121950128.458    95026079.4924   23206334.398 6  23206332.85644  23206336.68744
      3507.741        2733.304  
 126850263.750    98844361.9654   24138800.561 7  24138800.13343  24138803.96643
      3069.661        2391.948  
 08 11  5  0 54  0.0000000  0  9G16G 6G31G 3G23G13G21G19G25         
 109331381.080    85193283.0444   20805066.628 8  20805066.05346  20805069.35846
      -867.070        -675.639  
 107872115.660    84056196.0554   20527377.943 8  20527377.38746  20527382.03846
      1077.607         839.700  
 117240929.103    91356568.3124   22310204.910 6  22310204.18444  22310208.39844
     -2365.752       -1843.437  
 108732019.379    84726257.6084   20691014.088 8  20691013.42846  20691017.75346
      2186.871        1704.058  
 113598772.504    88518528.9024   21617125.614 7  21617124.97545  21617127.21145
       -16.786         -13.074  
 119455495.463    93082212.6594   22731622.325 7  22731622.59144  22731625.86044
      1722.436        1342.164  
 125746130.012    97983998.1704   23928690.985 6  23928690.10743  23928693.64743
       586.920         457.332  
 121844969.693    94944137.6374   23186323.320 7  23186322.55344  23186325.47444
      3503.365        2729.901  
 126758163.255    98772595.3254   24121274.764 7  24121274.69343  24121276.86443
      3070.880        2392.921  
 08 11  5  0 54 30.0000000  0  9G16G 6G31G 3G23G13G21G19G25         
 109357480.030    85213619.8894   20810033.189 8  20810032.78246  20810035.97446
      -873.497        -680.656  
 107840019.263    84031185.8854   20521270.004 8  20521269.75046  20521274.29546
      1061.479         827.127  
 117312040.503    91411979.7764   22323736.596 6  22323736.62544  22323740.74144
     -2375.653       -1851.158  
 108666633.575    84675307.6364   20678571.410 8  20678570.92546  20678575.44546
      2171.535        1692.106  
 113599571.808    88519151.7274   21617278.113 7  21617277.61745  21617279.23745
       -37.144         -28.946  
 119404083.116    93042151.0954   22721838.789 7  22721838.89544  22721842.40244
      1704.387        1328.101  
 125728725.648    97970436.3264   23925378.682 7  23925378.66543  23925381.17043
       572.697         446.260  
 121739965.494    94862316.2134   23166341.878 7  23166340.84344  23166343.97944
      3496.261        2724.360  
 126666048.182    98700817.3944   24103744.805 6  24103744.55943  24103748.98943
      3069.450        2391.781  
 08 11  5  0 55  0.0000000  0  9G16G 6G31G 3G23G13G21G19G25         
 109383723.400    85234069.2594   20815027.087 8  20815026.60846  20815029.74046
      -877.163        -683.508  
 107808359.800    84006516.1874   20515245.416 8  20515245.01846  20515249.90246
      1048.042         816.657  
 117383401.281    91467585.5434   22337315.951 6  22337316.22744  22337320.09844
     -2382.830       -1856.748  
 108601660.787    84624679.4934   20666207.510 8  20666206.90146  20666211.65546
      2158.875        1682.239  
 113600934.429    88520213.4934   21617537.243 7  21617536.55645  21617538.54945
       -54.793         -42.696  
 119353165.451    93002474.9864   22712150.204 7  22712150.09344  22712153.22544
      1688.997        1316.099  
 125711700.502    97957169.9864   23922139.197 6  23922138.80343  23922141.90243
       561.183         437.281  
 121635127.876    94780624.5994   23146391.889 7  23146390.90345  23146394.21645
      3491.779        2720.863  
 126573930.092    98629037.0874   24086215.333 6  24086215.68643  24086219.77043
      3070.640        2392.713  
 08 11  5  0 55 30.0000000  0  9G16G 6G31G 3G23G13G21G19G25         
 109410100.559    85254622.8834   20820046.414 8  20820046.28146  20820049.48646
      -881.519        -686.893  
 107777127.550    83982179.3784   20509302.210 8  20509302.15346  20509306.54946
      1033.896         805.630  
 117455000.829    91523377.3874   22350940.948 7  22350941.27644  22350945.18944
     -2390.674       -1862.863  
 108537092.435    84574366.4974   20653920.609 8  20653920.07746  20653924.35946
      2145.456        1671.786  
 113602850.198    88521706.2944   21617901.825 8  21617901.85545  21617902.55345
       -73.128         -56.985  
 119302733.675    92963177.4994   22702552.523 7  22702552.12444  22702556.50744
      1672.873        1303.545  
 125695046.072    97944192.5284   23918969.386 6  23918968.90543  23918972.52043
       548.904         427.717  
 121530449.312    94699056.9214   23126472.179 7  23126471.19645  23126474.34145
      3486.551        2716.797  
 126481800.770    98557248.0294   24068684.804 7  24068685.05943  24068687.81143
      3071.083        2393.046  
 08 11  5  0 56  0.0000000  0  9G16G 6G31G 3G23G13G21G19G25         
 109436627.623    85275293.3114   20825094.380 8  20825093.85546  20825097.33046
      -886.809        -691.018  
 107746339.487    83958188.6854   20503443.223 8  20503442.75946  20503447.70546
      1018.790         793.859  
 117526855.185    91579367.7774   22364614.487 7  22364614.86844  22364619.09544
     -2399.471       -1869.721  
 108472946.764    84524382.8574   20641714.140 8  20641713.67146  20641717.90946
      2131.068        1660.573  
 113605335.427    88523642.8254   21618374.873 8  21618374.48645  21618375.56245
       -92.401         -72.003  
 119252805.611    92924272.5224   22693051.762 7  22693051.56644  22693055.16044
      1655.778        1290.207  
 125678780.186    97931517.8494   23915875.125 6  23915873.65543  23915877.11243
       535.642         417.375  
 121425948.284    94617627.5814   23106586.590 7  23106585.21445  23106588.57645
      3480.310        2711.929  
 126389678.613    98485464.5454   24051153.672 6  24051153.49643  24051156.52543
      3070.531        2392.607  
 08 11  5  0 56 30.0000000  0  9G16G 6G31G 3G23G13G21G19G25         
 109463310.178    85296084.9034   20830172.077 8  20830171.40546  20830175.05046
      -892.291        -695.289  
 107716001.787    83934548.9254   20497669.875 7  20497669.74946  20497674.83946
      1003.483         781.935  
 117598969.944    91635561.0584   22378337.498 7  22378337.48544  22378341.61244
     -2408.430       -1876.697  
 108409230.808    84474734.0654   20629589.569 8  20629589.24946  20629593.26946
      2116.432        1649.169  
 113608395.704    88526027.4474   21618956.983 8  21618956.83645  21618958.04945
      -111.876         -87.176  
 119203390.053    92885766.8894   22683648.835 7  22683648.84844  22683651.78044
      1638.337        1276.626  
 125662910.172    97919151.6174   23912854.580 6  23912853.73543  23912857.48543
       522.097         406.840  
 121321633.434    94536343.3134   23086735.918 7  23086734.63645  23086737.90045
      3473.740        2706.810  
 126297571.695    98413692.9284   24033626.751 7  24033627.41143  24033630.27443
      3069.687        2391.952  
 08 11  5  0 57  0.0000000  0  9G16G 6G31G 3G23G13G21G19G25         
 109490168.877    85317013.7604   20835283.207 8  20835282.37346  20835285.95146
      -898.565        -700.185  
 107686136.599    83911277.3574   20491987.199 8  20491986.49546  20491991.85646
       987.288         769.314  
 117671365.759    91691973.3574   22392114.331 7  22392114.47844  22392118.01744
     -2418.226       -1884.333  
 108345967.032    84425437.6274   20617550.700 8  20617550.17446  20617554.58146
      2100.875        1637.048  
 113612052.155    88528876.6194   21619653.081 8  21619652.48845  21619653.48845
      -132.161        -102.982  
 119154509.948    92847678.4954   22674347.082 7  22674346.89444  22674350.48544
      1620.057        1262.382  
 125647458.880    97907111.6634   23909914.477 6  23909913.41643  23909917.61443
       507.708         395.608  
 121217528.437    94455222.5604   23066924.940 7  23066923.95445  23066927.51845
      3466.287        2701.006  
 126205503.142    98341951.2644   24016106.438 7  24016106.68443  24016110.34043
      3067.946        2390.608  
 08 11  5  0 57 30.0000000  0  9G16G 6G31G 3G23G13G21G19G25         
 109517214.637    85338088.3784   20840429.612 8  20840429.15146  20840432.44046
      -904.239        -704.603  
 107656755.151    83888382.7424   20486396.044 7  20486396.12846  20486400.51746
       971.689         757.154  
 117744053.766    91748613.3444   22405946.634 7  22405946.75744  22405950.07944
     -2427.403       -1891.483  
 108283168.992    84376504.0984   20605600.447 8  20605599.82046  20605604.45146
      2085.893        1625.372  
 113616316.023    88532199.1104   21620464.696 7  21620464.43445  21620464.84745
      -151.852        -118.331  
 119106178.513    92810017.6264   22665149.969 7  22665150.16844  22665153.12644
      1602.278        1248.525  
 125632439.102    97895407.9664   23907055.749 6  23907055.94243  23907058.86543
       493.847         384.816  
 121113647.179    94374276.1574   23047157.101 7  23047156.12845  23047159.57544
      3459.346        2695.591  
 126113486.431    98270249.9434   23998596.319 6  23998595.64743  23998599.34643
      3066.728        2389.655  
 08 11  5  0 58  0.0000000  0  9G16G 6G31G 3G23G13G21G19G25         
 109544427.152    85359292.9324   20845608.329 8  20845607.79046  20845610.80446
      -910.484        -709.469  
 107627838.262    83865850.1014   20480893.549 8  20480893.77746  20480897.54346
       955.534         744.572  
 117817013.331    91805464.9384   22419830.563 7  22419830.19944  22419833.70844
     -2437.144       -1899.070  
 108220817.899    84327918.8304   20593735.620 8  20593734.77246  20593739.33346
      2070.272        1613.206  
 113621167.142    88535979.1984   21621388.054 8  21621387.23245  21621388.38445
      -172.119        -134.118  
 119058377.688    92772770.2124   22656053.898 7  22656053.74444  22656057.04944
      1583.845        1234.170  
 125617832.411    97884026.1374   23904276.380 6  23904275.70943  23904279.86043
       479.351         373.521  
 121009972.149    94293490.4474   23027428.618 7  23027427.28245  23027430.90645
      3451.738        2689.671  
 126021503.541    98198574.9724   23981092.055 6  23981091.48743  23981095.77143
      3064.860        2388.212  
 08 11  5  0 58 30.0000000  0  9G16G 6G31G 3G23G13G21G19G25         
 109571841.474    85380654.7444   20850824.768 8  20850824.46646  20850827.73846
      -916.214        -713.938  
 107599421.462    83843707.1514   20475486.066 8  20475485.94046  20475490.40846
       939.843         732.345  
 117890279.082    91862555.1084   22433772.235 6  22433772.58144  22433775.88744
     -2446.349       -1906.241  
 108158950.087    84279710.1564   20581962.286 8  20581961.72146  20581966.43046
      2055.123        1601.396  
 113626640.815    88540244.3994   21622429.422 8  21622429.06945  21622429.82045
      -191.870        -149.510  
 119011144.693    92735965.2894   22647065.799 7  22647065.73644  22647068.91844
      1565.882        1220.173  
 125603674.762    97872994.2184   23901582.722 6  23901581.29943  23901585.37043
       465.345         362.608  
 120906540.750    94212894.5754   23007746.528 7  23007745.22245  23007748.54145
      3444.556        2684.076  
 125929591.829    98126955.4794   23963602.802 7  23963603.55743  23963606.54943
      3063.469        2387.125  
 08 11  5  0 59  0.0000000  0  9G16G 6G31G 3G23G13G21G19G25         
 109599478.249    85402189.8904   20856083.884 8  20856083.40946  20856086.31046
      -925.492        -721.160  
 107571526.668    83821970.9534   20470177.870 8  20470177.50646  20470182.00846
       920.557         717.316  
 117963872.228    91919900.3984   22447776.828 7  22447777.11244  22447780.44744
     -2459.135       -1916.205  
 108097589.240    84231896.5114   20570285.870 8  20570285.33246  20570289.96746
      2036.333        1586.756  
 113632757.603    88545010.7274   21623593.478 7  21623593.11745  21623594.08545
      -215.163        -167.661  
 118964502.957    92699621.0744   22638189.657 7  22638189.68344  22638193.14044
      1544.304        1203.353  
 125589989.924    97862330.7144   23898978.049 6  23898978.28443  23898982.07743
       447.715         348.865  
 120803377.000    94132507.2634   22988114.802 7  22988113.50645  22988117.18945
      3433.730        2675.634  
 125837774.800    98055409.7844   23946130.646 6  23946129.82443  23946134.29943
      3058.417        2383.176  
 08 11  5  0 59 30.0000000  0  9G16G 6G31G 3G23G13G21G19G25         
 109627333.807    85423895.5174   20861384.671 8  20861384.09846  20861387.04646
      -932.779        -726.843  
 107544150.855    83800639.1564   20464968.124 7  20464967.75446  20464972.40346
       903.272         703.844  
 118037789.161    91977497.9844   22461842.731 7  22461843.14744  22461846.31844
     -2469.923       -1924.618  
 108036733.223    84184476.2534   20558705.182 8  20558704.63346  20558709.59546
      2019.495        1573.629  
 113639514.179    88550275.5894   21624879.294 7  21624878.85545  21624879.89245
      -236.487        -184.276  
 118918450.952    92663736.4014   22629426.834 7  22629426.42844  22629430.36344
      1524.606        1188.006  
 125576775.941    97852034.1254   23896463.635 6  23896463.15943  23896467.03143
       431.987         336.611  
 120700480.022    94052327.8164   22968534.057 7  22968533.02445  22968535.96045
      3424.809        2668.680  
 125746051.383    97983936.9974   23928675.236 6  23928675.11643  23928678.98143
      3055.263        2380.745  
 08 11  5  1  0  0.0000000  0  9G16G 6G31G 3G23G13G21G19G25         
 109655416.860    85445778.4284   20866728.712 8  20866728.04746  20866731.06646
      -939.647        -732.201  
 107517303.361    83779719.0384   20459859.199 8  20459858.65646  20459863.16146
       886.343         690.657  
 118112038.120    92035354.2804   22475971.317 6  22475971.64544  22475975.41744
     -2480.257       -1932.673  
 107976392.101    84137457.2064   20547222.839 8  20547222.29746  20547226.99146
      2003.007        1560.787  
 113646919.131    88556045.6804   21626288.282 7  21626288.35945  21626289.18745
      -257.402        -200.572  
 118872999.231    92628319.4654   22620777.531 7  22620777.43944  22620780.31844
      1505.273        1172.941  
 125564042.763    97842112.1774   23894040.624 6  23894040.06843  23894043.51043
       416.658         324.662  
 120597861.152    93972365.0914   22949006.465 7  22949005.51445  22949008.51145
      3416.188        2661.962  
 125654432.385    97912545.6124   23911240.643 6  23911240.51243  23911245.18943
      3052.446        2378.521  
 08 11  5  1  0 30.0000000  0  9G16G 6G31G 3G23G13G21G19G25         
 109683726.344    85467837.7654   20872115.660 8  20872115.30946  20872118.54946
      -948.480        -739.075  
 107490983.760    83759210.2704   20454850.883 8  20454850.58346  20454855.02446
       867.446         675.936  
 118186617.905    92093468.3664   22490163.815 6  22490164.17244  22490167.51044
     -2492.567       -1942.261  
 107916566.642    84090839.9714   20535838.267 8  20535837.77846  20535842.58246
      1984.500        1546.368  
 113654971.340    88562320.1244   21627821.060 8  21627821.03845  21627821.18645
      -280.272        -218.393  
 118828149.178    92593371.3634   22612243.393 7  22612243.20844  22612245.82544
      1483.883        1156.274  
 125551790.938    97832565.3174   23891709.276 6  23891708.43143  23891712.32043
       399.286         311.136  
 120495522.084    93892620.3864   22929531.800 7  22929530.59145  22929533.88145
      3405.529        2653.662  
 125562919.387    97841236.7994   23893827.030 6  23893826.89043  23893830.67243
      3047.546        2374.715  
 08 11  5  1  1  0.0000000  0  9G16G 6G31G 3G23G13G21G19G25         
 109712286.328    85490092.2954   20877550.626 8  20877550.06846  20877553.35546
      -956.520        -745.337  
 107465217.010    83739132.2924   20449947.682 8  20449947.54146  20449951.74446
       849.343         661.826  
 118261552.438    92151858.8944   22504423.461 6  22504423.54443  22504427.00344
     -2504.072       -1951.221  
 107857282.901    84044644.8584   20524557.029 8  20524556.56746  20524561.28346
      1966.739        1532.521  
 113663695.303    88569118.0104   21629480.886 7  21629480.64545  21629481.79645
      -302.307        -235.568  
 118783927.253    92558912.7184   22603827.581 7  22603827.92344  22603830.18244
      1463.237        1140.193  
 125540046.614    97823413.9154   23889474.210 6  23889474.16343  23889477.53843
       382.669         298.164  
 120393490.098    93813114.9754   22910115.841 7  22910114.64445  22910117.74545
      3395.573        2645.893  
 125471539.051    97770031.3714   23876437.078 6  23876436.67443  23876440.19443
      3043.415        2371.490  
 08 11  5  1  1 30.0000000  0  9G16G 6G31G 3G23G13G21G19G25         
 109741115.592    85512556.6544   20883036.698 8  20883036.15146  20883039.53846
      -965.098        -752.019  
 107440022.371    83719500.1174   20445153.220 8  20445152.97746  20445156.97046
       830.661         647.267  
 118336860.517    92210540.4984   22518753.916 6  22518753.89243  22518757.28543
     -2516.126       -1960.610  
 107798561.284    83998887.7634   20513382.718 8  20513382.10146  20513387.02146
      1948.349        1518.199  
 113673108.975    88576453.3324   21631271.763 8  21631271.69245  21631273.47545
      -324.936        -253.196  
 118740353.730    92524959.3224   22595535.430 6  22595535.20444  22595538.65044
      1441.966        1123.609  
 125528829.961    97814673.6924   23887339.717 6  23887339.12143  23887343.01643
       365.432         284.758  
 120291786.355    93733865.3324   22890762.079 6  22890760.45645  22890764.17745
      3384.968        2637.647  
 125380312.331    97698945.6294   23859077.366 6  23859078.10943  23859080.46143
      3038.662        2367.795  
 08 11  5  1  2  0.0000000  0  9G16G 6G31G 3G23G13G21G19G25         
 109770197.813    85535218.1214   20888570.659 8  20888569.99346  20888574.16946
      -973.549        -758.602  
 107415384.380    83700301.6924   20440464.730 8  20440464.51246  20440468.80046
       812.069         632.788  
 118412525.484    92269500.1984   22533152.700 6  22533152.57043  22533155.72443
     -2528.031       -1969.891  
 107740387.350    83953557.4364   20502312.508 8  20502311.76246  20502316.73646
      1930.066        1503.949  
 113683196.657    88584313.8564   21633191.214 7  21633190.76845  21633193.35645
      -347.422        -270.716  
 118697415.067    92491500.6214   22587364.845 7  22587364.85644  22587367.41744
      1420.764        1107.092  
 125518126.596    97806333.4194   23885303.735 6  23885302.61043  23885306.60943
       348.292         271.397  
 120190397.613    93654861.1454   22871468.305 7  22871467.05945  22871471.10545
      3374.411        2629.405  
 125289225.719    97627969.0624   23841744.661 6  23841745.13243  23841748.04943
      3033.936        2364.096  
 08 11  5  1  2 30.0000000  0  9G16G 6G31G 3G23G13G21G19G25         
 109799563.720    85558100.6484   20894158.818 7  20894158.11946  20894161.99446
      -983.525        -766.383  
 107391334.255    83681561.3484   20435888.027 8  20435888.01146  20435892.45746
       791.947         617.108  
 118488577.883    92328761.8094   22547625.061 6  22547625.34543  22547627.84443
     -2541.491       -1980.385  
 107682793.491    83908679.1114   20491352.724 8  20491352.19646  20491357.21446
      1910.174        1488.448  
 113693988.861    88592723.3484   21635245.167 7  21635244.98545  21635246.96445
      -371.417        -289.407  
 118655143.933    92458562.0684   22579320.301 6  22579320.16344  22579323.42544
      1397.941        1089.313  
 125507968.566    97798418.1064   23883370.463 6  23883369.78143  23883373.68543
       329.543         256.776  
 120089357.068    93576128.2704   22852241.025 7  22852240.09245  22852243.36145
      3362.249        2619.933  
 125198312.185    97557127.3734   23824444.253 6  23824443.83143  23824447.89143
      3027.607        2359.171  
 08 11  5  1  3  0.0000000  0  9G16G 6G31G 3G23G13G21G19G25         
 109829179.259    85581177.6844   20899794.493 7  20899793.78946  20899797.58046
      -992.022        -773.005  
 107367838.358    83663252.8634   20431417.337 8  20431416.91146  20431421.15746
       773.301         602.565  
 118564983.548    92388298.6664   22562164.938 6  22562164.88043  22562168.29643
     -2553.413       -1989.676  
 107625746.985    83864227.2984   20480497.007 8  20480496.22346  20480501.34346
      1891.738        1474.083  
 113705451.206    88601655.0344   21637426.483 7  21637426.10645  21637428.10545
      -393.904        -306.941  
 118613508.226    92426118.6494   22571397.184 7  22571397.41944  22571400.03644
      1376.572        1072.661  
 125498323.707    97790902.6604   23881534.384 6  23881534.31743  23881538.20243
       312.249         243.314  
 119988633.355    93497642.2814   22833073.323 6  22833072.60745  22833075.75144
      3351.462        2611.527  
 125107540.204    97486396.0084   23807170.801 6  23807170.54743  23807173.91143
      3022.675        2355.347  
 08 11  5  1  3 30.0000000  0  9G16G 6G31G 3G23G13G21G19G25         
 109859081.202    85604477.8984   20905484.505 8  20905484.04646  20905487.91346
     -1001.086        -780.066  
 107344934.179    83645405.4594   20427058.744 8  20427058.33546  20427062.78146
       754.009         587.537  
 118641779.085    92448139.3034   22576777.797 6  22576778.30943  22576781.59043
     -2565.906       -1999.404  
 107569286.463    83820232.0924   20469752.998 8  20469752.36246  20469757.53046
      1872.656        1459.212  
 113717620.119    88611137.2894   21639742.274 7  21639741.89345  21639743.66245
      -416.977        -324.913  
 118572546.564    92394200.4664   22563602.801 7  22563602.85444  22563606.28444
      1354.551        1055.506  
 125489230.377    97783816.9694   23879805.159 7  23879803.84444  23879807.40044
       294.334         229.346  
 119888266.011    93419433.9714   22813974.546 7  22813973.34145  22813976.77845
      3340.049        2602.637  
 125016949.167    97415805.5894   23789931.589 6  23789931.26543  23789934.58043
      3017.087        2350.976  
 08 11  5  1  4  0.0000000  0  9G16G 6G31G 3G23G13G21G19G25         
 109889237.078    85627975.9824   20911222.984 7  20911222.62346  20911226.07746
     -1009.573        -786.683  
 107322590.089    83627994.4904   20422807.000 8  20422806.62746  20422811.26446
       735.314         572.973  
 118718932.024    92508258.4364   22591459.706 6  22591459.90543  22591463.41343
     -2577.868       -2008.721  
 107513381.379    83776669.7034   20459114.519 8  20459113.84446  20459118.86746
      1854.086        1444.739  
 113730463.478    88621145.0924   21642185.881 7  21642185.34145  21642187.78845
      -439.497        -342.466  
 118532228.594    92362783.8674   22555929.942 7  22555929.96844  22555933.87544
      1333.025        1038.723  
 125480657.233    97777136.6294   23878172.670 6  23878172.31043  23878175.90743
       276.923         215.771  
 119788225.585    93341480.4044   22794937.260 7  22794936.12445  22794940.18245
      3329.058        2594.073  
 124926509.044    97345332.8104   23772721.807 6  23772721.42743  23772725.33243
      3011.969        2346.985  
 08 11  5  1  4 30.0000000  0  9G16G 6G31G 3G23G13G21G19G25         
 109919647.516    85651672.4254   20917010.108 7  20917009.35146  20917013.15546
     -1017.377        -792.760  
 107300806.975    83611020.6494   20418661.964 8  20418661.59446  20418665.65946
       717.307         558.941  
 118796442.441    92568656.1294   22606209.333 6  22606209.84243  22606213.09743
     -2589.096       -2017.472  
 107458033.752    83733541.6884   20448582.104 8  20448581.53146  20448586.56246
      1836.169        1430.781  
 113743981.292    88631678.4394   21644758.596 8  21644758.36545  21644760.50545
      -461.281        -359.440  
 118492557.406    92331871.2694   22548381.183 6  22548381.10144  22548384.56444
      1312.141        1022.442  
 125472607.227    97770863.9224   23876641.612 6  23876640.08443  23876644.03643
       260.174         202.725  
 119688515.270    93263784.0914   22775962.964 7  22775961.97445  22775966.05945
      3318.703        2585.989  
 124836223.068    97274980.1154   23755540.190 6  23755540.40643  23755544.04743
      3007.539        2343.539  
 08 11  5  1  5  0.0000000  0  9G16G 6G31G 3G23G13G21G19G25         
 109950352.183    85675598.1354   20922852.904 8  20922852.68746  20922855.83446
     -1027.642        -800.755  
 107279624.916    83594515.1564   20414630.810 8  20414630.81946  20414634.65046
       696.796         542.967  
 118874349.661    92629363.0094   22621034.827 6  22621035.14943  22621038.57843
     -2602.790       -2028.132  
 107403284.434    83690879.8874   20438163.793 8  20438163.54146  20438168.12646
      1815.719        1414.849  
 113758212.918    88642768.0004   21647466.353 7  21647466.00045  21647468.48745
      -485.534        -378.331  
 118453574.234    92301494.7604   22540962.625 6  22540962.27443  22540966.22243
      1288.704        1004.196  
 125465120.869    97765030.4314   23875216.379 6  23875215.51643  23875219.61843
       240.868         187.696  
 119589177.424    93186377.9964   22757059.820 6  22757058.38745  22757063.07345
      3305.780        2575.936  
 124746133.283    97204780.2914   23738397.613 7  23738397.23243  23738399.49343
      3000.420        2337.991  
 08 11  5  1  5 30.0000000  0  9G16G 6G31G 3G23G13G21G19G25         
 109981326.333    85699733.8444   20928747.168 8  20928746.81046  20928749.95246
     -1036.245        -807.465  
 107259019.836    83578459.2634   20410709.787 8  20410709.51146  20410714.06946
       677.930         528.258  
 118952628.978    92690359.8534   22635930.680 5  22635930.39843  22635934.29242
     -2614.773       -2037.483  
 107349111.039    83648666.8634   20427855.148 8  20427854.56746  20427859.29046
      1796.870        1400.158  
 113773133.632    88654394.5074   21650305.723 7  21650305.57545  21650307.61245
      -508.114        -395.927  
 118415256.268    92271636.6104   22533670.982 7  22533671.01443  22533674.30343
      1266.869         987.171  
 125458175.315    97759618.3314   23873894.336 6  23873894.03543  23873898.42243
       223.207         173.929  
 119490189.953    93109244.9244   22738223.309 7  22738221.83645  22738225.71745
      3294.435        2567.085  
 124656217.559    97134716.1004   23721287.264 6  23721286.20943  23721290.69743
      2995.009        2333.758  
 08 11  5  1  6  0.0000000  0  9G16G 6G31G 3G23G13G21G19G25         
 110012559.515    85724071.3894   20934690.295 7  20934689.92946  20934693.54946
     -1045.712        -814.841  
 107238981.523    83562845.0034   20406896.664 8  20406896.37646  20406900.99546
       658.190         512.875  
 119031269.264    92751637.9634   22650895.245 6  22650895.42343  22650898.88543
     -2627.643       -2047.517  
 107295504.242    83606895.3404   20417654.041 8  20417653.65046  20417658.05246
      1777.158        1384.799  
 113788732.361    88666549.3504   21653274.361 8  21653273.63745  21653275.63445
      -531.555        -414.193  
 118377594.774    92242289.9904   22526503.264 6  22526502.99043  22526507.04843
      1244.132         969.458  
 125451761.276    97754620.4154   23872674.038 6  23872673.23543  23872677.46443
       204.648         159.463  
 119391545.185    93032378.8884   22719451.464 7  22719450.43745  22719454.60845
      3282.131        2557.495  
 124566467.749    97064781.2084   23704207.055 6  23704206.91343  23704211.63043
      2988.569        2328.773  
 08 11  5  1  6 30.0000000  0  9G16G 6G31G 3G23G13G21G19G25         
 110044052.717    85748611.5484   20940683.432 8  20940682.57546  20940686.24346
     -1053.905        -821.225  
 107219511.659    83547673.6924   20403191.516 8  20403190.96946  20403195.49946
       639.735         498.495  
 119110271.468    92813198.0884   22665928.989 6  22665929.85243  22665932.81943
     -2639.247       -2056.548  
 107242466.084    83565566.9134   20407561.100 8  20407560.58946  20407565.33646
      1758.630        1370.364  
 113805009.690    88679232.9704   21656371.964 8  21656372.05045  21656372.99445
      -553.698        -431.445  
 118340592.629    92213457.1584   22519461.992 6  22519461.44343  22519466.27643
      1222.615         952.688  
 125445881.367    97750038.6864   23871555.149 7  23871553.92843  23871558.74543
       187.267         145.926  
 119293246.638    92955782.6304   22700745.955 7  22700744.75245  22700748.50845
      3271.004        2548.836  
 124476887.530    96994978.4844   23687161.406 7  23687161.44043  23687164.72643
      2983.340        2324.674  
 08 11  5  1  7  0.0000000  0  9G16G 6G31G 3G23G13G21G19G25         
 110075836.754    85773378.3314   20946731.683 8  20946731.34246  20946734.75946
     -1063.951        -829.052  
 107200641.168    83532969.4154   20399600.629 8  20399600.31446  20399604.31246
       619.393         482.644  
 119189666.046    92875063.9534   22681037.872 6  22681038.56243  22681041.00043
     -2652.655       -2067.004  
 107190029.178    83524706.9904   20397582.661 8  20397582.04546  20397586.76046
      1738.237        1354.471  
 113821996.038    88692469.0714   21659604.454 7  21659604.28145  21659605.49745
      -577.664        -450.127  
 118304282.229    92185163.3304   22512553.145 6  22512553.06843  22512556.97243
      1199.149         934.398  
 125440567.718    97745898.2044   23870544.273 6  23870543.27743  23870547.73043
       168.053         130.955  
 119195327.775    92879482.2304   22682112.477 7  22682111.43345  22682115.25145
      3257.987        2538.697  
 124387510.084    96925333.7294   23670153.973 7  23670153.71043  23670157.36043
      2976.212        2319.125  
 08 11  5  1  7 30.0000000  0  9G16G 6G31G 3G23G13G21G19G25         
 110107886.790    85798352.3814   20952830.833 8  20952830.04446  20952833.42346
     -1072.898        -836.023  
 107182346.036    83518713.4794   20396119.523 8  20396119.17246  20396123.20046
       600.118         467.621  
 119269428.083    92937216.1654   22696216.499 6  22696216.20043  22696219.43643
     -2664.993       -2076.620  
 107138170.461    83484297.6074   20387714.238 8  20387713.60646  20387718.59646
      1718.840        1339.355  
 113839666.594    88706238.3154   21662967.076 7  21662966.90745  21662968.19445
      -600.542        -467.950  
 118268641.633    92157391.4404   22505771.219 6  22505770.17343  22505774.55943
      1176.707         916.914  
 125435797.158    97742180.9274   23869636.048 6  23869635.24943  23869639.73643
       149.824         116.744  
 119097766.640    92803460.5904   22663547.502 7  22663546.28745  22663550.12245
      3245.898        2529.271  
 124298313.360    96855829.8174   23653179.362 6  23653178.75143  23653183.98843
      2970.056        2314.316  
 08 11  5  1  8  0.0000000  0  9G16G 6G31G 3G23G13G21G19G25         
 110140204.547    85823535.0384   20958980.856 8  20958980.06446  20958983.57646
     -1081.720        -842.898  
 107164627.974    83504907.2024   20392747.768 8  20392747.51546  20392751.45446
       580.974         452.707  
 119349558.672    92999655.5504   22711464.558 6  22711464.46243  22711468.26943
     -2677.159       -2086.096  
 107086892.758    83444340.9624   20377956.897 8  20377956.21246  20377960.53046
      1699.541        1324.316  
 113858022.101    88720541.2944   21666460.081 7  21666459.73545  21666460.71845
      -623.261        -485.653  
 118233673.792    92130143.7604   22499116.980 6  22499117.56243  22499120.96943
      1154.368         899.506  
 125431572.516    97738889.0184   23868832.165 6  23868831.42443  23868835.01543
       131.715         102.641  
 119000567.443    92727720.9674   22645051.385 7  22645050.14345  22645053.63445
      3233.915        2519.934  
 124209301.363    96786469.8164   23636241.242 7  23636241.42243  23636244.89843
      2963.964        2309.586  
 08 11  5  1  8 30.0000000  0  9G16G 6G31G 3G23G13G21G19G25         
 110172773.239    85848913.2384   20965178.261 8  20965177.73846  20965181.21746
     -1090.152        -849.471  
 107147470.709    83491537.9044   20389482.674 8  20389482.37346  20389486.36746
       562.197         438.077  
 119430040.745    93062368.8474   22726779.542 6  22726780.09943  22726782.95443
     -2688.932       -2095.270  
 107036181.031    83404825.3404   20368306.492 8  20368305.79946  20368310.43046
      1680.582        1309.545  
 113877045.459    88735364.6884   21670080.286 8  21670079.93145  21670081.20645
      -645.586        -503.058  
 118199363.499    92103408.4684   22492588.036 6  22492588.22143  22492591.96243
      1132.368         882.364  
 125427878.763    97736010.7974   23868129.162 6  23868128.27543  23868132.11543
       113.936          88.776  
 118903715.870    92652252.2444   22626620.808 7  22626620.18645  22626623.22945
      3222.206        2510.809  
 124120459.878    96717242.6914   23619335.526 7  23619335.53343  23619339.73843
      2958.139        2305.048  
 08 11  5  1  9  0.0000000  0  9G16G 6G31G 3G23G13G21G19G25         
 110205581.446    85874478.0644   20971421.813 8  20971421.40046  20971424.17346
     -1098.351        -855.860  
 107130863.014    83478596.8454   20386322.225 8  20386322.01846  20386325.96846
       543.691         423.653  
 119510862.281    93125346.6444   22742159.855 6  22742159.71543  22742163.38643
     -2700.453       -2104.248  
 106986025.112    83365742.8084   20358762.058 8  20358761.47346  20358766.07846
      1661.842        1294.941  
 113896724.505    88750698.9974   21673825.164 8  21673824.90745  21673825.62445
      -667.637        -520.235  
 118165700.878    92077177.8404   22486182.482 6  22486181.79943  22486186.68843
      1110.526         865.341  
 125424705.248    97733537.9614   23867526.081 6  23867524.45243  23867528.69143
        96.355          75.085  
 118807203.231    92577047.6074   22608255.285 7  22608254.20045  22608257.48645
      3210.667        2501.821  
 124031779.953    96648141.5024   23602459.147 6  23602457.38043  23602465.22843
      2952.528        2300.667  
 08 11  5  1  9 30.0000000  0  9G16G 6G31G 3G23G13G21G19G25         
 110238620.589    85900222.8464   20977708.748 8  20977708.37746  20977711.17546
     -1104.597        -860.724  
 107114796.658    83466077.6124   20383265.034 8  20383264.73746  20383268.74946
       527.076         410.713  
 119592014.525    93188582.1174   22757601.890 6  22757602.56343  22757606.64043
     -2710.032       -2111.719  
 106936417.868    83327087.8224   20349321.841 8  20349321.29046  20349326.37446
      1644.959        1281.789  
 113917050.475    88766537.4144   21677693.293 8  21677693.09145  21677693.44345
      -687.757        -535.914  
 118132679.250    92051446.7014   22479898.074 6  22479897.65843  22479902.64843
      1090.566         849.797  
 125422045.047    97731465.1074   23867019.114 6  23867018.39843  23867022.38043
        80.673          62.870  
 118711023.382    92502102.3034   22589952.799 7  22589952.34845  22589954.99745
      3200.968        2494.260  
 123943255.755    96579161.6184   23585615.031 6  23585614.96443  23585619.18643
      2948.748        2297.721  
 08 11  5  1 10  0.0000000  0  9G16G 6G31G 3G23G13G21G19G25         
 110271893.162    85926149.5254   20984040.088 8  20984039.51546  20984042.75046
     -1114.659        -868.570  
 107099274.602    83453982.5024   20380311.315 8  20380310.81946  20380315.14446
       506.670         394.805  
 119673499.472    93252076.8694   22773108.683 6  22773107.34242  22773112.01542
     -2723.409       -2122.142  
 106887363.142    83288863.3644   20339987.295 8  20339986.68046  20339991.28946
      1624.240        1265.641  
 113938024.992    88782881.1814   21681684.304 8  21681683.93945  21681684.64845
      -711.646        -554.528  
 118100302.652    92026218.1714   22473736.603 6  22473736.16443  22473741.39743
      1066.782         831.246  
 125419901.566    97729794.8864   23866611.200 6  23866610.99243  23866614.14843
        61.146          47.630  
 118615181.543    92427420.3764   22571715.025 7  22571714.25545  22571716.43145
      3187.376        2483.669  
 123854892.153    96510306.8764   23568799.946 7  23568800.11044  23568803.83844
      2941.056        2291.725  
 08 11  5  1 10 30.0000000  0  9G16G 6G31G 3G23G13G21G19G25         
 110305411.328    85952267.5684   20990418.350 7  20990417.72346  20990421.06746
     -1120.965        -873.471  
 107084308.821    83442320.8604   20377463.699 8  20377463.27246  20377467.05946
       489.996         381.818  
 119755328.802    93315839.9674   22788679.077 5  22788679.60342  22788683.65942
     -2732.953       -2129.577  
 106838874.123    83251079.7264   20330760.202 8  20330759.57946  20330764.46846
      1607.270        1252.420  
 113959659.361    88799739.1234   21685801.206 8  21685800.70845  21685802.28345
      -731.740        -570.188  
 118068584.413    92001502.6594   22467701.484 6  22467701.36644  22467706.15144
      1046.685         815.595  
 125418287.711    97728537.3544   23866303.377 6  23866303.86943  23866306.42443
        45.349          35.351  
 118519692.207    92353013.1214   22553544.151 7  22553543.41145  22553545.46345
      3177.471        2475.955  
 123766703.574    96441588.4994   23552017.296 6  23552017.53343  23552021.72343
      2937.073        2288.638  
 08 11  5  1 11  0.0000000  0  9G16G 6G31G 3G23G13G21G19G25         
 110339157.397    85978563.2034   20996839.756 8  20996839.32846  20996842.66745
     -1128.619        -879.441  
 107069881.934    83431079.1254   20374718.377 8  20374718.16846  20374721.84946
       471.939         367.742  
 119837484.318    93379857.1914   22804312.500 5  22804311.75542  22804317.90842
     -2743.912       -2138.103  
 106790934.207    83213723.9554   20321637.425 8  20321636.98846  20321641.65846
      1588.873        1238.083  
 113981935.420    88817097.0834   21690040.278 8  21690039.51845  21690041.04545
      -753.180        -586.891  
 118037509.141    91977288.1514   22461788.390 6  22461788.61944  22461792.48144
      1025.149         798.823  
 125417187.978    97727680.4574   23866095.000 6  23866094.24443  23866097.41043
        28.091          21.901  
 118424540.318    92278868.8184   22535436.943 7  22535436.24745  22535438.44945
      3166.103        2467.099  
 123678675.055    96372994.8674   23535266.869 6  23535266.67844  23535271.09344
      2931.612        2284.384  
 08 11  5  1 11 30.0000000  0  9G16G 6G31G 3G23G13G21G19G25         
 110373108.020    86005018.2314   21003300.455 7  21003299.78246  21003303.49746
     -1135.456        -884.767  
 107055970.937    83420239.3894   20372071.310 8  20372070.96446  20372074.94446
       454.732         354.339  
 119919942.714    93444110.4354   22820004.236 5  22820005.42341  22820007.03641
     -2754.004       -2145.984  
 106743521.777    83176779.2124   20312615.032 8  20312614.60446  20312619.48146
      1571.244        1224.348  
 114004829.216    88834936.3934   21694396.444 8  21694396.07245  21694397.69945
      -773.770        -602.939  
 118007055.021    91953557.6564   22455993.601 7  22455993.02644  22455997.25744
      1004.413         782.660  
 125416580.112    97727206.8294   23865979.142 6  23865979.26943  23865981.72043
        11.694           9.102  
 118329704.974    92204971.1664   22517390.533 7  22517389.68745  22517392.01145
      3155.490        2458.820  
 123590785.793    96304509.7514   23518541.392 6  23518541.45543  23518546.16243
      2926.946        2280.733  
 08 11  5  1 12  0.0000000  0  9G16G 6G31G 3G23G13G21G19G25         
 110407268.117    86031636.4864   21009801.299 7  21009800.60846  21009804.04946
     -1142.282        -890.092  
 107042581.183    83409805.8194   20369523.172 8  20369523.04646  20369526.76446
       437.506         340.910  
 120002708.149    93508602.9834   22835754.713 5  22835754.16641  22835756.23741
     -2764.089       -2153.807  
 106696643.218    83140250.4794   20303694.304 8  20303693.73746  20303698.64046
      1553.597        1210.595  
 114028345.163    88853260.4904   21698871.154 7  21698870.43045  21698872.85445
      -794.360        -618.983  
 117977228.591    91930316.2804   22450318.210 7  22450317.87044  22450321.58644
       983.616         766.455  
 125416470.265    97727121.2434   23865958.004 6  23865957.43143  23865960.79343
        -4.805          -3.745  
 118235194.021    92131326.2774   22499405.597 7  22499404.71245  22499406.71045
      3144.805        2450.494  
 123503043.472    96236139.1224   23501843.957 6  23501843.58343  23501849.46543
      2922.125        2276.993  
 08 11  5  1 12 30.0000000  0  9G16G 6G31G 3G23G13G21G19G25         
 110441646.931    86058425.1744   21016343.214 8  21016342.72746  21016345.93246
     -1149.076        -895.384  
 107029721.823    83399785.5394   20367076.094 8  20367075.91146  20367079.51646
       420.339         327.537  
 120085789.364    93573341.5974   22851564.525 5  22851564.23841  22851567.30641
     -2774.093       -2161.626  
 106650308.483    83104145.5014   20294877.408 8  20294876.76246  20294881.38246
      1535.925        1196.824  
 114052491.581    88872075.8664   21703466.107 8  21703465.84645  21703467.42445
      -814.844        -634.937  
 117948040.230    91907572.0984   22444763.641 7  22444763.78344  22444766.82744
       962.831         750.253  
 125416869.030    97727432.0154   23866033.269 6  23866033.10443  23866036.00143
       -21.246         -16.566  
 118141018.864    92057943.0464   22481484.477 7  22481483.82245  22481485.99845
      3134.073        2442.138  
 123415459.612    96167891.9784   23485177.778 6  23485177.73044  23485182.48344
      2917.332        2273.237  
 08 11  5  1 13  0.0000000  0  9G16G 6G31G 3G23G13G21G19G25         
 110476209.339    86085356.9134   21022920.403 8  21022919.84746  21022923.24946
     -1156.873        -901.456  
 107017357.907    83390151.3174   20364723.175 8  20364722.91746  20364727.02646
       402.145         313.367  
 120169150.733    93638298.4804   22867426.185 4  22867426.61641  22867431.61441
     -2785.077       -2170.186  
 106604484.750    83068438.7024   20286157.105 8  20286156.26746  20286161.42046
      1517.213        1182.245  
 114077232.406    88891354.4154   21708173.761 7  21708173.10945  21708175.15045
      -836.334        -651.688  
 117919456.485    91885299.0534   22439324.575 7  22439324.75744  22439327.94144
       940.963         733.225  
 125417741.990    97728112.2474   23866200.166 6  23866200.29043  23866202.76443
       -38.735         -30.177  
 118047147.106    91984796.2484   22463621.099 7  22463620.03745  22463622.70945
      3122.239        2432.917  
 123328001.765    96099743.0154   23468535.841 6  23468536.09844  23468539.65344
      2911.428        2268.644  
 08 11  5  1 13 30.0000000  0  9G16G 6G31G 3G23G13G21G19G25         
 110510997.023    86112464.2094   21029540.368 8  21029539.81846  21029543.08046
     -1163.343        -906.503  
 107005531.372    83380935.8454   20362472.599 8  20362472.10746  20362476.82246
       385.273         300.206  
 120252833.644    93703505.8814   22883349.703 4  22883351.59341  22883356.07341
     -2794.681       -2177.674  
 106559214.184    83033162.9534   20277542.649 8  20277541.83246  20277546.91446
      1499.791        1168.665  
 114102608.751    88911128.1854   21713003.034 7  21713002.31845  21713004.44245
      -856.459        -667.378  
 117891520.498    91863530.7484   22434008.985 7  22434009.38444  22434011.75144
       920.378         717.175  
 125419131.697    97729195.1484   23866464.638 6  23866463.84743  23866467.41743
       -54.956         -42.835  
 117953623.084    91911920.4184   22445823.751 7  22445822.70845  22445826.01245
      3111.647        2424.657  
 123240714.291    96031726.8064   23451925.210 6  23451925.17044  23451929.73144
      2906.704        2264.958  
 08 11  5  1 14  0.0000000  0  9G16G 6G31G 3G23G13G21G19G25         
 110546000.944    86139739.9954   21036201.350 7  21036200.79346  21036203.84746
     -1169.659        -911.429  
 106994232.991    83372131.9164   20360322.775 8  20360322.31346  20360326.43646
       368.544         287.175  
 120336828.241    93768956.1794   22899335.121 5  22899335.94841  22899340.34441
     -2804.285       -2185.169  
 106514488.437    82998311.7324   20269031.264 8  20269030.52146  20269035.74046
      1482.502        1155.193  
 114128610.458    88931389.2354   21717950.949 7  21717949.93645  21717952.67645
      -876.405        -682.913  
 117864224.416    91842261.0774   22428814.555 7  22428814.31345  22428817.26745
       899.927         701.244  
 125421030.487    97730674.7534   23866825.965 6  23866825.10243  23866828.45243
       -71.055         -55.372  
 117860439.774    91839310.0764   22428091.725 7  22428090.67545  22428093.37345
      3101.149        2416.473  
 123153590.189    95963837.9124   23435345.703 6  23435344.97144  23435350.66744
      2902.129        2261.388  
 08 11  5  1 14 30.0000000  0  9G16G 6G31G 3G23G13G21G19G25         
 110581192.685    86167162.1264   21042898.162 7  21042897.60446  21042900.92946
     -1176.796        -916.980  
 106983434.248    83363717.3154   20358267.634 8  20358267.41246  20358271.28546
       351.032         273.532  
 120421105.478    93834626.7124   22915371.849 5  22915371.98341  22915377.44041
     -2814.555       -2193.172  
 106470280.495    82963863.9894   20260618.983 8  20260618.50846  20260623.30046
      1464.354        1141.057  
 114155208.329    88952114.8354   21723012.229 7  21723011.53445  21723014.10545
      -897.117        -699.052  
 117837541.020    91821468.8224   22423736.709 7  22423737.19145  22423739.82345
       878.610         684.631  
 125423410.964    97732529.6884   23867279.099 6  23867279.39443  23867280.82043
       -87.995         -68.564  
 117767571.054    91766944.8534   22410419.863 7  22410418.62445  22410421.31445
      3089.751        2407.595  
 123066603.715    95896056.2694   23418792.299 6  23418791.50644  23418797.30144
      2896.614        2257.105  
 08 11  5  1 15  0.0000000  0  9G16G 6G31G 3G23G13G21G19G25         
 110616569.357    86194728.3684   21049630.002 8  21049629.50746  21049632.66246
     -1181.426        -920.592  
 106973132.599    83355690.0674   20356307.401 8  20356306.83946  20356310.98646
       336.002         261.813  
 120505661.993    93900514.8424   22931464.174 5  22931463.57541  22931468.78741
     -2822.303       -2199.202  
 106426588.532    82929818.3114   20252304.959 8  20252304.33346  20252309.24046
      1448.667        1128.834  
 114182398.540    88973301.9934   21728186.185 7  21728185.52945  21728188.39345
      -915.319        -713.234  
 117811469.181    91801153.1064   22418775.283 7  22418775.22044  22418778.07544
       859.745         669.934  
 125426271.424    97734758.6274   23867823.518 6  23867822.44243  23867824.96843
      -102.471         -79.854  
 117675016.722    91694824.6024   22392807.157 7  22392806.23045  22392808.66545
      3080.746        2400.587  
 122979754.727    95828381.7474   23402266.123 6  23402265.76144  23402270.64644
      2893.524        2254.681  
 08 11  5  1 15 30.0000000  0  9G16G 6G31G 3G23G13G21G19G25         
 110652113.009    86222424.7104   21056393.707 8  21056393.07846  21056396.57846
     -1188.181        -925.859  
 106963310.144    83348036.2134   20354438.212 8  20354437.96846  20354442.15346
       318.796         248.410  
 120590479.410    93966606.2954   22947604.046 5  22947603.78542  22947608.33242
     -2832.191       -2206.889  
 106383395.626    82896161.5084   20244085.544 8  20244085.05546  20244089.69546
      1430.827        1114.932  
 114210162.198    88994935.9974   21733469.747 7  21733469.19445  21733471.32345
      -935.609        -729.048  
 117785992.201    91781300.9044   22413927.542 7  22413927.31044  22413930.63844
       838.686         653.522  
 125429594.860    97737348.3104   23868455.904 6  23868455.09243  23868458.28643
      -119.134         -92.847  
 117582761.427    91622937.3654   22375251.600 7  22375250.75945  22375253.54945
      3069.550        2391.859  
 122893027.844    95760802.3734   23385762.994 7  23385763.28344  23385766.84944
      2888.234        2250.568  
 08 11  5  1 16  0.0000000  0  9G16G 6G31G 3G23G13G21G19G25         
 110687834.592    86250259.7054   21063191.250 7  21063190.80346  21063194.05446
     -1193.580        -930.066  
 106953977.920    83340764.3594   20352662.222 8  20352662.01046  20352665.95946
       303.020         236.116  
 120675568.121    94032909.1714   22963795.786 5  22963795.01941  22963799.59141
     -2840.705       -2213.499  
 106340713.892    82862903.0154   20235963.395 8  20235962.70446  20235967.42446
      1414.288        1102.045  
 114238509.305    89017024.6294   21738864.128 7  21738863.79245  21738865.81745
      -954.542        -743.801  
 117761122.306    91761921.7684   22409194.843 7  22409194.73244  22409197.75045
       818.963         638.156  
 125433393.098    97740307.9814   23869177.853 6  23869177.73743  23869180.14043
      -134.440        -104.754  
 117490818.392    91551293.4534   22357755.255 7  22357754.43745  22357756.85045
      3059.637        2384.132  
 122806436.413    95693328.5284   23369284.920 6  23369284.59944  23369288.78244
      2884.189        2247.413  
 08 11  5  1 16 30.0000000  0  9G16G 6G31G 3G23G13G21G19G25         
 110723711.129    86278215.4444   21070018.184 8  21070017.74646  21070021.42646
     -1198.065        -933.555  
 106945112.420    83333856.1814   20350975.315 8  20350975.04546  20350978.60646
       288.131         224.520  
 120760904.340    94099404.9074   22980034.620 4  22980033.35441  22980038.81141
     -2848.247       -2219.416  
 106298521.761    82830026.0404   20227934.625 8  20227933.88246  20227938.67946
      1398.641        1089.846  
 114267415.889    89039549.2214   21744364.357 7  21744363.83045  21744366.11145
      -972.461        -757.757  
 117736837.639    91742998.6464   22404573.486 7  22404573.72544  22404576.53544
       800.124         623.475  
 125437644.122    97743620.4804   23869987.472 6  23869986.40143  23869989.56043
      -148.852        -115.980  
 117399166.956    91479876.7634   22340314.746 7  22340313.72045  22340316.78045
      3050.567        2377.063  
 122719959.899    95625944.2424   23352828.633 6  23352827.36644  23352833.50644
      2880.982        2244.923  
 08 11  5  1 17  0.0000000  0  9G16G 6G31G 3G23G13G21G19G25         
 110759741.524    86306291.0714   21076874.605 8  21076874.09946  21076877.20946
     -1204.648        -938.681  
 106936712.733    83327310.9794   20349376.795 8  20349376.31846  20349380.33846
       271.139         211.285  
 120846486.403    94166092.2344   22996320.007 4  22996319.52941  22996324.84241
     -2857.899       -2226.936  
 106256818.559    82797530.0434   20219998.938 8  20219998.41346  20220002.76446
      1380.871        1076.005  
 114296879.440    89062507.8124   21749971.960 8  21749971.57645  21749973.13645
      -992.482        -773.358  
 117713137.826    91724531.2604   22400063.149 7  22400062.92244  22400066.74744
       779.142         607.124  
 125442347.511    97747285.4744   23870882.472 6  23870882.17343  23870884.35543
      -165.417        -128.900  
 117307808.250    91408688.1724   22322929.715 7  22322928.99445  22322931.18345
      3039.296        2368.286  
 122633599.770    95558650.6444   23336395.582 7  23336395.86344  23336399.37444
      2875.612        2240.740  
 08 11  5  1 17 30.0000000  0  9G16G 6G31G 3G23G13G21G19G25         
 110795952.794    86334507.6454   21083765.494 8  21083764.77746  21083767.87546
     -1209.590        -942.539  
 106928805.981    83321149.8844   20347872.061 8  20347871.54446  20347876.02546
       255.777         199.308  
 120932340.837    94232991.7754   23012656.622 4  23012655.93441  23012661.35241
     -2865.970       -2233.255  
 106215633.182    82765437.5494   20212161.739 8  20212161.13446  20212165.17046
      1364.674        1063.383  
 114326926.386    89085921.0014   21755689.780 7  21755689.55745  21755690.64945
     -1010.818        -787.649  
 117690052.170    91706542.4354   22395670.007 7  22395669.78744  22395673.34044
       759.737         592.005  
 125447531.787    97751325.1634   23871869.079 6  23871868.51243  23871871.73543
      -180.374        -140.549  
 117216771.871    91337750.7574   22305606.156 7  22305604.91245  22305607.33545
      3029.602        2360.728  
 122547385.828    95491470.9654   23319989.010 7  23319989.24544  23319993.49944
      2871.800        2237.767  
 08 11  5  1 18  0.0000000  0  9G16G 6G31G 3G23G13G21G19G25         
 110832328.427    86362852.2904   21090687.523 8  21090686.86246  21090689.80846
     -1215.572        -947.202  
 106921375.543    83315359.9404   20346458.102 8  20346457.75546  20346461.79246
       239.433         186.571  
 121018450.225    94300090.0054   23029044.705 5  23029045.51141  23029047.22841
     -2874.835       -2240.148  
 106174949.458    82733735.9524   20204419.813 8  20204419.48446  20204423.51746
      1347.448        1049.958  
 114357538.979    89109774.9584   21761514.587 7  21761513.97145  21761516.47745
     -1030.132        -802.699  
 117667564.846    91689019.8494   22391391.127 7  22391391.10144  22391394.67244
       739.278         576.056  
 125453180.881    97755727.0674   23872943.960 7  23872943.20243  23872946.57143
      -196.382        -153.025  
 117126043.656    91267053.4514   22288341.244 7  22288340.39745  22288342.75245
      3018.802        2352.316  
 122461304.044    95424394.2554   23303608.753 7  23303608.86244  23303612.67344
      2866.833        2233.901  
 08 11  5  1 18 30.0000000  0  9G16G 6G31G 3G23G13G21G19G25         
 110868866.701    86391323.6754   21097640.441 8  21097639.99946  21097643.13145
     -1220.788        -951.273  
 106914419.399    83309939.5754   20345134.518 8  20345134.21346  20345137.84146
       223.820         174.404  
 121104812.428    94367385.1714   23045478.428 5  23045477.65541  23045482.09241
     -2883.075       -2246.539  
 106134766.170    82702424.3094   20196772.805 8  20196772.05146  20196776.66746
      1330.970        1037.118  
 114388714.351    89134067.4484   21767447.229 7  21767446.94645  21767449.01945
     -1048.663        -817.142  
 117645674.985    91671962.8164   22387225.990 7  22387226.58744  22387229.22244
       719.568         560.695  
 125459294.081    97760490.6034   23874107.224 7  23874106.49543  23874110.41143
      -211.643        -164.917  
 117035623.904    91196596.5274   22271134.894 7  22271133.65545  22271136.20545
      3008.682        2344.426  
 122375355.104    95357421.0714   23287253.930 7  23287253.80044  23287257.21444
      2862.582        2230.577  
 08 11  5  1 19  0.0000000  0  9G16G 6G31G 3G23G13G21G19G25         
 110905561.159    86419916.7534   21104623.442 8  21104622.80245  21104625.89945
     -1225.109        -954.633  
 106907931.115    83304883.7754   20343900.101 8  20343899.53546  20343903.37446
       209.109         162.947  
 121191420.236    94434871.7514   23061959.720 5  23061958.90141  23061963.00142
     -2890.348       -2252.226  
 106095078.167    82671498.5964   20189220.763 8  20189220.06846  20189224.25746
      1315.315        1024.923  
 114420444.900    89158792.5304   21773485.505 7  21773485.03245  21773486.96245
     -1066.288        -830.873  
 117624377.192    91655367.1364   22383172.662 7  22383172.70744  22383176.10144
       700.682         545.986  
 125465865.685    97765611.3444   23875357.956 6  23875357.42843  23875359.65943
      -226.033        -176.132  
 116945508.913    91126377.0614   22253986.479 7  22253985.41145  22253988.07345
      2999.381        2337.177  
 122289535.157    95290548.3954   23270922.151 6  23270921.48044  23270925.25744
      2859.130        2227.893  
 08 11  5  1 19 30.0000000  0  9G16G 6G31G 3G23G13G21G19G25         
 110942412.934    86448632.4284   21111635.943 8  21111635.28346  21111638.24146
     -1230.807        -959.076  
 106901911.619    83300193.2654   20342754.637 8  20342754.30546  20342758.17946
       193.063         150.434  
 121278274.083    94502550.0094   23078486.165 5  23078486.15942  23078490.24942
     -2899.008       -2258.971  
 106055887.765    82640960.6314   20181762.771 8  20181762.31346  20181767.00746
      1298.252        1011.623  
 114452730.610    89183950.2274   21779629.179 7  21779628.80345  21779630.38745
     -1085.216        -845.628  
 117603674.009    91639234.7744   22379232.964 7  22379233.10744  22379236.06444
       680.387         530.170  
 125472897.744    97771090.8654   23876695.565 6  23876694.91143  23876699.16343
      -241.885        -188.486  
 116855702.024    91056397.6844   22236896.562 7  22236895.53945  22236898.37845
      2988.602        2328.777  
 122203847.905    95223779.1134   23254617.036 7  23254617.06644  23254620.08344
      2854.214        2224.061  
 08 11  5  1 20  0.0000000  0  9G16G 6G31G 3G23G13G21G19G25         
 110979431.898    86477478.3684   21118680.689 8  21118680.16046  21118683.06846
     -1237.003        -963.898  
 106896370.508    83295875.5214   20341699.863 8  20341699.53546  20341703.98046
       176.483         137.526  
 121365383.052    94570427.1414   23095062.935 5  23095063.63542  23095067.18142
     -2908.130       -2266.084  
 106017205.101    82610818.3074   20174401.847 8  20174401.22446  20174405.84046
      1280.691         997.940  
 114485579.975    89209547.1234   21785880.471 8  21785880.05045  21785881.65245
     -1104.611        -860.742  
 117583576.160    91623574.1164   22375408.551 7  22375408.12444  22375411.83844
       659.577         513.953  
 125480400.502    97776937.1924   23878124.020 7  23878123.38843  23878126.04443
      -258.220        -201.216  
 116766215.276    90986667.7734   22219867.914 7  22219867.00345  22219869.63745
      2977.268        2319.949  
 122118305.570    95157122.7684   23238338.241 7  23238338.16044  23238342.44744
      2848.696        2219.766  
 08 11  5  1 20 30.0000000  0  9G16G 6G31G 3G23G13G21G19G25         
 111016599.663    86506440.2584   21125753.298 8  21125753.02846  21125755.81145
     -1241.026        -967.035  
 106891289.287    83291916.1414   20340732.667 7  20340732.43146  20340736.80846
       162.063         126.280  
 121452728.532    94638488.5104   23111685.243 5  23111684.78842  23111687.46342
     -2915.044       -2271.479  
 105979013.015    82581058.2524   20167134.211 8  20167133.81946  20167137.56046
      1265.249         985.904  
 114518973.585    89235568.1084   21792234.944 7  21792234.50945  21792236.04345
     -1121.804        -874.132  
 117564065.746    91608371.1944   22371695.567 7  22371695.59944  22371698.95944
       640.925         499.425  
 125488356.893    97783136.9904   23879637.101 6  23879636.20143  23879639.74343
      -272.397        -212.253  
 116677032.618    90917174.8104   22202897.031 7  22202896.31145  22202898.54945
      2968.027        2312.751  
 122032892.570    95090567.2014   23222085.134 7  23222084.69644  23222087.99244
      2845.287        2217.107  
 08 11  5  1 21  0.0000000  0  9G16G 6G31G 3G23G13G21G19G25         
 111053921.653    86535522.3134   21132855.115 7  21132854.63445  21132858.45746
     -1246.246        -971.096  
 106886673.281    83288319.2534   20339854.344 8  20339854.06546  20339858.46546
       146.529         114.177  
 121540314.606    94706737.3654   23128351.457 5  23128351.93242  23128356.09242
     -2923.164       -2277.779  
 105941318.391    82551685.8264   20159960.723 8  20159959.94846  20159964.58546
      1248.583         972.924  
 114552915.303    89262016.1944   21798693.617 7  21798693.17045  21798695.13545
     -1140.135        -888.418  
 117545149.835    91593631.5134   22368096.070 7  22368095.85444  22368099.74044
       621.001         483.887  
 125496772.960    97789694.9754   23881239.540 7  23881239.19843  23881241.76443
      -287.809        -224.243  
 116588161.918    90847924.9344   22185985.475 7  22185984.57945  22185987.08545
      2957.515        2304.562  
 121947616.946    95024118.6644   23205857.459 7  23205857.44444  23205861.27144
      2840.574        2213.436  
 08 11  5  1 21 30.0000000  0  9G16G 6G31G 3G23G13G21G19G25         
 111091401.812    86564727.6224   21139987.277 7  21139986.82446  21139990.70345
     -1251.813        -975.441  
 106882525.859    83285087.5044   20339065.356 8  20339064.73246  20339069.29146
       130.585         101.756  
 121628144.647    94775176.3184   23145065.361 6  23145065.09642  23145069.53942
     -2931.562       -2284.331  
 105904125.035    82522704.0084   20152883.254 8  20152882.64046  20152887.27546
      1231.580         959.673  
 114587407.933    89288893.5554   21805257.636 7  21805257.09445  21805258.31345
     -1158.769        -902.933  
 117526833.399    91579358.9504   22364611.019 7  22364610.59444  22364614.18544
       600.710         468.088  
 125505652.970    97796614.4764   23882928.676 6  23882928.03043  23882932.33043
      -303.573        -236.564  
 116499608.933    90778922.6274   22169134.531 7  22169133.53345  22169135.51745
      2946.598        2296.055  
 121862484.856    94957781.9984   23189657.059 7  23189656.69444  23189660.89144
      2835.461        2209.451  
 08 11  5  1 22  0.0000000  0  9G16G 6G31G 3G23G13G21G19G25         
 111129040.938    86594056.7944   21147150.070 8  21147149.36246  21147153.60346
     -1257.732        -980.045  
 106878847.660    83282221.3734   20338365.210 8  20338364.79246  20338369.45146
       114.339          89.099  
 121716218.489    94843805.2634   23161824.775 6  23161824.76743  23161829.02643
     -2940.317       -2291.155  
 105867434.551    82494114.0294   20145901.218 8  20145900.71746  20145904.78746
      1214.179         946.117  
 114622450.654    89316199.5674   21811926.148 7  21811925.54545  21811926.84645
     -1177.681        -917.674  
 117509117.712    91565554.5094   22361238.949 6  22361239.20344  22361243.11044
       580.055         452.001  
 125514998.540    97803896.7514   23884707.470 7  23884707.08343  23884709.80243
      -319.750        -249.138  
 116411376.583    90710170.1614   22152344.395 7  22152342.98945  22152345.68045
      2935.263        2287.216  
 121777499.715    94891559.8164   23173485.207 7  23173484.88644  23173488.68544
      2829.929        2205.139  
 08 11  5  1 22 30.0000000  0  9G16G 6G31G 3G23G13G21G19G25         
 111166823.579    86623497.7994   21154339.934 8  21154339.57046  21154343.04146
     -1260.552        -982.243  
 106875622.835    83279708.5324   20337751.629 8  20337751.28346  20337755.81846
       101.187          78.846  
 121804519.958    94912611.5694   23178627.659 5  23178628.32043  23178632.11143
     -2945.911       -2295.508  
 105831232.351    82465904.5344   20139012.301 8  20139011.69846  20139016.00946
      1199.858         934.955  
 114658026.740    89343921.1844   21818696.160 8  21818695.84945  21818696.81945
     -1193.486        -929.988  
 117491988.178    91552206.8104   22357979.225 7  22357979.04544  22357983.68444
       562.453         438.278  
 125524794.837    97811530.2354   23886571.808 6  23886570.38843  23886574.12643
      -332.802        -259.331  
 116323451.823    90641657.3814   22135612.698 7  22135611.50645  22135614.08845
      2926.930        2280.733  
 121692648.621    94825442.0864   23157339.199 7  23157338.90844  23157342.15044
      2827.365        2203.146  
 08 11  5  1 23  0.0000000  0  9G16G 6G31G 3G23G13G21G19G25         
 111204756.350    86653055.7944   21161558.396 8  21161558.04946  21161561.51546
     -1268.558        -988.489  
 106872858.111    83277554.2054   20337225.628 8  20337225.26646  20337229.37146
        82.872          64.579  
 121893055.247    94981600.0684   23195475.810 5  23195476.12343  23195480.08043
     -2956.738       -2303.941  
 105795525.983    82438081.3974   20132217.392 8  20132216.95246  20132221.59746
      1180.311         919.723  
 114694141.849    89372062.8144   21825568.969 7  21825568.41045  21825569.60345
     -1214.442        -946.320  
 117475452.395    91539321.7864   22354833.270 7  22354833.34744  22354837.03744
       539.647         420.510  
 125535049.294    97819520.7374   23888522.989 6  23888522.27343  23888526.20543
      -351.098        -273.584  
 116235843.788    90573391.3984   22118941.291 7  22118939.89445  22118942.98345
      2913.320        2270.121  
 121607941.051    94759436.2024   23141218.346 7  23141218.16744  23141222.63644
      2819.537        2197.041  
 08 11  5  1 23 30.0000000  0  9G16G 6G31G 3G23G13G21G19G25         
 111242859.555    86682746.5914   21168808.869 8  21168808.42846  21168812.38546
     -1271.943        -991.125  
 106870573.068    83275773.6614   20336790.975 8  20336790.50546  20336794.65946
        69.180          53.905  
 121981843.810    95050785.9304   23212371.300 6  23212371.86143  23212376.49543
     -2962.835       -2308.708  
 105760336.212    82410660.8064   20125520.912 8  20125520.25946  20125524.91946
      1165.376         908.083  
 114730814.405    89400638.8304   21832547.345 7  21832546.90645  21832548.13745
     -1230.705        -958.993  
 117459531.361    91526915.7624   22351803.122 6  22351803.51044  22351806.59044
       521.437         406.312  
 125545783.129    97827884.7574   23890565.578 6  23890564.82443  23890567.81143
      -364.779        -284.236  
 116148574.706    90505389.5314   22102334.779 7  22102333.97045  22102336.06145
      2904.292        2263.079  
 121523399.538    94693559.7114   23125130.838 7  23125130.99244  23125134.97744
      2816.252        2194.482  
 08 11  5  1 24  0.0000000  0  9G16G 6G31G 3G23G13G21G19G25         
 111281094.332    86712539.9154   21176084.900 7  21176084.62046  21176087.93645
     -1276.850        -994.950  
 106868728.714    83274336.5014   20336439.740 8  20336439.53746  20336443.84446
        53.978          42.058  
 122070845.669    95120137.9964   23229308.700 5  23229308.21343  23229312.44743
     -2970.429       -2314.612  
 105725625.081    82383613.1774   20118915.870 8  20118915.19946  20118919.41346
      1148.883         895.232  
 114768004.208    89429617.8774   21839624.038 7  21839623.86145  21839625.15245
     -1248.429        -972.802  
 117444187.220    91514959.2724   22348884.179 7  22348884.13644  22348887.40744
       501.674         390.911  
 125556957.383    97836591.9784   23892691.477 6  23892691.27143  23892695.27543
      -380.002        -296.111  
 116061607.929    90437623.2294   22085785.360 7  22085784.23245  22085787.05445
      2893.666        2254.800  
 121438987.827    94627784.3724   23109068.097 6  23109067.73244  23109072.10044
      2811.367        2190.673  
 08 11  5  1 24 30.0000000  0  9G16G 6G31G 3G23G13G21G19G25         
 111319465.563    86742439.5694   21183386.394 7  21183386.12645  21183389.66045
     -1280.675        -997.931  
 106867329.234    83273246.0094   20336173.598 8  20336173.34446  20336177.66046
        39.844          31.051  
 122160064.836    95189659.3994   23246285.996 5  23246285.85543  23246290.17143
     -2976.945       -2319.678  
 105691397.937    82356942.6884   20112402.462 8  20112402.15846  20112406.62646
      1133.475         883.225  
 114805714.521    89459002.5324   21846800.034 7  21846799.55045  21846801.10645
     -1265.034        -985.743  
 117429425.092    91503456.3004   22346074.483 7  22346074.63844  22346077.95744
       482.993         376.364  
 125568577.634    97845646.7174   23894903.048 7  23894903.16843  23894906.15343
      -394.155        -307.130  
 115974950.223    90370097.7584   22069295.136 7  22069294.41645  22069296.38345
      2884.032        2247.295  
 121354713.249    94562115.8794   23093031.364 7  23093030.95144  23093034.73444
      2807.479        2187.646  
 08 11  5  1 25  0.0000000  0  9G16G 6G31G 3G23G13G21G19G25         
 111357978.104    86772449.3324   21190715.386 7  21190714.72645  21190718.29245
     -1286.177       -1002.215  
 106866379.540    83272505.9934   20335992.832 8  20335992.55546  20335996.74246
        24.087          18.768  
 122249505.769    95259353.6134   23263306.301 5  23263305.95542  23263310.66542
     -2985.135       -2326.086  
 105657660.592    82330653.8544   20105982.702 8  20105982.05646  20105986.34746
      1116.328         869.866  
 114843948.942    89488795.5744   21854075.894 8  21854075.63345  21854077.46945
     -1283.274        -999.957  
 117415250.804    91492411.3754   22343376.850 7  22343377.30444  22343380.79444
       462.591         360.463  
 125580649.505    97855053.3664   23897200.693 7  23897200.30743  23897203.11743
      -410.000        -319.476  
 115888609.172    90302819.0234   22052864.953 7  22052863.77945  22052866.83945
      2872.661        2238.439  
 121270583.535    94496560.2764   23077021.663 7  23077021.76044  23077025.52444
      2801.800        2183.219  
 08 11  5  1 25 30.0000000  0  9G16G 6G31G 3G23G13G21G19G25         
 111396633.991    86802570.7964   21198071.554 7  21198070.98945  21198074.40445
     -1290.088       -1005.265  
 106865881.077    83272117.5894   20335898.023 8  20335897.45746  20335902.05246
         9.950           7.748  
 122339169.298    95329221.2614   23280370.046 5  23280369.76942  23280372.57542
     -2991.654       -2331.159  
 105624415.502    82304748.5944   20099656.461 8  20099656.03746  20099659.61246
      1100.806         857.771  
 114882707.906    89518997.3474   21861451.147 7  21861450.80245  21861453.17445
     -1299.861       -1012.882  
 117401667.056    91481826.6184   22340792.474 7  22340793.07544  22340796.15644
       443.775         345.793  
 125593175.439    97864813.8284   23899584.527 6  23899584.10143  23899587.52943
      -424.295        -330.616  
 115802588.537    90235789.9774   22036495.916 7  22036495.05345  22036497.76745
      2862.825        2230.770  
 121186603.140    94431121.0174   23061040.553 7  23061040.82644  23061044.36144
      2797.647        2179.980  
 08 11  5  1 26  0.0000000  0  9G16G 6G31G 3G23G13G21G19G25         
 111435427.862    86832799.7854   21205453.856 7  21205453.22745  21205456.36945
     -1296.046       -1009.911  
 106865827.607    83272075.9364   20335887.487 8  20335887.06846  20335891.93046
        -6.254          -4.879  
 122429048.980    95399257.3294   23297472.503 6  23297473.39843  23297476.27343
     -3000.230       -2337.835  
 105591657.168    82279222.6224   20093422.753 8  20093422.13146  20093426.62046
      1083.188         844.040  
 114921984.163    89549602.2104   21868925.277 7  21868924.84545  21868926.89845
     -1318.434       -1027.354  
 117388668.514    91471697.8624   22338318.538 6  22338318.85144  22338323.35344
       422.898         329.536  
 125606150.523    97874924.2814   23902053.148 6  23902052.40343  23902055.70743
      -440.620        -343.341  
 115716884.596    90169007.7014   22020186.742 7  22020185.68145  22020188.73845
      2850.863        2221.448  
 121102768.777    94365795.5454   23045086.932 6  23045086.33744  23045091.58044
      2791.402        2175.118  
 08 11  5  1 26 30.0000000  0  9G16G 6G31G 3G23G13G21G19G25         
 111474378.174    86863150.6654   21212865.715 8  21212865.18245  21212868.74845
     -1300.165       -1013.118  
 106866237.713    83272395.5074   20335965.377 8  20335965.03846  20335970.00546
       -20.596         -16.054  
 122519162.762    95469475.8044   23314620.901 5  23314620.62243  23314624.18242
     -3006.896       -2343.032  
 105559405.354    82254091.3464   20087285.522 8  20087285.02646  20087289.31646
      1067.390         831.733  
 114961795.050    89580623.6584   21876501.141 7  21876500.82745  21876502.60845
     -1335.141       -1040.373  
 117376275.139    91462040.6614   22335960.167 7  22335960.33944  22335963.98144
       403.789         314.639  
 125619593.822    97885399.5744   23904610.888 6  23904611.24643  23904614.00243
      -455.121        -354.640  
 115631518.229    90102488.4774   22003941.653 7  22003940.56245  22003943.84145
      2840.676        2213.514  
 121019101.979    94300600.6704   23029166.024 7  23029166.11144  23029169.90344
      2786.844        2171.562  
 08 11  5  1 27  0.0000000  0  9G16G 6G31G 3G23G13G21G19G25         
 111513460.284    86893604.2524   21220302.720 7  21220301.98545  21220305.58545
     -1304.430       -1016.439  
 106867086.147    83273056.6324   20336126.653 8  20336126.37146  20336131.44246
       -35.089         -27.337  
 122609485.245    95539856.9344   23331808.507 5  23331807.82743  23331812.72643
     -3013.708       -2348.355  
 105527636.125    82229336.1094   20081240.094 8  20081239.57846  20081243.44946
      1051.446         819.311  
 115002114.155    89612041.1284   21884173.720 8  21884173.77845  21884175.00645
     -1351.912       -1053.437  
 117364462.698    91452836.1504   22333712.449 7  22333712.22944  22333715.93544
       384.548         299.647  
 125633480.644    97896220.4644   23907253.895 7  23907254.02743  23907256.92643
      -469.803        -366.091  
 115546467.311    90036215.0524   21987757.487 7  21987756.27945  21987759.43745
      2830.259        2205.398  
 120935580.625    94235519.1004   23013272.980 7  23013273.29944  23013276.40044
      2782.102        2167.875  
 08 11  5  1 27 30.0000000  0  9G16G 6G31G 3G23G13G21G19G25         
 111552671.582    86924158.5004   21227764.304 7  21227763.63046  21227767.38445
     -1309.062       -1020.047  
 106868369.784    83274056.8824   20336371.014 8  20336370.53746  20336375.51246
       -49.891         -38.877  
 122700012.645    95610397.6874   23349034.415 5  23349035.77143  23349038.80942
     -3020.877       -2353.927  
 105496346.784    82204954.8074   20075285.763 8  20075285.16446  20075289.18546
      1035.107         806.580  
 115042937.055    89643851.1604   21891941.985 7  21891941.36445  21891943.23545
     -1369.000       -1066.751  
 117353229.079    91444082.6634   22331574.776 7  22331574.69944  22331578.11844
       364.936         284.367  
 125647809.383    97907385.7224   23909979.934 6  23909979.86443  23909982.96243
      -484.864        -377.818  
 115461730.930    89970186.7204   21971632.716 7  21971631.25245  21971634.61045
      2819.406        2196.938  
 120852204.503    94170550.7134   22997406.421 7  22997405.86144  22997410.11844
      2776.904        2163.817  
 08 11  5  1 28  0.0000000  0  9G16G 6G31G 3G23G13G21G19G25         
 111592028.456    86954826.1804   21235253.949 8  21235253.23045  21235256.86346
     -1313.794       -1023.736  
 106870104.322    83275408.4814   20336701.386 8  20336700.92546  20336705.55146
       -64.803         -50.500  
 122790760.194    95681110.0134   23366303.850 6  23366303.82443  23366307.29143
     -3028.033       -2359.503  
 105465554.202    82180960.5884   20069426.163 8  20069425.77846  20069430.00246
      1018.649         793.751  
 115084278.446    89676065.2234   21899809.201 8  21899808.44345  21899810.01745
     -1386.131       -1080.103  
 117342590.632    91435792.9414   22329550.971 7  22329550.77444  22329553.44644
       345.216         269.002  
 125662596.541    97918908.1504   23912794.652 6  23912793.89443  23912797.93043
      -500.034        -389.631  
 115377327.284    89904417.6624   21955570.714 7  21955569.68745  21955573.03645
      2808.407        2188.372  
 120768992.560    94105710.2484   22981571.943 6  22981571.56544  22981575.57244
      2771.500        2159.610  
 08 11  5  1 28 30.0000000  0  9G16G 6G31G 3G23G13G21G19G25         
 111631545.920    86985618.9974   21242773.690 7  21242773.32845  21242776.48745
     -1319.760       -1028.389  
 106872304.298    83277122.7534   20337120.142 7  20337119.56346  20337124.14146
       -80.943         -63.070  
 122881741.879    95752004.8004   23383617.470 6  23383618.14143  23383620.82243
     -3036.457       -2366.067  
 105435274.494    82157366.0234   20063663.918 8  20063663.33546  20063667.81246
      1000.937         779.952  
 115126151.567    89708693.6134   21907777.425 7  21907777.02245  21907778.03945
     -1404.463       -1094.385  
 117332563.325    91427979.4484   22327642.599 7  22327642.45844  22327645.44744
       324.211         252.629  
 125677857.453    97930799.7644   23915698.042 6  23915697.21043  23915701.87543
      -516.430        -402.404  
 115293273.573    89838921.2864   21939575.444 7  21939574.66745  21939578.25645
      2796.095        2178.782  
 120685962.339    94041011.3994   22965772.055 7  22965771.36044  22965775.92044
      2764.771        2154.367  
 08 11  5  1 29  0.0000000  0  9G16G 6G31G 3G23G13G21G19G25         
 111671204.750    87016521.9614   21250320.154 7  21250319.76245  21250323.49745
     -1324.549       -1032.117  
 106874950.040    83279184.3844   20337623.593 8  20337623.08046  20337627.63446
       -95.857         -74.695  
 122972938.183    95823066.8244   23400971.796 6  23400971.89343  23400974.41843
     -3043.688       -2371.697  
 105405488.575    82134156.2214   20057995.571 8  20057994.87346  20057999.31246
       984.403         767.066  
 115168535.797    89741720.2764   21915842.776 7  21915842.63645  21915843.58145
     -1421.537       -1107.693  
 117323128.246    91420627.4204   22325847.199 7  22325847.59244  22325850.57544
       304.394         237.194  
 125693573.000    97943045.6374   23918688.732 6  23918687.88343  23918692.18043
      -531.669        -414.288  
 115209552.872    89773684.3954   21923644.447 7  21923643.42045  21923646.51545
      2784.893        2170.049  
 120603097.276    93976441.2354   22950003.846 7  22950004.33344  22950007.53944
      2759.157        2149.989  
 08 11  5  1 29 30.0000000  0  9G16G 6G31G 3G23G13G21G19G25         
 111710986.852    87047520.9954   21257890.586 7  21257890.17845  21257893.85945
     -1328.449       -1035.163  
 106878022.718    83281578.6844   20338208.262 8  20338207.94646  20338212.43746
      -109.877         -85.618  
 123064329.731    95894280.9854   23418362.978 6  23418362.92643  23418366.31643
     -3049.948       -2376.583  
 105376178.593    82111317.2784   20052418.333 8  20052417.40446  20052422.13346
       968.721         754.851  
 115211410.962    89775129.4774   21924001.992 7  21924001.03945  21924002.78345
     -1437.666       -1120.257  
 117314267.785    91413723.1464   22324161.228 7  22324160.81144  22324164.69944
       285.444         222.427  
 125709725.659    97955632.1184   23921762.804 6  23921762.74043  23921764.91643
      -546.047        -425.488  
 115126148.627    89708694.0944   21907773.343 7  21907771.98545  21907774.84445
      2774.513        2161.962  
 120520381.706    93911987.5574   22934263.197 7  22934262.61744  22934266.72544
      2754.333        2146.236  
 08 11  5  1 30  0.0000000  0  9G16G 6G31G 3G23G13G21G19G25         
 111750903.062    87078624.5214   21265486.633 8  21265486.16045  21265489.78945
     -1333.444       -1039.047  
 106881532.578    83284313.6454   20338876.105 8  20338875.89146  20338880.23546
      -124.926         -97.345  
 123155926.001    95965654.6544   23435793.474 6  23435793.87343  23435797.44643
     -3057.274       -2382.290  
 105347355.800    82088857.9684   20046933.548 8  20046932.73046  20046937.36946
       951.976         741.800  
 115254786.142    89808928.3074   21932255.898 7  21932255.31245  21932256.28545
     -1454.817       -1133.625  
 117305992.832    91407275.1244   22322586.479 7  22322586.78244  22322589.64444
       265.397         206.800  
 125726326.753    97968568.0274   23924922.031 6  23924921.55143  23924925.49243
      -561.512        -437.534  
 115043073.624    89643960.3384   21891964.683 7  21891963.59945  21891966.04245
      2762.989        2152.980  
 120437829.007    93847660.7814   22918554.144 7  22918554.16844  22918557.67044
      2748.367        2141.584  
 08 11  5  1 30 30.0000000  0  9G16G 6G31G 3G23G13G21G19G25         
 111790971.122    87109846.3754   21273111.251 7  21273110.55545  21273113.98245
     -1337.555       -1042.246  
 106885496.817    83287402.6724   20339630.620 8  20339630.27546  20339634.43646
      -139.136        -108.421  
 123247744.031    96037201.1144   23453266.115 6  23453265.92843  23453269.11943
     -3063.714       -2387.300  
 105319038.316    82066792.4044   20041544.775 8  20041544.42246  20041548.79746
       936.061         729.395  
 115298677.367    89843129.2414   21940607.909 7  21940607.45145  21940608.95545
     -1471.039       -1146.270  
 117298321.620    91401297.5444   22321126.863 7  22321126.58244  22321130.16944
       246.227         191.857  
 125743393.951    97981867.1464   23928170.075 6  23928169.57343  23928172.84643
      -576.113        -448.919  
 114960347.727    89579498.6184   21876222.202 7  21876221.33645  21876223.80245
      2752.268        2144.618  
 120355459.377    93783476.6714   22902879.957 7  22902879.84245  22902883.25344
      2743.146        2137.516  
 08 11  5  1 31  0.0000000  0  9G16G 6G31G 3G23G13G21G19G25         
 111831184.592    87141181.5384   21280763.771 8  21280763.22046  21280766.83446
     -1342.480       -1046.086  
 106889908.325    83290840.2094   20340470.049 8  20340469.73246  20340473.76346
      -154.092        -120.065  
 123339776.438    96108914.6354   23470778.507 6  23470778.91943  23470782.37043
     -3070.909       -2392.924  
 105291220.326    82045116.0544   20036251.505 8  20036250.91146  20036254.49246
       919.333         716.364  
 115343076.414    89877725.8834   21949056.783 7  21949056.50745  21949057.85545
     -1488.015       -1159.494  
 117291248.019    91395785.6324   22319780.685 7  22319780.51044  22319783.83944
       226.212         176.271  
 125760920.812    97995524.4094   23931504.651 6  23931504.30543  23931507.38543
      -591.514        -460.917  
 114877966.462    89515305.4364   21860545.377 7  21860544.47745  21860547.63245
      2740.665        2135.585  
 120273269.133    93719432.3344   22887239.102 7  22887238.72644  22887242.78144
      2737.054        2132.768  
 08 11  5  1 31 30.0000000  0  9G16G 6G31G 3G23G13G21G19G25         
 111871534.927    87172623.3494   21288442.157 8  21288441.35245  21288444.95245
     -1347.994       -1050.383  
 106894757.876    83294619.0844   20341392.886 8  20341392.38446  20341396.77046
      -169.655        -132.202  
 123432013.739    96180787.8044   23488330.870 6  23488331.02043  23488334.96443
     -3078.668       -2398.956  
 105263893.147    82023822.1504   20031051.378 8  20031050.75546  20031054.76846
       902.007         702.863  
 115387972.720    89912709.9834   21957600.312 7  21957600.09145  21957601.98845
     -1505.524       -1173.132  
 117284763.770    91390732.9534   22318547.024 7  22318546.90744  22318550.36044
       205.620         160.223  
 125778899.734    98009533.9714   23934925.965 6  23934924.89343  23934929.19343
      -607.520        -473.399  
 114795923.204    89451375.6494   21844933.219 7  21844932.29845  21844935.08545
      2728.425        2126.042  
 120191252.088    93655522.9524   22871632.646 7  22871632.46445  22871636.64845
      2730.265        2127.488  
 08 11  5  1 32  0.0000000  0  9G16G 6G31G 3G23G13G21G19G25         
 111912016.853    87204167.6894   21296145.842 8  21296145.30945  21296148.56745
     -1351.488       -1053.108  
 106900039.573    83298734.6874   20342397.937 8  20342397.57946  20342401.96146
      -183.165        -142.723  
 123524449.325    96252815.4764   23505920.247 6  23505920.18243  23505924.78343
     -3084.378       -2403.410  
 105237051.660    82002906.7184   20025943.294 8  20025942.56246  20025947.17846
       886.724         690.958  
 115433359.065    89948075.9454   21966236.860 7  21966236.85745  21966237.96145
     -1520.924       -1185.135  
 117278863.571    91386135.3784   22317424.166 7  22317423.99944  22317426.88844
       187.044         145.759  
 125797324.910    98023891.2354   23938432.674 6  23938432.37943  23938435.08143
      -621.500        -484.272  
 114714214.545    89387706.5834   21829384.539 7  21829383.63345  21829386.62745
      2718.114        2118.012  
 120109405.546    93591746.4454   22856056.943 7  22856056.44145  22856061.43645
      2725.438        2123.714  
 08 11  5  1 32 30.0000000  0  9G16G 6G31G 3G23G13G21G19G25         
 111952649.124    87235829.1904   21303877.719 8  21303877.41245  21303880.58245
     -1357.103       -1057.482  
 106905771.481    83303201.1174   20343488.686 8  20343488.45046  20343493.00846
      -198.759        -154.878  
 123617100.946    96325011.4904   23523552.064 6  23523552.16143  23523555.67243
     -3092.160       -2409.472  
 105210715.108    81982384.7414   20020931.466 8  20020930.88246  20020935.20046
       869.263         677.348  
 115479252.416    89983836.9794   21974970.130 7  21974969.82645  21974971.38945
     -1538.404       -1198.759  
 117273566.459    91382007.7504   22316416.088 7  22316415.73744  22316419.12444
       166.321         129.604  
 125816215.604    98038611.2604   23942026.590 6  23942026.02943  23942030.66243
      -637.641        -496.868  
 114632860.894    89324314.1564   21813903.575 7  21813902.83745  21813905.93645
      2705.664        2108.311  
 120027750.822    93528119.3994   22840518.627 7  22840518.44845  22840523.29245
      2718.408        2118.236  
 08 11  5  1 33  0.0000000  0  9G16G 6G31G 3G23G13G21G19G25         
 111993426.934    87267604.0954   21311637.482 7  21311636.72045  21311640.32345
     -1361.118       -1060.613  
 106911947.740    83308013.7864   20344664.001 8  20344663.40346  20344667.89046
      -212.704        -165.744  
 123709962.826    96397371.3654   23541222.841 6  23541222.89743  23541227.40743
     -3098.330       -2414.278  
 105184879.254    81962252.9194   20016015.491 8  20016015.06546  20016018.91046
       853.413         664.997  
 115525645.962    90019987.7764   21983798.226 7  21983797.79845  21983799.74045
     -1554.199       -1211.058  
 117268867.877    91378346.5124   22315522.507 7  22315522.06144  22315524.79044
       147.191         114.699  
 125835566.885    98053690.1714   23945709.439 6  23945709.71643  23945712.61743
      -652.169        -508.186  
 114551859.319    89261196.0684   21798489.417 7  21798488.62345  21798491.87345
      2694.714        2099.780  
 119946285.518    93464639.9384   22825015.846 7  22825015.00744  22825020.30644
      2712.878        2113.932  
 08 11  5  1 33 30.0000000  0  9G16G 6G31G 3G23G13G21G19G25         
 112034333.910    87299479.6534   21319421.891 8  21319421.31246  21319424.41446
     -1365.486       -1064.016  
 106918551.623    83313159.6634   20345920.577 8  20345920.12646  20345924.46246
      -227.007        -176.890  
 123803017.487    96469881.4364   23558930.847 6  23558930.50543  23558934.78243
     -3104.813       -2419.331  
 105159527.475    81942498.2994   20011191.076 8  20011190.62146  20011194.57446
       837.210         652.373  
 115572521.258    90056513.9674   21992718.789 7  21992718.20345  21992720.05245
     -1570.285       -1223.598  
 117264751.671    91375139.0654   22314739.106 7  22314739.52444  22314741.66744
       127.719          99.522  
 125855362.461    98069115.2944   23949475.827 6  23949475.22643  23949479.32743
      -667.034        -519.775  
 114471195.753    89198341.3684   21783139.572 7  21783138.28045  21783142.00045
      2683.358        2090.927  
 119864995.855    93401297.3544   22809547.277 7  22809547.04445  22809551.61445
      2706.931        2109.300  
 08 11  5  1 34  0.0000000  0 10G16G 6G31G 3G23G13G21G19G25G 7      
 112075371.516    87331457.0034   21327231.265 8  21327230.47445  21327233.76045
     -1369.302       -1066.985  
 106925583.925    83318639.3774   20347259.093 8  20347258.62446  20347262.72946
      -240.732        -187.589  
 123896265.572    96542542.2344   23576675.536 6  23576675.59343  23576678.78143
     -3110.676       -2423.889  
 105134661.645    81923122.3424   20006459.177 8  20006458.60246  20006463.21546
       821.538         640.161  
 115619878.094    90093415.3714   22001730.351 7  22001730.35245  22001731.74645
     -1585.769       -1235.662  
 117261219.549    91372386.7594   22314066.400 7  22314066.20144  22314069.49944
       108.784          84.772  
 125875604.123    98084888.0224   23953327.874 6  23953327.27743  23953330.88743
      -681.359        -530.939  
 114390873.308    89135752.4824   21767854.932 7  21767853.56445  21767857.32245
      2672.511        2082.477  
 119783886.084    93338094.9404   22794112.611 7  22794112.25045  22794117.12845
      2701.440        2105.016  
 127514715.556    99362134.1464   24265244.700 6  24265244.15743  24265246.51243
      3424.362        2668.342  
 08 11  5  1 34 30.0000000  0 10G16G 6G31G 3G23G13G21G19G25G 7      
 112116555.331    87363548.2794   21335068.175 7  21335067.25845  21335070.73545
     -1375.803       -1072.060  
 106933059.349    83324464.3724   20348681.371 8  20348681.26046  20348685.37746
      -257.112        -200.344  
 123989721.201    96615364.7504   23594459.512 6  23594460.10643  23594462.42143
     -3119.179       -2430.535  
 105110297.761    81904137.5134   20001822.876 8  20001822.39846  20001826.42246
       803.196         625.863  
 115667729.819    90130702.4174   22010836.137 7  22010835.68145  22010837.23945
     -1603.850       -1249.759  
 117258286.834    91370101.5194   22313508.684 7  22313508.88244  22313511.70244
        87.203          67.945  
 125896307.277    98101020.3284   23957268.256 6  23957267.30443  23957271.28743
      -698.376        -544.192  
 114310909.127    89073442.7554   21752638.435 7  21752637.04445  21752640.26945
      2658.915        2071.875  
 119702974.123    93275046.6734   22778715.339 7  22778714.48945  22778719.98845
      2693.159        2098.567  
 127412039.925    99282127.2024   24245705.896 6  24245705.80244  24245709.38144
      3421.129        2665.803  
 08 11  5  1 35  0.0000000  0 10G16G 6G31G 3G23G13G21G19G25G 7      
 112157880.048    87395749.3454   21342931.971 8  21342931.44245  21342934.60745
     -1378.796       -1074.385  
 106940971.352    83330629.5684   20350187.077 8  20350186.79646  20350191.08746
      -269.973        -210.370  
 124083377.557    96688343.6594   23612281.653 6  23612282.36043  23612285.63543
     -3124.186       -2434.422  
 105086430.140    81885539.3804   19997281.058 8  19997280.48146  19997284.76946
       788.339         614.289  
 115716068.716    90168369.0584   22020034.706 7  22020033.73545  22020036.00645
     -1618.357       -1261.058  
 117255948.036    91368279.0584   22313063.649 7  22313063.39844  22313066.72044
        69.100          53.849  
 125917466.543    98117508.0664   23961294.345 6  23961293.98443  23961298.17143
      -711.879        -554.706  
 114231299.555    89011409.3444   21737488.850 7  21737487.94845  21737490.70445
      2648.759        2063.967  
 119622256.879    93212150.1244   22763355.427 7  22763355.35545  22763359.96345
      2688.325        2094.803  
 127309408.552    99202154.7604   24226174.420 6  24226173.75743  24226179.66943
      3421.310        2665.940  
 08 11  5  1 35 30.0000000  0 10G16G 6G31G 3G23G13G21G19G25G 7      
 112199345.747    87428060.2774   21350822.660 8  21350821.94545  21350825.16645
     -1384.409       -1078.760  
 106949319.984    83337134.9934   20351775.744 8  20351775.39146  20351779.78646
      -285.397        -222.392  
 124177234.448    96761478.8214   23630142.330 6  23630142.69843  23630146.16543
     -3131.760       -2440.320  
 105063059.283    81867328.3374   19992833.773 8  19992833.24546  19992837.52946
       770.896         600.697  
 115764893.662    90206414.4574   22029325.757 7  22029325.22845  22029326.90945
     -1635.438       -1274.369  
 117254203.884    91366919.9704   22312731.340 7  22312731.36944  22312734.48544
        48.356          37.670  
 125939082.684    98134351.8164   23965408.135 6  23965408.14843  23965410.09843
      -728.014        -567.301  
 114152047.203    88949654.2804   21722407.573 7  21722406.44145  21722409.29745
      2635.906        2053.949  
 119541737.628    93149407.8664   22748033.182 7  22748033.30245  22748037.29745
      2680.785        2088.925  
 127206824.606    99122219.2484   24206653.825 6  24206654.18743  24206657.52343
      3418.779        2663.988  
 08 11  5  1 36  0.0000000  0 10G16G 6G31G 3G23G13G21G19G25G 7      
 112240941.542    87460472.5744   21358738.287 8  21358737.90745  21358740.80745
     -1389.184       -1082.478  
 106958092.987    83343971.1014   20353445.166 7  20353444.99246  20353449.05746
      -299.969        -233.742  
 124271279.468    96834760.6074   23648038.388 6  23648038.67643  23648042.17243
     -3138.459       -2445.547  
 105040174.000    81849495.6614   19988479.128 8  19988478.71746  19988482.62446
       754.255         587.730  
 115814191.061    90244827.9944   22038707.312 7  22038706.56345  22038708.22445
     -1651.580       -1286.947  
 117253042.859    91366015.2474   22312510.336 7  22312510.58944  22312513.86344
        28.489          22.195  
 125961144.297    98151542.6764   23969606.114 6  23969605.50643  23969608.57643
      -743.302        -579.185  
 114073142.036    88888169.7484   21707392.754 7  21707391.77845  21707394.46145
      2623.866        2044.567  
 119461407.406    93086812.8864   22732747.082 7  22732746.53345  22732750.90445
      2674.011        2083.638  
 127104278.645    99042313.3224   24187140.684 6  24187140.58543  24187143.58443
      3417.062        2662.637  
 08 11  5  1 36 30.0000000  0 10G16G 6G31G 3G23G13G21G19G25G 7      
 112282677.338    87492993.9704   21366680.454 8  21366679.74445  21366682.32745
     -1393.347       -1085.729  
 106967299.460    83351144.9814   20355196.991 8  20355196.68846  20355200.69646
      -313.905        -244.603  
 124365521.486    96908195.8844   23665971.991 6  23665971.30443  23665976.18843
     -3144.468       -2450.241  
 105017784.837    81832049.5714   19984218.251 8  19984217.52446  19984222.05546
       738.217         575.236  
 115863968.606    90283615.6784   22048179.480 7  22048179.08145  22048180.30945
     -1667.038       -1298.994  
 117252475.042    91365572.7804   22312402.287 7  22312402.57444  22312405.54744
         9.234           7.196  
 125983661.113    98169088.2474   23973890.520 6  23973889.88143  23973893.94443
      -757.977        -590.627  
 113994596.117    88826965.1464   21692445.749 7  21692444.59345  21692447.65745
      2612.385        2035.623  
 119381278.855    93024375.0604   22717499.346 7  22717499.20845  22717503.05045
      2667.751        2078.768  
 127001783.705    98962447.1394   24167636.011 6  24167636.93844  24167639.95444
      3415.793        2661.664  
 08 11  5  1 37  0.0000000  0 10G16G 6G31G 3G23G13G21G19G25G 7      
 112324551.209    87525622.9614   21374648.598 8  21374647.94145  21374650.97945
     -1396.847       -1088.450  
 106976936.698    83358654.5164   20357030.927 8  20357030.31846  20357034.54446
      -327.162        -254.937  
 124459957.197    96981782.1004   23683942.417 6  23683943.01443  23683946.24343
     -3149.816       -2454.409  
 104995889.958    81814988.6384   19980051.694 8  19980051.04946  19980055.17546
       722.828         563.244  
 115914222.446    90322774.4884   22057742.559 7  22057741.93645  22057744.02745
     -1681.786       -1310.482  
 117252498.214    91365590.8254   22312407.275 7  22312407.45544  22312409.86444
        -9.381          -7.312  
 126006631.263    98186987.0504   23978261.730 6  23978261.01743  23978264.38843
      -771.992        -601.558  
 113916409.048    88766040.1704   21677567.407 7  21677566.48645  21677569.10545
      2601.480        2027.127  
 119301352.599    92962094.8784   22702289.711 7  22702289.11945  22702293.51945
      2662.053        2074.328  
 126899340.019    98882620.9404   24148140.487 6  24148140.80043  24148145.08543
      3415.160        2661.167  
 08 11  5  1 37 30.0000000  0 10G16G 6G31G 3G23G13G21G19G25G 7      
 112366547.741    87558347.5184   21382640.120 8  21382639.37745  21382643.10545
     -1401.962       -1092.443  
 106986988.483    83366487.0794   20358943.738 8  20358943.34346  20358947.40246
      -341.988        -266.488  
 124554570.005    97055506.3324   23701946.763 6  23701946.89542  23701950.98742
     -3156.727       -2459.810  
 104974473.659    81798300.6204   19975976.405 8  19975975.81846  19975980.08946
       705.878         550.031  
 115964935.009    90362290.7544   22067393.236 7  22067393.24945  22067394.23445
     -1698.058       -1323.165  
 117253097.025    91366057.4224   22312521.021 7  22312520.57744  22312523.76344
       -29.575         -23.045  
 126030039.247    98205227.0194   23982716.403 6  23982715.24843  23982719.19843
      -787.614        -613.722  
 113838567.426    88705384.3794   21662754.404 7  21662753.54545  21662756.77045
      2588.913        2017.339  
 119221615.722    92899962.2614   22687115.978 7  22687115.84945  22687119.74945
      2654.677        2068.575  
 126796934.822    98802824.7354   24128654.493 7  24128655.44044  24128657.85444
      3412.802        2659.316  
 08 11  5  1 38  0.0000000  0 10G16G 6G31G 3G23G13G21G19G25G 7      
 112408674.318    87591173.4084   21390656.448 7  21390655.57645  21390659.34445
     -1407.028       -1096.385  
 106997461.418    83374647.8064   20360936.578 8  20360936.21346  20360940.30146
      -356.721        -277.965  
 124649366.663    97129373.7954   23719986.024 6  23719985.25242  23719988.95942
     -3163.559       -2465.111  
 104953543.492    81781991.4054   19971993.301 8  19971992.52846  19971997.14446
       688.938         536.832  
 116016111.805    90402168.7584   22077131.410 7  22077131.28245  22077132.76445
     -1714.242       -1335.770  
 117254278.567    91366978.0844   22312745.884 7  22312745.79144  22312748.77844
       -49.724         -38.748  
 126053892.768    98223814.1824   23987255.022 6  23987255.13343  23987258.55743
      -803.157        -625.828  
 113761080.359    88645004.8584   21648009.193 7  21648008.24845  21648011.15445
      2576.335        2007.533  
 119142078.443    92837985.1714   22671980.867 7  22671981.28545  22671984.41245
      2647.244        2062.781  
 126694578.005    98723066.1614   24109177.734 6  24109177.12644  24109179.83744
      3410.430        2657.475  
 08 11  5  1 38 30.0000000  0 10G16G 6G31G 3G23G13G21G19G25G 7      
 112450938.731    87624106.7024   21398698.969 7  21398698.73145  21398702.15145
     -1411.208       -1099.643  
 107008361.918    83383141.7154   20363010.913 7  20363010.18446  20363014.59946
      -370.570        -288.755  
 124744352.665    97203388.7864   23738061.296 6  23738060.09542  23738065.07042
     -3169.469       -2469.711  
 104933106.895    81766066.7934   19968104.351 8  19968103.66646  19968108.54546
       672.897         524.335  
 116067757.793    90442412.3724   22086959.144 7  22086958.74945  22086959.72245
     -1729.436       -1347.620  
 117256050.215    91368358.5764   22313082.331 7  22313082.25544  22313086.15944
       -68.978         -53.749  
 126078198.696    98242753.8574   23991880.673 6  23991880.58543  23991883.96243
      -817.852        -637.287  
 113683956.850    88584908.6394   21633333.124 7  21633331.95845  21633335.29545
      2564.598        1998.384  
 119062750.406    92776171.1244   22656885.247 7  22656885.14744  22656888.02744
      2640.652        2057.650  
 126592279.216    98643352.8744   24089709.485 6  24089708.38043  24089714.16143
      3408.865        2656.248  
 08 11  5  1 39  0.0000000  0 10G16G 6G31G 3G23G13G21G19G25G 7      
 112493345.532    87657150.9484   21406768.672 7  21406768.45645  21406771.81245
     -1417.002       -1104.155  
 107019693.838    83391971.7834   20365167.352 8  20365166.75246  20365170.98946
      -385.980        -300.764  
 124839532.269    97277554.6584   23756173.269 6  23756174.80542  23756177.15342
     -3176.956       -2475.533  
 104913168.647    81750530.4974   19964310.794 8  19964310.13246  19964314.22246
       655.254         510.586  
 116119875.559    90483023.6024   22096876.391 7  22096875.89945  22096878.97045
     -1746.169       -1360.657  
 117258416.393    91370202.3384   22313532.619 6  22313532.46744  22313536.18944
       -89.861         -70.024  
 126102962.502    98262050.3404   23996593.075 6  23996593.17643  23996596.39943
      -834.153        -650.002  
 113607203.413    88525100.7724   21618727.734 7  21618726.75945  21618729.13545
      2551.189        1987.930  
 118983639.031    92714525.8994   22641830.322 7  22641830.43144  22641833.68144
      2632.325        2051.155  
 126490045.689    98563690.4284   24070256.054 7  24070255.72044  24070260.20544
      3405.592        2653.701  
 08 11  5  1 39 30.0000000  0 10G16G 6G31G 3G23G13G21G19G25G 7      
 112535903.756    87690313.1724   21414867.463 8  21414866.63745  21414870.71645
     -1421.268       -1107.479  
 107031465.281    83401144.3334   20367407.457 8  20367407.17346  20367410.58946
      -399.845        -311.567  
 124934913.051    97351877.2984   23774323.813 6  23774323.31241  23774326.46941
     -3182.841       -2480.132  
 104893737.379    81735389.2554   19960613.005 8  19960612.31346  19960616.53046
       639.117         498.016  
 116172471.980    90524007.7924   22106885.531 7  22106885.06645  22106887.32145
     -1761.307       -1372.444  
 117261386.320    91372516.5614   22314098.189 7  22314098.63644  22314101.51744
      -109.180         -85.077  
 126128192.294    98281709.9114   24001394.643 6  24001393.12743  24001396.52043
      -848.890        -661.487  
 113530830.627    88465589.5254   21604194.210 7  21604192.92245  21604196.07645
      2539.248        1978.637  
 118904755.976    92653058.5974   22626819.955 7  22626819.91444  22626822.99144
      2625.469        2045.816  
 126387889.022    98484087.8754   24050816.030 7  24050815.93844  24050819.68344
      3403.775        2652.300  
 08 11  5  1 40  0.0000000  0 10G16G 6G31G 3G23G13G21G19G25G 7      
 112578581.616    87723568.6444   21422989.137 7  21422988.76745  21422991.49445
     -1425.092       -1110.461  
 107043643.543    83410633.8914   20369725.022 8  20369724.73346  20369728.34646
      -413.224        -321.992  
 125030461.724    97426330.7264   23792506.626 6  23792507.00641  23792509.48042
     -3188.261       -2484.350  
 104874781.405    81720618.3654   19957005.580 8  19957004.89946  19957009.25946
       623.442         485.799  
 116225512.872    90565338.3374   22116978.932 7  22116978.49045  22116980.47945
     -1775.929       -1383.846  
 117264927.587    91375275.9904   22314771.801 6  22314771.93944  22314775.11044
      -128.060         -99.793  
 126153856.076    98301707.6404   24006278.288 6  24006277.32643  24006281.10243
      -863.222        -672.653  
 113454808.287    88406351.3504   21589727.514 7  21589726.79045  21589729.13145
      2527.709        1969.639  
 118826071.803    92591746.2694   22611846.951 7  22611846.93044  22611849.90144
      2618.951        2040.742  
 126285779.612    98404522.1204   24031385.343 7  24031385.38444  24031387.37544
      3402.329        2651.163  
 08 11  5  1 40 30.0000000  0 10G16G 6G31G 3G23G13G21G19G25G 7      
 112621390.187    87756925.9524   21431135.075 8  21431134.69745  21431138.02045
     -1429.150       -1113.618  
 107056238.645    83420448.2604   20372121.708 8  20372121.22746  20372125.29046
      -426.791        -332.566  
 125126188.295    97500922.8244   23810722.086 6  23810723.51341  23810723.75341
     -3193.847       -2488.699  
 104856311.489    81706226.2264   19953490.759 8  19953490.15846  19953494.45946
       607.557         473.421  
 116279006.962    90607022.0244   22127159.450 8  22127159.17445  22127159.75545
     -1790.685       -1395.336  
 117269050.964    91378488.9934   22315557.057 7  22315556.97544  22315560.05344
      -147.159        -114.680  
 126179964.228    98322051.6514   24011246.167 6  24011245.35043  24011248.64243
      -877.704        -683.910  
 113379149.117    88347396.1664   21575330.153 7  21575329.11545  21575331.61145
      2515.877        1960.425  
 118747600.147    92530599.5254   22596913.615 7  22596913.68144  22596917.14944
      2612.122        2035.422  
 126183731.001    98325003.7624   24011965.746 7  24011965.96244  24011969.34944
      3400.531        2649.765  
 08 11  5  1 41  0.0000000  0 10G16G 6G31G 3G23G13G21G19G25G 7      
 112664327.810    87790383.8324   21439305.692 7  21439305.22445  21439308.33945
     -1433.404       -1116.935  
 107069247.871    83430585.3134   20374597.304 8  20374596.60146  20374601.11446
      -440.494        -343.238  
 125222089.655    97575651.0844   23828971.701 6  23828972.88741  23828975.86241
     -3199.610       -2493.171  
 104838326.163    81692211.6904   19950068.313 8  19950067.70946  19950072.27046
       591.460         460.878  
 116332950.071    90649055.5994   22137423.755 7  22137423.10345  22137424.91745
     -1805.535       -1406.913  
 117273754.100    91382153.7614   22316451.677 7  22316451.33544  22316454.85344
      -166.415        -129.676  
 126206515.389    98342740.8434   24016298.381 6  24016298.26643  24016301.62243
      -892.408        -695.378  
 113303852.674    88288723.6204   21561001.484 7  21561000.51545  21561003.40545
      2503.805        1951.017  
 118669341.675    92469618.9064   22582021.031 6  22582020.25544  22582025.10244
      2605.044        2029.904  
 126081743.982    98245533.3954   23992559.261 7  23992559.21844  23992561.37744
      3398.536        2648.212  
 08 11  5  1 41 30.0000000  0 10G16G 6G31G 3G23G13G21G19G25G 7      
 112707399.160    87823945.9084   21447501.960 7  21447501.60345  21447505.08245
     -1438.498       -1120.915  
 107082674.916    83441047.9414   20377152.353 8  20377151.82046  20377156.16746
      -455.097        -354.620  
 125318169.350    97650518.3264   23847255.011 6  23847255.55541  23847257.97441
     -3206.178       -2498.334  
 104820829.958    81678578.2884   19946738.871 8  19946738.07946  19946742.80546
       574.470         447.633  
 116387344.963    90691441.2034   22147774.966 7  22147774.71645  22147776.31445
     -1821.240       -1419.146  
 117279041.487    91386273.7914   22317457.705 7  22317457.37644  22317460.96944
      -186.549        -145.366  
 126233513.452    98363778.0454   24021436.502 6  24021436.32343  24021439.33243
      -908.005        -707.542  
 113228925.835    88230339.0904   21546744.078 7  21546742.70045  21546745.30645
      2490.812        1940.891  
 118591303.664    92408810.0764   22567170.824 7  22567170.36344  22567173.91844
      2596.983        2023.620  
 125979825.777    98166116.6234   23973163.952 7  23973164.47144  23973166.91844
      3395.521        2645.862  
 08 11  5  1 42  0.0000000  0 10G16G 6G31G 3G23G13G21G19G25G 7      
 112750615.202    87857620.7274   21455725.597 7  21455724.79045  21455728.10745
     -1442.570       -1124.074  
 107096529.727    83451843.9014   20379788.848 7  20379788.46945  20379792.84646
      -468.564        -365.113  
 125414437.204    97725532.1344   23865574.430 6  23865574.43441  23865578.71641
     -3211.703       -2502.621  
 104803833.760    81665334.4914   19943504.802 8  19943504.18846  19943508.45246
       558.578         435.258  
 116442200.106    90734185.4494   22158213.016 7  22158212.60245  22158214.57845
     -1835.770       -1430.474  
 117284923.663    91390857.2874   22318576.689 6  22318575.89444  22318580.31344
      -205.610        -160.210  
 126260969.922    98385172.6724   24026661.406 6  24026660.45443  24026663.70343
      -922.482        -718.813  
 113154380.944    88172252.1704   21532558.313 7  21532557.29045  21532560.07845
      2478.826        1931.547  
 118513499.691    92348183.5934   22552365.426 6  22552364.92844  22552368.77544
      2589.922        2018.121  
 125877989.717    98086763.8574   23953784.836 7  23953785.61244  23953788.27144
      3393.504        2644.293  
 08 11  5  1 42 30.0000000  0 10G16G 6G31G 3G23G13G21G19G25G 7      
 112793983.352    87891414.0724   21463978.172 7  21463977.40845  21463981.84145
     -1448.740       -1128.883  
 107110818.518    83462978.0224   20382508.004 8  20382507.61946  20382511.81346
      -484.099        -377.211  
 125510899.178    97800697.2284   23883930.326 6  23883930.79441  23883934.21641
     -3219.200       -2508.464  
 104787344.630    81652485.8134   19940366.958 8  19940366.40246  19940370.48446
       540.580         421.235  
 116497520.254    90777292.0324   22168739.975 7  22168739.15445  22168742.24245
     -1852.324       -1443.376  
 117291407.423    91395909.5534   22319811.298 7  22319810.75444  22319814.25044
      -226.758        -176.695  
 126288891.555    98406929.7724   24031975.264 6  24031974.20643  24031977.35843
      -939.046        -731.719  
 113080226.414    88114469.4284   21518447.028 7  21518446.19546  21518449.38346
      2464.683        1920.533  
 118435939.464    92287747.0474   22537605.301 6  22537605.11244  22537610.37044
      2580.630        2010.891  
 125776245.527    98007482.7334   23934425.251 7  23934425.26844  23934426.20644
      3389.302        2641.013  
 08 11  5  1 43  0.0000000  0 10G16G 6G31G 3G23G13G21G19G25G 7      
 112837496.090    87925320.0894   21472258.642 8  21472258.46045  21472261.31545
     -1452.779       -1132.033  
 107125533.032    83474443.8794   20385307.982 8  20385307.66546  20385311.77346
      -497.502        -387.668  
 125607546.675    97876006.9364   23902322.610 6  23902322.76641  23902323.89741
     -3224.594       -2512.668  
 104771355.052    81640026.4034   19937324.267 8  19937323.64546  19937327.99746
       524.725         408.874  
 116553295.866    90820753.5144   22179354.607 7  22179354.35545  22179355.84645
     -1866.701       -1454.570  
 117298485.238    91401424.7124   22321158.381 7  22321158.53344  22321161.10944
      -245.768        -191.504  
 126317270.968    98429043.5964   24037374.980 6  24037374.30143  24037378.50043
      -953.549        -743.021  
 113006456.854    88056986.6804   21504409.108 8  21504408.11846  21504411.08046
      2452.600        1911.115  
 118358618.246    92227496.7534   22522891.686 6  22522890.94944  22522896.62044
      2573.417        2005.267  
 125674588.782    97928269.7104   23915080.036 7  23915079.91244  23915082.10144
      3387.132        2639.320  
 08 11  5  1 43 30.0000000  0 10G16G 6G31G 3G23G13G21G19G25G 7      
 112881140.544    87959328.7414   21480563.978 8  21480563.37045  21480567.07345
     -1456.902       -1135.255  
 107140659.078    83486230.4064   20388186.474 7  20388186.04746  20388190.10545
      -510.946        -398.144  
 125704365.183    97951449.9254   23920746.151 5  23920745.85541  23920748.12541
     -3229.974       -2516.862  
 104755851.364    81627945.6044   19934373.845 8  19934373.48546  19934377.80646
       508.813         396.476  
 116609511.611    90864557.9654   22190051.871 7  22190051.30545  22190053.07445
     -1881.046       -1465.750  
 117306143.222    91407391.9574   22322615.672 7  22322615.25544  22322618.53444
      -264.813        -206.341  
 126346094.094    98451503.1304   24042860.226 6  24042858.99143  24042863.26843
      -968.044        -754.310  
 112933060.579    87999794.7964   21490442.382 7  21490441.05646  21490444.33546
      2440.437        1901.632  
 118281525.549    92167424.5214   22508221.453 6  22508221.33944  22508226.27744
      2566.062        1999.521  
 125573008.433    97849116.2324   23895749.212 6  23895748.72044  23895751.66344
      3384.844        2637.528  
 08 11  5  1 44  0.0000000  0 10G16G 6G31G 3G23G13G21G19G25G 7      
 112924930.767    87993450.9764   21488896.659 7  21488896.16145  21488899.67345
     -1461.974       -1139.202  
 107156209.787    83498347.8354   20391145.418 7  20391145.17345  20391149.28245
      -525.297        -409.321  
 125801367.468    98027036.0154   23939206.234 5  23939202.86041  23939205.33841
     -3236.326       -2521.791  
 104740847.940    81616254.6234   19931518.805 8  19931518.36446  19931522.76546
       491.917         383.309  
 116666178.683    90908714.0924   22200835.251 7  22200834.58945  22200837.09645
     -1896.280       -1477.619  
 117314394.999    91413821.8934   22324186.081 7  22324185.80244  22324188.80844
      -284.831        -221.943  
 126375375.328    98474319.6494   24048431.904 6  24048431.27843  24048434.41143
      -983.517        -766.381  
 112860053.091    87942905.8644   21476549.511 7  21476548.53046  21476551.47746
      2427.195        1891.321  
 118204677.858    92107543.2114   22493598.274 7  22493597.50444  22493602.99244
      2557.605        1992.939  
 125471521.070    97770035.1894   23876437.580 7  23876437.75144  23876439.34444
      3381.441        2634.888  
 08 11  5  1 44 30.0000000  0 10G16G 6G31G 3G23G13G21G19G25G 7      
 112968862.681    88027683.6254   21497257.059 7  21497256.62845  21497259.94245
     -1466.786       -1142.950  
 107172179.842    83510792.0404   20394184.707 8  20394184.21745  20394188.57346
      -539.340        -420.267  
 125898548.206    98102761.2204   23957696.808 5  23957699.06241  23957701.17041
     -3242.355       -2526.481  
 104726340.224    81604949.9044   19928758.195 8  19928757.58346  19928761.98946
       475.306         370.374  
 116723290.803    90953217.0074   22211703.114 7  22211702.69345  22211704.75845
     -1911.152       -1489.210  
 117323235.648    91420710.7084   22325868.338 7  22325869.05244  22325871.27944
      -304.506        -237.276  
 126405108.984    98497488.7204   24054090.926 6  24054090.47743  24054092.97043
      -998.691        -778.199  
 112787432.073    87886318.0704   21462730.092 7  21462729.01246  21462731.73946
      2414.210        1881.201  
 118128073.555    92047851.5474   22479021.546 7  22479021.00344  22479024.95444
      2549.359        1986.528  
 125370125.371    97691025.5754   23857142.127 7  23857142.35044  23857144.55844
      3378.287        2632.433  
 08 11  5  1 45  0.0000000  0 10G16G 6G31G 3G23G13G21G19G25G 7      
 113012939.042    88062028.8224   21505644.936 7  21505644.48845  21505647.33245
     -1472.058       -1147.052  
 107188570.810    83523564.2224   20397303.924 7  20397303.50146  20397307.85546
      -553.827        -431.553  
 125995908.681    98178626.4434   23976225.732 5  23976223.03641  23976227.57541
     -3248.802       -2531.513  
 104712330.295    81594033.0694   19926092.322 8  19926091.68946  19926096.23446
       458.265         357.091  
 116780848.142    90998066.8554   22222656.034 7  22222655.50445  22222657.64545
     -1926.404       -1501.095  
 117332667.617    91428060.2874   22327663.091 7  22327663.00244  22327666.51044
      -324.691        -253.006  
 126435297.885    98521012.5084   24059834.951 6  24059834.74243  24059837.79943
     -1014.322        -790.376  
 112715201.222    87830034.3034   21448984.786 7  21448984.01246  21448986.77846
      2400.743        1870.707  
 118051717.828    91988353.5874   22464491.599 7  22464490.98344  22464495.05444
      2540.582        1979.670  
 125268826.309    97612091.2864   23837865.632 6  23837865.32044  23837868.60544
      3374.555        2629.528  
 08 11  5  1 45 30.0000000  0 10G16G 6G31G 3G23G13G21G19G25G 7      
 113057167.859    88096492.8274   21514061.094 7  21514060.52645  21514064.18745
     -1475.859       -1150.027  
 107205389.557    83536669.7434   20400504.294 7  20400504.14746  20400508.19246
      -566.782        -441.645  
 126093455.977    98254637.2374   23994788.011 5  23994787.66441  23994793.70841
     -3253.685       -2535.298  
 104698825.844    81583510.1224   19923522.783 8  19923522.20146  19923526.46446
       442.685         344.949  
 116838856.516    91043268.1664   22233694.700 7  22233694.48145  22233696.25845
     -1940.124       -1511.787  
 117342698.391    91435876.4524   22329571.199 7  22329571.24344  22329574.88344
      -343.358        -267.549  
 126465950.231    98544897.4404   24065668.165 6  24065668.08043  24065670.92143
     -1028.515        -801.446  
 112643370.073    87774061.9984   21435315.878 7  21435314.62346  21435317.44346
      2388.655        1861.284  
 117975621.275    91929057.5794   22450011.031 7  22450010.32644  22450015.25344
      2533.180        1973.905  
 125167634.223    97533240.3554   23818609.442 7  23818609.64244  23818612.75544
      3372.221        2627.710  
 08 11  5  1 46  0.0000000  0 10G16G 6G31G 3G23G13G21G19G25G 7      
 113101537.103    88131066.2434   21522504.523 7  21522503.73645  21522507.18145
     -1481.244       -1154.216  
 107222622.896    83550098.3174   20403783.526 8  20403783.08046  20403787.41346
      -581.246        -452.926  
 126191176.033    98330782.6574   24013384.859 5  24013383.27641  24013386.84941
     -3260.117       -2540.375  
 104685814.949    81573371.7584   19921046.512 8  19921046.02146  19921050.23046
       425.578         331.620  
 116897300.976    91088809.2754   22244816.551 7  22244815.86445  22244817.97645
     -1955.300       -1523.612  
 117353314.916    91444149.0544   22331592.253 7  22331592.24244  22331594.86044
      -363.555        -283.291  
 126497053.130    98569133.4354   24071587.128 6  24071586.96343  24071590.09943
     -1044.151        -813.627  
 112571928.084    87718392.9184   21421721.180 7  21421720.17446  21421722.38046
      2374.982        1850.634  
 117899774.234    91869955.9984   22435577.800 7  22435577.45444  22435581.04444
      2524.114        1966.842  
 125066539.674    97454465.3964   23799370.755 7  23799371.68544  23799374.52744
      3368.257        2624.615  
 08 11  5  1 46 30.0000000  0 10G16G 6G31G 3G23G13G21G19G25G 7      
 113146049.236    88165751.0164   21530974.603 7  21530974.15045  21530977.48045
     -1485.026       -1157.161  
 107240271.926    83563850.8094   20407141.846 7  20407141.53446  20407145.77146
      -594.126        -462.961  
 126289070.034    98407063.6844   24032011.931 5  24032012.02741  24032011.40541
     -3264.941       -2544.133  
 104673299.095    81563619.1464   19918664.683 8  19918663.87046  19918668.45446
       410.014         319.496  
 116956181.397    91134690.1014   22256020.709 7  22256020.20845  22256022.76445
     -1968.826       -1534.154  
 117364518.738    91452879.2964   22333723.932 7  22333724.09844  22333726.51144
      -382.172        -297.793  
 126528607.721    98593721.4254   24077591.937 6  24077591.31243  24077594.98543
     -1058.276        -824.627  
 112500878.923    87663029.9524   21408200.682 7  21408199.67545  21408202.18545
      2362.814        1841.155  
 117824181.448    91811052.5384   22421193.145 7  22421192.42144  22421196.41244
      2516.552        1960.947  
 124965547.640    97375770.3234   23780153.080 7  23780152.92444  23780155.93244
      3365.742        2622.653  
 08 11  5  1 47  0.0000000  0 10G16G 6G31G 3G23G13G21G19G25G 7      
 113190701.043    88200544.6104   21539471.486 7  21539471.23145  21539474.48145
     -1490.850       -1161.702  
 107258332.503    83577923.9764   20410579.021 8  20410578.41346  20410582.59646
      -609.000        -474.550  
 126387133.677    98483476.8484   24050673.092 4  24050673.07941  24050678.25541
     -3271.713       -2549.393  
 104661275.067    81554249.7714   19916376.715 8  19916376.08646  19916380.16546
       392.484         305.827  
 117015492.119    91180906.2124   22267307.727 7  22267306.92545  22267309.24645
     -1984.295       -1546.200  
 117376306.254    91462064.3624   22335966.666 7  22335966.84344  22335969.93344
      -402.757        -313.849  
 126560611.234    98618659.2074   24083681.371 6  24083679.44043  24083684.98243
     -1074.383        -837.195  
 112430221.152    87607971.9564   21394754.955 7  21394754.01246  21394756.52145
      2348.601        1830.071  
 117748842.547    91752346.9174   22406857.203 7  22406857.01244  22406860.21344
      2506.910        1953.437  
 124864657.551    97297154.6944   23760954.735 6  23760955.12944  23760958.06844
      3361.142        2619.072  
 08 11  5  1 47 30.0000000  0 10G16G 6G31G 3G23G13G21G19G25G 7      
 113235484.583    88235440.8594   21547993.476 7  21547992.86545  21547996.01745
     -1495.078       -1164.994  
 107276795.564    83592310.7714   20414092.319 8  20414091.97946  20414095.87746
      -622.228        -484.852  
 126485357.372    98560014.6574   24069363.915 4  24069363.96141  24069367.86141
     -3276.998       -2553.520  
 104649734.645    81545257.2314   19914180.626 8  19914180.21146  19914184.42946
       376.518         293.388  
 117075222.918    91227449.6564   22278673.771 7  22278673.36445  22278675.45245
     -1998.097       -1556.959  
 117388668.637    91471697.3684   22338319.002 7  22338318.54344  22338322.30844
      -421.747        -328.637  
 126593054.954    98643939.9914   24089855.310 6  24089854.08643  24089858.82143
     -1088.881        -848.468  
 112359947.836    87553213.5374   21381382.469 8  21381381.70946  21381384.07746
      2335.925        1820.198  
 117673751.934    91693834.7664   22392567.436 7  22392566.82544  22392570.22644
      2498.760        1947.087  
 124763863.745    97218614.0904   23741772.646 6  23741773.08944  23741777.66344
      3358.054        2616.674  
 08 11  5  1 48  0.0000000  0 10G16G 6G31G 3G23G13G21G19G25G 7      
 113280416.483    88270452.7164   21556543.683 7  21556542.93245  21556546.48745
     -1499.909       -1168.761  
 107295676.404    83607023.1164   20417685.269 8  20417684.98446  20417688.95546
      -636.019        -495.598  
 126583756.366    98636689.0654   24088088.390 4  24088088.48441  24088095.36741
     -3282.577       -2557.863  
 104638694.001    81536654.1344   19912079.538 8  19912079.03146  19912083.70646
       359.996         280.516  
 117135387.421    91274331.0484   22290122.792 7  22290122.26845  22290124.52645
     -2012.385       -1568.088  
 117401621.630    91481790.6004   22340783.793 7  22340783.26544  22340787.38444
      -441.318        -343.884  
 126625954.906    98669576.2984   24096116.392 6  24096114.93143  24096119.17343
     -1103.970        -860.234  
 112290077.109    87498768.8284   21368086.816 8  21368085.50046  21368088.32646
      2322.583        1809.806  
 117598928.666    91635530.9354   22378328.510 7  22378328.25444  22378332.35844
      2489.920        1940.195  
 124663185.524    97140163.5344   23722614.769 6  23722614.67044  23722618.85444
      3354.298        2613.747  
 08 11  5  1 48 30.0000000  0 10G16G 6G31G 3G23G13G21G19G25G 7      
 113325490.442    88305575.2754   21565121.352 7  21565120.58545  21565123.37845
     -1506.125       -1173.609  
 107314967.581    83622055.1974   20421356.175 8  20421355.94846  20421360.23646
      -651.138        -507.382  
 126682323.144                    24106844.847 4                                
     -3289.602                  
 104628146.138    81528435.0264   19910072.400 8  19910071.53846  19910076.32146
       342.082         266.558  
 117195976.802    91321543.5274   22301652.346 7  22301652.05345  22301654.61045
     -2027.986       -1580.245  
 117415158.108    91492338.4874   22343359.808 7  22343359.39144  22343363.58844
      -462.225        -360.177  
 126659304.050    98695562.6084   24102462.418 6  24102461.38543  24102464.91643
     -1120.401        -873.048  
 112220604.000    87444633.9554   21354866.246 7  21354865.37746  21354868.25246
      2307.853        1798.327  
 117524369.096    91577432.5814   22364141.059 7  22364140.52745  22364144.25245
      2479.615        1932.168  
 124562618.985    97061800.0374   23703478.132 6  23703477.37144  23703482.75644
      3349.021        2609.611  
 08 11  5  1 49  0.0000000  0 10G16G 6G31G 3G23G13G21G19G25G 7      
 113370714.660    88340814.9144   21573727.096 7  21573726.68445  21573729.62245
     -1509.233       -1176.023  
 107334675.766    83637412.2264   20425106.488 8  20425106.14046  20425110.65046
      -663.120        -516.713  
 126781064.277                    24125636.334 4                                
     -3293.406                  
 104618098.882    81520605.9914   19908160.674 8  19908160.10546  19908164.33446
       327.305         255.042  
 117256996.473    91369091.2914   22313264.394 7  22313264.12645  22313266.30345
     -2040.407       -1589.928  
 117429285.304    91503346.6724   22346048.413 7  22346048.57144  22346051.99444
      -480.003        -374.019  
 126693110.185    98721905.0294   24108894.805 6  24108895.01443  24108898.58943
     -1133.731        -883.415  
 112151537.292    87390815.7564   21341723.390 7  21341722.46646  21341725.27946
      2296.162        1789.222  
 117450083.399    91519547.6304   22350004.851 7  22350004.75045  22350007.89545
      2472.346        1926.513  
 124462174.684    96983531.7674   23684363.694 6  23684363.81344  23684368.45744
      3346.792        2607.893  
 08 11  5  1 49 30.0000000  0 10G16G 6G31G 3G23G13G21G19G25G 7      
 113416069.711    88376156.5004   21582358.017 7  21582357.58645  21582360.41345
     -1514.905       -1180.440  
 107354780.466    83653078.2204   20428932.171 8  20428931.84146  20428936.60546
      -677.624        -528.014  
 126879958.977                    24144455.683 3                                
     -3299.819                  
 104608532.456    81513151.6384   19906340.079 7  19906339.77446  19906343.75346
       310.006         241.564  
 117318424.664    91416957.3764   22324953.901 7  22324953.41645  22324955.31845
     -2055.261       -1601.496  
 117443983.138    91514799.5194   22348844.826 6  22348844.54744  22348848.45444
      -500.308        -389.846  
 126727353.239    98748587.8944   24115411.697 6  24115410.92443  24115415.18943
     -1149.587        -895.785  
 112082859.587    87337300.6784   21328654.369 7  21328653.29846  21328656.11246
      2281.885        1778.093  
 117376054.984    91461863.1634   22335917.693 7  22335917.73145  22335920.19045
      2462.417        1918.768  
 124361835.933    96905345.7504   23665268.599 6  23665269.00343  23665274.35243
      3341.935        2604.110  
 08 11  5  1 50  0.0000000  0  9G16G 6G 3G23G13G21G19G25G 7         
 113461553.314    88411598.2604   21591013.162 7  21591012.79445  21591016.21245
     -1518.372       -1183.144  
 107375277.988    83669050.3134   20432832.754 8  20432832.67146  20432836.92646
      -689.907        -537.588  
 104599443.685    81506069.4794   19904610.514 8  19904609.97846  19904614.29546
       294.887         229.783  
 117380256.167    91465137.7394   22336719.974 7  22336719.27945  22336721.68445
     -2067.866       -1611.319  
 117459248.158    91526694.3194   22351749.807 7  22351749.62944  22351753.20844
      -518.401        -403.952  
 126762030.117    98775608.7824   24122010.744 6  24122010.69343  24122014.14543
     -1163.217        -906.398  
 112014569.638    87284087.7464   21315659.291 7  21315658.51146  21315660.90946
      2269.736        1768.623  
 117302283.885    91404379.1984   22321879.621 7  22321878.92645  22321882.67045
      2454.609        1912.681  
 124261602.849    96827242.0864   23646195.966 6  23646195.29843  23646200.77143
      3339.192        2601.959  
 08 11  5  1 50 30.0000000  0  9G16G 6G 3G23G13G21G19G25G 7         
 113507188.443    88447158.0864   21599697.105 8  21599696.39745  21599700.20345
     -1523.343       -1187.022  
 107396190.080    83685345.4534   20436812.484 8  20436812.08546  20436816.14546
      -703.633        -548.288  
 104590855.128    81499377.0974   19902976.073 8  19902975.20546  19902979.97346
       278.290         216.849  
 117442511.325    91513648.2294   22348567.238 7  22348566.87545  22348568.41345
     -2081.861       -1622.224  
 117475102.048    91539047.9964   22354766.954 7  22354766.71844  22354770.80944
      -537.942        -419.170  
 126797162.694    98802984.7964   24128695.361 6  24128694.36743  24128698.73543
     -1178.335        -918.184  
 111946691.470    87231195.6804   21302742.474 7  21302741.51446  21302743.96646
      2256.073        1757.978  
 117228795.384    91347115.4394   22307894.771 7  22307894.64345  22307897.97145
      2445.223        1905.370  
 124161500.922    96749240.5844   23627147.863 6  23627148.14044  23627152.34144
      3334.853        2598.588  
 08 11  5  1 51  0.0000000  0  9G16G 6G 3G23G13G21G19G25G 7         
 113552959.775    88482824.0484   21608407.321 7  21608406.81645  21608410.40245
     -1527.887       -1190.558  
 107417499.976    83701950.5634   20440867.342 8  20440867.28046  20440871.16046
      -716.871        -558.599  
 104582750.952    81493062.1624   19901433.965 8  19901433.16246  19901437.93246
       262.164         204.284  
 117505172.090    91562474.7794   22360491.047 7  22360490.48745  22360492.42245
     -2095.330       -1632.723  
 117491528.643    91551847.9204   22357893.253 7  22357893.25544  22357896.35444
      -557.001        -434.021  
 126832735.349    98830703.7054   24135465.547 6  24135464.65943  24135467.25943
     -1193.013        -929.612  
 111879210.883    87178613.4174   21289901.223 7  21289900.19146  21289902.84346
      2242.792        1747.629  
 117155576.566    91290061.8254   22293961.993 7  22293961.75945  22293964.95345
      2436.181        1898.321  
 124061517.036    96671331.0804   23608120.203 6  23608120.49444  23608126.08244
      3330.869        2595.480  
 08 11  5  1 51 30.0000000  0  9G16G 6G 3G23G13G21G19G25G 7         
 113598872.184    88518599.9314   21617143.777 7  21617143.20345  21617147.16945
     -1533.329       -1194.801  
 107439211.376    83718868.5364   20444998.912 8  20444998.68746  20445002.41446
      -730.967        -569.584  
 104575135.057    81487127.7014   19899984.651 8  19899984.06746  19899988.75546
       245.163         191.039  
 117568240.637    91611619.0684   22372492.448 7  22372492.54645  22372493.89345
     -2109.622       -1643.861  
 117508532.174    91565097.4014   22361128.199 7  22361127.81244  22361132.32544
      -576.961        -449.571  
 126868752.632    98858769.0814   24142319.888 6  24142319.05443  24142322.20243
     -1208.521        -941.697  
 111812134.235    87126345.9174   21277136.951 7  21277136.28346  21277138.24146
      2228.583        1736.558  
 117082635.015    91233224.2554   22280081.979 7  22280081.47045  22280084.48945
      2426.170        1890.525  
 123961658.849    96593519.5134   23589117.750 6  23589118.33844  23589122.59244
      3325.907        2591.618  
 08 11  5  1 52  0.0000000  0  9G16G 6G 3G23G13G21G19G25G 7         
 113644937.607    88554495.0624   21625909.889 7  21625909.20045  21625913.08545
     -1537.425       -1197.994  
 107461334.776    83736107.5474   20449209.052 8  20449208.52146  20449212.49546
      -743.648        -579.468  
 104568019.344    81481582.9934   19898630.648 8  19898630.27346  19898634.78946
       229.493         178.823  
 117631725.757    91661087.9714   22384573.265 7  22384572.97745  22384574.64545
     -2122.437       -1653.848  
 117526123.214    91578804.6994   22364476.523 7  22364476.27244  22364479.58544
      -595.505        -464.032  
 126905224.852    98887188.9744   24149259.114 6  24149259.10843  24149261.92943
     -1222.700        -952.747  
 111745474.285    87074403.1064   21264452.084 7  21264451.20346  21264453.37946
      2215.668        1726.497  
 117009984.769    91176613.6794   22266256.779 7  22266256.76845  22266259.39345
      2417.422        1883.709  
 123861940.162    96515816.6624   23570143.068 7  23570143.41644  23570147.40344
      3322.230        2588.748  
 08 11  5  1 52 30.0000000  0  9G16G 6G 3G23G13G21G19G25G 7         
 113691148.399    88590503.4534   21634703.448 7  21634702.93745  21634706.67845
     -1543.089       -1202.403  
 107483861.462    83753660.8094   20453495.730 7  20453495.28746  20453499.20946
      -757.929        -590.595  
 104561395.443    81476421.5124   19897370.219 8  19897369.73046  19897374.05646
       212.308         165.436  
 117695617.604    91710873.7854   22396731.381 7  22396731.31445  22396733.54045
     -2136.767       -1665.008  
 117544293.221    91592963.1274   22367934.024 7  22367934.15344  22367937.71944
      -615.612        -479.695  
 126942144.260    98915957.2984   24156285.868 6  24156285.36343  24156287.82443
     -1238.420        -964.991  
 111679225.026    87022780.3234   21251845.416 8  21251844.60346  21251846.59446
      2201.127        1715.169  
 116937621.011    91120226.3324   22252486.615 7  22252486.51245  22252489.46845
      2407.028        1875.611  
 123762356.952    96438219.3734   23551192.925 6  23551192.52144  23551196.98744
      3316.854        2584.551  
 08 11  5  1 53  0.0000000  0  9G16G 6G 3G23G13G21G19G25G 7         
 113737515.691    88626633.8024   21643526.750 7  21643525.91745  21643530.04445
     -1547.771       -1206.058  
 107506801.100    83771535.8464   20457861.017 8  20457860.68246  20457864.52646
      -771.091        -600.854  
 104555274.056    81471651.6024   19896205.340 8  19896204.91446  19896209.06846
       196.093         152.798  
 117759924.441    91760982.9854   22408969.280 7  22408969.04745  22408969.90545
     -2150.028       -1675.345  
 117563052.011    91607580.3534   22371503.706 7  22371503.52944  22371506.92244
      -634.677        -494.552  
 126979521.099    98945082.0874   24163398.262 6  24163396.44843  24163401.78143
     -1253.085        -976.431  
 111613398.787    86971487.1574   21239319.024 8  21239318.22446  21239320.15246
      2187.567        1704.595  
 116865557.076    91064072.6244   22238773.156 7  22238773.33845  22238776.40645
      2397.534        1868.209  
 123662922.699    96360738.1474   23532271.208 6  23532271.85244  23532274.98944
      3312.384        2581.080  
 08 11  5  1 53 30.0000000  0  9G16G 6G 3G23G13G21G19G25G 7         
 113784021.830    88662872.3314   21652376.643 7  21652376.02045  21652379.93145
     -1553.282       -1210.347  
 107530134.530    83789717.7394   20462301.257 8  20462300.82646  20462304.78746
      -785.114        -611.781  
 104549636.315    81467258.5624   19895132.348 8  19895131.95546  19895136.63546
       179.098         139.556  
 117824625.473    91811399.3544   22421280.561 7  22421280.34645  22421282.76045
     -2164.014       -1686.242  
 117582380.628    91622641.6054   22375181.684 7  22375181.36544  22375185.19744
      -654.534        -510.042  
 127017336.658    98974548.7484   24170594.542 6  24170593.31043  24170597.07743
     -1268.583        -988.500  
 111547978.509    86920510.3304   21226870.131 7  21226869.08846  21226871.31446
      2173.135        1693.355  
 116793777.670    91008140.6204   22225114.120 7  22225114.06545  22225116.67345
      2387.108        1860.086  
 123563622.189    96283361.1544   23513375.256 6  23513374.61244  23513378.74844
      3306.997        2576.880  
 08 11  5  1 54  0.0000000  0  9G16G 6G 3G23G13G21G19G25G 7         
 113830674.092    88699224.7254   21661254.342 7  21661253.93445  21661257.52645
     -1558.288       -1214.247  
 107553867.739    83808211.1494   20466817.483 8  20466817.01446  20466820.97046
      -798.513        -622.220  
 104544488.888    81463247.5794   19894152.712 8  19894152.27946  19894157.09846
       162.645         126.734  
 117889725.486    91862126.5984   22433669.004 7  22433668.47145  22433670.65545
     -2177.391       -1696.664  
 117602285.552    91638151.9154   22378969.979 7  22378969.94444  22378973.55144
      -673.854        -525.092  
 127055597.433    99004362.3234   24177875.148 6  24177874.79743  24177877.80943
     -1283.552       -1000.160  
 111482972.759    86869856.5034   21214499.508 8  21214498.57146  21214500.91546
      2159.176        1682.476  
 116722292.599    90952437.9674   22211510.666 7  22211510.30945  22211514.47045
      2377.162        1852.330  
 123464464.669    96206095.5594   23494506.559 7  23494506.43744  23494509.57944
      3302.080        2573.041  
 08 11  5  1 54 30.0000000  0  9G16G 6G 3G23G13G21G19G25G 7         
 113877486.190    88735701.6644   21670162.680 7  21670161.87145  21670165.69245
     -1563.233       -1218.097  
 107578012.907    83827025.5594   20471412.182 8  20471411.68746  20471415.85046
      -811.857        -632.608  
 104539845.086    81459629.0364   19893269.308 8  19893268.55646  19893273.28846
       146.237         113.953  
 117955235.169    91913173.0754   22446134.616 7  22446133.88344  22446136.09944
     -2190.626       -1706.979  
 117622778.712    91654120.5884   22382869.060 7  22382869.38044  22382872.50944
      -693.060        -540.039  
 127094316.236    99034532.8174   24185242.631 6  24185242.00543  24185245.43543
     -1298.415       -1011.751  
 111418396.251    86819537.1524   21202211.403 8  21202210.22346  21202212.77346
      2145.222        1671.603  
 116651117.815    90896977.0924   22197966.543 7  22197966.02645  22197970.33345
      2367.130        1844.518  
 123365466.626    96128954.2584   23475667.486 6  23475666.77244  23475671.05944
      3297.065        2569.145  
 08 11  5  1 55  0.0000000  0  9G16G 6G 3G23G13G21G19G25G 7         
 113924456.970    88772302.2474   21679100.645 7  21679100.08245  21679103.49445
     -1570.109       -1223.464  
 107602567.645    83846159.1194   20476084.662 8  20476084.39046  20476088.29446
      -827.044        -644.450  
 104535702.834    81456401.3064   19892480.967 8  19892480.23846  19892485.06946
       127.971          99.717  
 118021150.811    91964535.8824   22458678.522 7  22458678.09845  22458679.57844
     -2205.686       -1718.719  
 117643858.100    91670546.0754   22386880.484 7  22386880.19744  22386883.65044
      -714.174        -556.502  
 127133491.118    99065058.7024   24192696.948 6  24192696.13943  24192700.72443
     -1315.190       -1024.813  
 111354248.961    86769552.2664   21190004.213 8  21190003.00946  21190005.97146
      2129.292        1659.193  
 116580254.682    90841759.0624   22184481.488 7  22184481.72645  22184484.69845
      2355.121        1835.156  
 123266629.845    96051938.6034   23456859.643 7  23456859.81044  23456862.87344
      3290.077        2563.695  
 08 11  5  1 55 30.0000000  0  9G16G 6G 3G23G13G21G19G25G 7         
 113971570.626    88809014.1754   21688066.400 7  21688065.36545  21688069.63845
     -1572.556       -1225.366  
 107627514.733    83865598.4104   20480832.060 8  20480831.86346  20480835.73346
      -837.801        -652.833  
 104532045.883    81453551.7374   19891785.365 8  19891784.64146  19891789.04746
       114.125          88.928  
 118087453.402    92016200.2224   22471295.858 7  22471295.32845  22471296.69145
     -2216.198       -1726.908  
 117665506.642    91687415.0544   22390999.981 7  22391000.30044  22391003.33544
      -730.794        -569.454  
 127173105.673    99095927.1994   24200236.459 6  24200236.07743  24200238.06943
     -1327.516       -1034.422  
 111290516.200    86719890.3794   21177876.312 7  21177875.25546  21177878.26246
      2117.803        1650.238  
 116509689.808    90786773.4454   22171053.400 7  22171052.67145  22171057.08745
      2347.450        1829.182  
 123167940.636    95975037.9574   23438079.420 7  23438080.40344  23438083.23444
      3287.425        2561.626  
 08 11  5  1 56  0.0000000  0  9G16G 6G 3G23G13G21G19G25G 7         
 114018814.456    88845827.5274   21697056.489 7  21697055.97145  21697059.41045
     -1577.309       -1229.072  
 107652839.952    83885332.3354   20485651.186 8  20485651.04146  20485655.04346
      -850.788        -662.952  
 104528860.154    81451069.3484   19891179.130 8  19891178.80946  19891182.72646
        98.009          76.373  
 118154127.334    92068153.9074   22483983.210 7  22483983.08445  22483984.69545
     -2228.975       -1736.859  
 117687709.896    91704716.2794   22395225.520 7  22395225.66844  22395228.81344
      -749.679        -584.169  
 127213145.790    99127127.2814   24207855.097 6  24207854.24343  24207857.25143
     -1342.092       -1045.784  
 111227185.938    86670542.1364   21165825.158 8  21165824.23146  21165826.90346
      2103.951        1639.445  
 116439412.603    90732011.9844   22157679.945 7  22157679.60745  22157683.77045
      2337.414        1821.366  
 123069388.778    95898244.3254   23419325.323 6  23419325.21844  23419328.10744
      3282.412        2557.727  
 08 11  5  1 56 30.0000000  0  9G16G 6G 3G23G13G21G19G25G 7         
 114066216.532    88882764.1924   21706076.467 7  21706076.02945  21706080.10745
     -1583.176       -1233.649  
 107678570.021    83905381.7394   20490547.470 8  20490547.35446  20490551.11246
      -864.857        -673.911  
 104526173.554    81448975.8944   19890667.922 8  19890667.46146  19890671.47146
        80.758          62.931  
 118221198.209    92120416.9004   22496745.665 7  22496744.98844  22496748.08244
     -2242.756       -1747.603  
 117710495.254    91722471.0874   22399561.719 7  22399562.28444  22399564.88844
      -769.674        -599.748  
 127253638.973    99158680.4194   24215560.541 6  24215560.27443  24215563.84543
     -1357.799       -1058.028  
 111164287.713    86621530.5474   21153855.914 8  21153854.99546  21153857.62346
      2088.917        1627.727  
 116369453.867    90677498.6774   22144367.371 7  22144366.83945  22144371.15845
      2326.133        1812.575  
 122971005.468    95821582.0264   23400604.449 7  23400604.39044  23400606.57444
      3276.131        2552.823  
 08 11  5  1 57  0.0000000  0  9G16G 6G 3G23G13G21G19G25G 7         
 114113759.288    88919810.4774   21715123.815 7  21715122.90045  21715126.83645
     -1587.322       -1236.881  
 107704685.874    83925731.7504   20495517.138 8  20495516.72346  20495520.77246
      -877.148        -683.496  
 104523967.877    81447257.1854   19890248.172 8  19890247.56946  19890251.71946
        65.310          50.893  
 118288645.163    92172972.9184   22509580.635 7  22509579.87944  22509582.89944
     -2254.690       -1756.899  
 117733843.487    91740664.5074   22404004.698 7  22404005.57844  22404007.34644
      -787.862        -613.917  
 127294566.871    99190572.2744   24223349.131 6  24223348.74443  24223351.73843
     -1371.680       -1068.845  
 111101804.671    86572842.4684   21141965.805 8  21141964.81846  21141967.24546
      2075.617        1617.360  
 116299798.331    90623221.6384   22131112.576 7  22131112.18145  22131116.40245
      2316.559        1805.110  
 122872775.241    95745039.0264   23381910.941 7  23381910.73544  23381913.82144
      3271.561        2549.255  
 08 11  5  1 57 30.0000000  0 10G16G 6G 3G23G13G21G19G25G 7G27      
 114161450.476    88956972.4244   21724198.956 7  21724198.32445  21724202.29845
     -1591.688       -1240.271  
 107731193.602    83946387.1124   20500561.142 8  20500560.96946  20500565.04746
      -889.594        -693.188  
 104522249.013    81445917.8074   19889921.188 8  19889920.47046  19889924.79946
        49.678          38.712  
 118356472.958    92225825.7144   22522487.351 7  22522487.33344  22522489.77344
     -2266.746       -1766.291  
 117757760.752    91759301.3294   22408556.103 7  22408556.49444  22408559.08644
      -806.219        -628.213  
 127335935.179    99222807.3384   24231221.653 6  24231220.26142  24231224.16943
     -1385.798       -1079.857  
 111039745.387    86524484.5894   21130156.198 8  21130155.31446  21130157.62046
      2062.060        1606.803  
 116230455.716    90569188.4334   22117917.408 7  22117916.66745  22117920.52745
      2306.676        1797.415  
 122774708.118    95668623.1104   23363249.842 7  23363250.10844  23363252.55644
      3266.639        2545.431  
 130183146.065   101441419.3304   24773028.681 6  24773027.86643  24773032.73443
      3195.143        2489.718  
 08 11  5  1 58  0.0000000  0 10G16G 6G 3G23G13G21G19G25G 7G27      
 114209272.385    88994236.2344   21733299.632 7  21733298.80245  21733302.32045
     -1597.509       -1244.814  
 107758073.967    83967332.8414   20505676.470 8  20505676.19246  20505680.00646
      -903.485        -704.011  
 104520999.136    81444943.8874   19889683.155 8  19889682.39346  19889687.05846
        32.581          25.384  
 118424660.970    92278959.2034   22535463.472 7  22535463.20944  22535465.18944
     -2280.175       -1776.761  
 117782227.681    91778366.4524   22413211.389 7  22413211.66044  22413214.55544
      -825.986        -643.628  
 127377725.870    99255371.5114   24239174.161 6  24239172.23042  24239177.03342
     -1401.338       -1091.952  
 110978093.002    86476443.7764   21118424.234 8  21118423.03046  21118425.50546
      2047.022        1595.080  
 116161410.909    90515387.2864   22104778.314 7  22104778.20245  22104781.31845
      2295.243        1788.501  
 122676789.330    95592322.7844   23344616.558 7  23344616.58544  23344618.52844
      3260.185        2540.405  
 130087314.050   101366745.0694   24754791.199 5  24754791.08943  24754796.93942
      3192.594        2487.738  
 08 11  5  1 58 30.0000000  0 10G16G 6G 3G23G13G21G19G25G 7G27      
 114257237.639    89031611.7304   21742427.011 7  21742426.30045  21742430.18045
     -1601.995       -1248.303  
 107785338.452    83988577.9024   20510864.860 8  20510864.42146  20510868.31146
      -915.943        -713.722  
 104520229.681    81444344.3114   19889536.656 8  19889535.96246  19889540.87946
        16.890          13.161  
 118493219.133    92332381.1284   22548510.099 7  22548509.44844  22548511.40444
     -2292.170       -1786.104  
 117807255.797    91797868.8624   22417974.170 6  22417973.85044  22417977.29944
      -844.377        -657.945  
 127419950.652    99288273.8924   24247208.148 6  24247208.03342  24247212.68042
     -1415.481       -1102.978  
 110916861.589    86428730.9944   21106771.938 8  21106770.99046  21106773.68546
      2033.265        1584.362  
 116092679.191    90461830.1024   22091699.441 7  22091699.49245  22091702.30645
      2285.042        1780.552  
 122579034.091    95516149.8854   23326014.514 7  23326014.85544  23326018.00844
      3254.998        2536.362  
 129991527.662   101292106.3604   24736563.486 6  24736562.41742  24736567.01342
      3191.341        2486.782  
 08 11  5  1 59  0.0000000  0 10G16G 6G 3G23G13G21G19G25G 7G27      
 114305357.857    89069107.9844   21751584.192 7  21751583.42245  21751586.54145
     -1606.779       -1252.036  
 107812997.075    84010130.0724   20516128.348 8  20516127.92446  20516131.51846
      -928.687        -723.647  
 104519951.668    81444127.6764   19889484.176 8  19889483.58246  19889487.76046
         0.890           0.695  
 118562156.128    92386098.2424   22561628.261 7  22561628.05244  22561629.45744
     -2304.370       -1795.619  
 117832855.475    91817816.6674   22422845.177 7  22422845.12744  22422848.45944
      -863.029        -672.487  
 127462620.026    99321522.7384   24255328.798 6  24255328.03442  24255332.06142
     -1429.914       -1114.231  
 110856063.406    86381355.7894   21095202.586 8  21095201.48246  21095203.96646
      2019.183        1573.393  
 116024274.345    90408527.6314   22078682.335 7  22078681.87845  22078685.92545
      2274.489        1772.337  
 122481456.377    95440115.3454   23307445.652 7  23307445.79244  23307448.65444
      3249.409        2532.011  
 129895800.836   101217514.0404   24718349.379 6  24718348.93443  24718351.51343
      3189.697        2485.463  
 08 11  5  1 59 30.0000000  0 10G16G 6G 3G23G13G21G19G25G 7G27      
 114353618.706    89106713.8234   21760767.891 7  21760767.31445  21760770.36545
     -1610.509       -1254.940  
 107841033.965    84031976.9974   20521463.522 8  20521462.72146  20521466.80546
      -940.311        -732.712  
 104520149.935    81444282.1724   19889521.586 8  19889521.11946  19889525.23346
       -14.017         -10.927  
 118631454.534    92440096.9734   22574815.302 7  22574815.17044  22574817.52244
     -2315.424       -1804.226  
 117859010.575    91838197.2544   22427822.539 7  22427822.27144  22427825.73544
      -880.546        -686.147  
 127505718.708    99355106.0634   24263530.470 6  24263529.38742  24263532.76242
     -1443.251       -1124.607  
 110795685.065    86334307.7364   21083712.975 7  21083711.74446  21083714.68046
      2006.128        1563.214  
 115956184.230    90355470.4184   22065724.939 7  22065724.65845  22065728.01645
      2264.925        1764.876  
 122384044.572    95364210.0644   23288908.206 6  23288908.35044  23288911.62844
      3244.788        2528.405  
 129800120.950   101142958.3044   24700141.544 6  24700140.40043  24700144.28543
      3189.037        2484.967  
 08 11  5  2  0  0.0000000  0 10G16G 6G 3G23G13G21G19G25G 7G27      
 114402037.690    89144442.8764   21769981.583 7  21769981.32845  21769984.21545
     -1617.142       -1260.105  
 107869465.142    84054131.1584   20526873.563 8  20526873.20046  20526876.98046
      -954.771        -743.977  
 104520841.105    81444820.7424   19889653.151 8  19889652.49546  19889656.71146
       -31.785         -24.765  
 118701128.671    92494388.4804   22588073.242 7  22588072.54344  22588076.35844
     -2329.247       -1815.001  
 117885737.213    91859023.2044   22432908.596 7  22432908.49244  22432911.76244
      -900.940        -702.024  
 127549262.881    99389036.5434   24271816.391 6  24271816.12642  24271819.74442
     -1459.435       -1137.220  
 110735744.669    86287600.9384   21072306.674 8  21072305.59446  21072308.23746
      1990.167        1550.780  
 115888428.919    90302674.0714   22052831.527 7  22052831.37445  22052834.62545
      2252.373        1755.100  
 122286818.798    95288449.7554   23270407.027 7  23270407.29944  23270409.36144
      3237.182        2522.487  
 129704507.367   101068454.2684   24681944.484 6  24681943.64742  24681949.35042
      3185.435        2482.165  
 08 11  5  2  0 30.0000000  0 10G16G 6G 3G23G13G21G19G25G 7G27      
 114450610.527    89182291.8224   21779224.959 7  21779224.41945  21779227.28345
     -1621.830       -1263.760  
 107898284.600    84076587.8774   20532357.769 8  20532357.48346  20532361.28346
      -967.268        -753.717  
 104522019.429    81445738.9224   19889877.323 8  19889876.86046  19889881.11046
       -47.562         -37.058  
 118771171.358    92548967.1634   22601402.295 7  22601401.30444  22601404.26344
     -2341.026       -1824.170  
 117913029.220    91880289.6874   22438102.389 7  22438102.08544  22438105.18344
      -919.305        -716.353  
 127593247.016    99423309.8744   24280186.899 6  24280185.98242  24280188.49642
     -1473.632       -1148.280  
 110676238.880    86241232.7964   21060983.110 8  21060982.10846  21060984.98146
      1976.097        1539.815  
 115821006.165    90250136.8634   22040001.226 7  22040000.97745  22040005.07745
      2241.678        1746.765  
 122189777.024    95212832.7974   23251940.638 6  23251940.97944  23251943.83444
      3231.476        2518.044  
 129608958.128   100994000.3554   24663764.451 6  24663764.63843  24663765.93443
      3183.693        2480.815  
 08 11  5  2  1  0.0000000  0 10G16G 6G 3G23G13G21G19G25G 7G27      
 114499324.830    89220250.9924   21788494.320 7  21788493.96645  21788497.66645
     -1626.306       -1267.253  
 107927478.515    84099336.3854   20537913.323 8  20537912.95746  20537916.85746
      -979.494        -763.249  
 104523672.358    81447026.9214   19890192.054 8  19890191.37646  19890195.67146
       -63.126         -49.191  
 118841567.354    92603821.1594   22614798.347 7  22614797.60344  22614800.18844
     -2352.503       -1833.121  
 117940872.823    91901985.9824   22443400.646 7  22443400.86644  22443403.59344
      -937.427        -730.472  
 127637658.145    99457915.9144   24288637.902 6  24288637.35442  24288638.16041
     -1487.617       -1159.182  
 110617156.289    86195194.4174   21049739.934 7  21049738.90846  21049741.65446
      1962.212        1529.001  
 115753906.118    90197851.1194   22027232.699 7  22027232.69045  22027236.17845
      2231.120        1738.536  
 122092909.567    95137351.6974   23233507.531 6  23233507.12244  23233510.90544
      3225.847        2513.646  
 129513463.044   100919588.6044   24645592.068 7  24645591.96843  24645594.78943
      3182.092        2479.548  
 08 11  5  2  1 30.0000000  0 10G16G 6G 3G23G13G21G19G25G 7G27      
 114548186.733    89258325.1874   21797792.572 7  21797792.13645  21797795.58045
     -1631.952       -1271.648  
 107957051.503    84122380.2744   20543540.788 8  20543540.32846  20543544.52946
      -992.840        -773.643  
 104525804.315    81448688.1924   19890597.247 8  19890596.75646  19890601.25446
       -79.807         -62.187  
 118912319.746    92658952.8794   22628262.091 7  22628261.54044  22628264.05344
     -2365.065       -1842.915  
 117969272.433    91924115.5384   22448805.030 7  22448804.76144  22448807.25844
      -956.652        -745.448  
 127682501.140    99492858.4794   24297170.654 5  24297168.62841  24297173.29641
     -1502.699       -1170.932  
 110558503.734    86149491.1344   21038578.583 8  21038577.50746  21038580.68646
      1947.141        1517.253  
 115687137.226    90145823.4194   22014526.754 7  22014526.64945  22014530.55345
      2219.320        1729.344  
 121996225.224    95062013.2624   23215109.348 7  23215109.48644  23215112.68844
      3218.960        2508.273  
 129418030.258   100845225.4314   24627430.083 6  24627429.25243  24627434.61243
      3179.277        2477.368  
 08 11  5  2  2  0.0000000  0 10G16G 6G 3G23G13G21G19G25G 7G27      
 114597205.459    89296521.5694   21807120.266 7  21807119.81045  21807124.13945
     -1636.158       -1274.917  
 107987011.250    84145725.5294   20549241.848 8  20549241.35246  20549245.51546
     -1004.647        -782.840  
 104528423.763    81450729.3224   19891095.877 8  19891095.35846  19891099.72746
       -95.006         -74.033  
 118983434.540    92714366.9684   22641795.658 7  22641795.60244  22641797.13344
     -2376.074       -1851.476  
 117998235.496    91946684.1404   22454316.076 7  22454316.17444  22454319.74344
      -974.391        -759.275  
 127727783.468    99528143.3824   24305788.084 5  24305786.91641  24305790.39741
     -1516.287       -1181.510  
 110500291.067    86104130.6254   21027501.139 7  21027500.12346  21027503.05346
      1933.499        1506.619  
 115620711.016    90094062.7464   22001886.340 7  22001886.08445  22001890.31645
      2208.896        1721.217  
 121899735.691    94986826.6384   23196746.432 6  23196746.76344  23196751.30844
      3213.484        2504.014  
 129322670.879   100770919.4784   24609285.469 6  24609285.12843  24609288.86843
      3177.806        2476.215  
 08 11  5  2  2 30.0000000  0 10G16G 6G 3G23G13G21G19G25G 7G27      
 114646362.222    89334825.5324   21816474.849 7  21816474.30045  21816478.04945
     -1641.169       -1278.833  
 108017337.094    84169356.0514   20555012.725 8  20555012.40946  20555016.30446
     -1017.269        -792.676  
 104531510.730    81453134.7554   19891683.390 8  19891682.90546  19891687.31946
      -110.987         -86.484  
 119054889.599    92770046.2194   22655392.430 7  22655391.77244  22655393.98144
     -2387.791       -1860.625  
 118027741.730    91969675.9954   22459931.176 7  22459931.47144  22459934.54144
      -992.883        -773.671  
 127773485.466    99563755.2674   24314484.536 5  24314485.23841  24314486.54141
     -1530.656       -1192.735  
 110442500.257    86059098.8264   21016504.083 7  21016502.89346  21016505.87346
      1919.023        1495.340  
 115554610.704    90042556.0164   21989308.284 7  21989308.01945  21989311.57245
      2197.585        1712.404  
 121803424.571    94911779.0294   23178419.877 7  23178420.35244  23178423.35444
      3207.055        2499.006  
 129227368.165   100696657.6284   24591150.228 7  24591150.15543  24591151.83943
      3175.482        2474.400  
 08 11  5  2  3  0.0000000  0 10G16G 6G 3G23G13G21G19G25G 7G27      
 114695667.813    89373245.4504   21825857.413 7  21825856.93445  21825861.20545
     -1645.810       -1282.452  
 108048038.574    84193279.2844   20560855.200 8  20560854.84046  20560858.76646
     -1029.426        -802.153  
 104535075.673    81455912.6314   19892361.632 8  19892361.07746  19892365.78046
      -126.598         -98.651  
 119126693.166    92825997.0284   22669055.806 7  22669055.86144  22669058.09744
     -2399.028       -1869.382  
 118057800.371    91993098.2914   22465651.084 7  22465651.25244  22465654.98644
     -1010.943        -787.749  
 127819617.034    99599701.9134   24323263.658 4  24323259.03941  24323266.92041
     -1544.699       -1203.639  
 110385142.827    86014404.7334   21005589.300 7  21005588.19146  21005591.18446
      1904.868        1484.309  
 115488849.709    89991313.6814   21976793.771 7  21976792.90045  21976797.58545
      2186.530        1703.791  
 121707305.814    94836881.3164   23160129.605 7  23160130.47044  23160133.12844
      3200.906        2494.203  
 129132134.998   100622449.9844   24573026.968 6  24573026.11343  24573029.82043
      3173.438        2472.796  
 08 11  5  2  3 30.0000000  0 10G16G 6G 3G23G13G21G19G25G 7G27      
 114745125.263    89411783.7024   21835269.147 7  21835268.30145  21835272.37945
     -1652.243       -1287.464  
 108079117.197    84217496.3944   20566769.287 8  20566768.91546  20566772.82946
     -1043.342        -812.998  
 104539120.216    81459064.2264   19893131.442 8  19893131.00246  19893135.32846
      -143.923        -112.151  
 119198845.235    92882219.3844   22682786.317 7  22682785.93744  22682789.03144
     -2411.972       -1879.462  
 118088412.859    92016952.1594   22471476.418 6  22471475.84144  22471480.46644
     -1030.762        -803.184  
 127866180.194    99635984.8444   24332123.758 5  24332121.37641  24332124.59841
     -1560.394       -1215.915  
 110328223.305    85970051.8604   20994757.696 7  20994756.69546  20994759.97346
      1888.888        1471.861  
 115423433.485    89940340.0074   21964345.209 7  21964345.09345  21964349.64845
      2173.652        1693.746  
 121611384.838    94762137.7214   23141875.026 6  23141875.08844  23141879.02444
      3192.895        2487.976  
 129036976.828   100548300.7874   24554918.734 6  24554918.29843  24554921.82943
      3169.542        2469.771  
 08 11  5  2  4  0.0000000  0 10G16G 6G 3G23G13G21G19G25G 7G27      
 114794751.229    89450453.2704   21844712.668 7  21844712.44745  21844715.72745
     -1656.782       -1290.999  
 108110587.772    84242018.9134   20572757.748 8  20572757.44646  20572761.55846
     -1055.307        -822.313  
 104543659.785    81462601.5504   19893995.427 8  19893994.79746  19893999.21446
      -159.328        -124.155  
 119271358.999    92938723.5864   22696585.027 7  22696584.18544  22696587.52744
     -2422.895       -1887.962  
 118119593.597    92041248.8154   22477409.299 7  22477409.46444  22477413.55644
     -1048.570        -817.078  
 127913189.573    99672615.5444   24341068.811 5  24341069.09841  24341071.88941
     -1574.168       -1226.623  
 110271758.291    85926053.1504   20984012.951 8  20984011.94346  20984014.56646
      1874.822        1460.903  
 115358380.720    89889649.5394   21951966.143 7  21951965.58745  21951970.05045
      2162.583        1685.135  
 121515680.635    94687563.0234   23123664.331 7  23123664.59444  23123667.85144
      3186.733        2483.179  
 128941911.958   100474224.2944   24536829.220 7  24536828.68444  24536833.30344
      3167.481        2468.169  
 08 11  5  2  4 30.0000000  0 10G16G 6G 3G23G13G21G19G25G 7G27      
 114844514.319    89489229.6754   21854182.100 7  21854181.95245  21854185.51445
     -1661.552       -1294.708  
 108142417.325    84266821.1594   20578814.937 8  20578814.32746  20578818.46946
     -1067.446        -831.772  
 104548662.351    81466499.6584   19894947.183 8  19894946.52346  19894950.82446
      -174.945        -136.318  
 119344200.178    92995482.9264   22710446.802 7  22710446.66344  22710448.20744
     -2433.967       -1896.599  
 118151309.735    92065962.6704   22483445.095 7  22483444.87644  22483449.57744
     -1066.590        -831.096  
 127960612.774    99709568.6984   24350092.911 4  24350089.56441  24350095.86341
     -1588.198       -1237.549  
 110215717.020    85882384.6334   20973348.539 7  20973347.60646  20973350.30246
      1860.471        1449.719  
 115293662.304    89839219.6014   21939650.834 7  21939650.41545  21939654.98245
      2151.180        1676.247  
 121420164.299    94613134.7274   23105487.745 6  23105487.36844  23105492.01144
      3180.219        2478.098  
 128846911.199   100400197.7704   24518751.053 6  24518749.93344  24518754.81644
      3165.093        2466.308  
 08 11  5  2  5  0.0000000  0 10G16G 6G 3G23G13G21G19G25G 7G27      
 114894435.522    89528129.3024   21863682.200 7  21863681.74545  21863685.05345
     -1666.630       -1298.679  
 108174625.318    84291918.2934   20584943.899 8  20584943.17646  20584947.40446
     -1079.848        -841.444  
 104554147.734    81470773.9844   19895990.868 8  19895990.24346  19895994.92746
      -190.821        -148.693  
 119417386.426    93052511.1554   22724372.972 7  22724372.27844  22724375.74044
     -2445.217       -1905.366  
 118183580.089    92091108.3884   22489586.595 7  22489586.57544  22489590.36544
     -1084.861        -845.354  
 128008470.051    99746860.0184   24359197.931 4  24359200.96841  24359203.46741
     -1602.501       -1248.727  
 110160121.390    85839063.3634   20962769.243 7  20962768.06746  20962771.00846
      1845.796        1438.285  
 115229301.418    89789068.2534   21927403.387 7  21927402.73345  21927407.38545
      2139.413        1667.075  
 121324859.694    94538871.4274   23087352.295 7  23087353.10744  23087355.58044
      3173.301        2472.699  
 128751997.552   100326239.1114   24500688.420 6  24500687.84543  24500692.50443
      3162.339        2464.155  
 08 11  5  2  5 30.0000000  0 10G16G 6G 3G23G13G21G19G25G 7G27      
 114944508.532    89567147.2124   21873210.599 7  21873210.10845  21873213.89945
     -1671.940       -1302.808  
 108207203.811    84317304.1304   20591143.043 8  20591142.84946  20591147.07946
     -1092.411        -851.232  
 104560107.962    81475418.3204   19897125.268 8  19897124.72346  19897129.01446
      -206.886        -161.209  
 119490908.481    93109801.0324   22738363.862 7  22738363.20644  22738366.42844
     -2456.625       -1914.251  
 118216396.467    92116679.5654   22495831.517 7  22495831.45744  22495834.70344
     -1103.270        -859.682  
 128056753.307    99784483.3344   24368387.580 4  24368387.47341  24368391.76841
     -1616.875       -1259.877  
 110104965.847    85796085.0244   20952273.222 8  20952272.28846  20952275.13946
      1830.870        1426.651  
 115165294.166    89739192.4724   21915223.315 7  21915223.19045  21915227.54845
      2127.346        1657.672  
 121229762.976    94464770.0854   23069256.168 6  23069256.14544  23069258.79244
      3166.066        2467.077  
 128657167.038   100252345.2284   24482643.536 7  24482643.77544  24482647.65444
      3159.298        2461.770  
 08 11  5  2  6  0.0000000  0 10G16G 6G 3G23G13G21G19G25G 7G27      
 114994738.125    89606287.1254   21882768.830 7  21882768.14345  21882771.74945
     -1677.292       -1306.970  
 108240156.074    84342981.2104   20597413.891 8  20597413.40746  20597417.66046
     -1104.990        -861.029  
 104566547.100    81480435.8304   19898350.657 8  19898350.05946  19898354.25546
      -222.949        -173.729  
 119564768.307    93167354.1134   22752419.030 7  22752418.36044  22752421.35244
     -2467.958       -1923.072  
 118249762.194    92142678.8264   22502180.824 7  22502180.55544  22502184.33144
     -1121.691        -874.043  
 128105466.005    99822441.3094   24377657.159 4  24377657.04341  24377661.08441
     -1631.307       -1271.171  
 110050255.720    85753453.7664   20941862.415 7  20941861.31346  20941864.01546
      1815.867        1414.962  
 115101647.608    89689597.7484   21903111.628 7  21903111.72145  21903115.55345
      2115.147        1648.166  
 121134881.569    94390836.5434   23051200.186 6  23051200.20644  23051204.00444
      3158.732        2461.339  
 128562426.564   100178521.5084   24464615.558 7  24464614.72844  24464619.43244
      3156.118        2459.316  
 08 11  5  2  6 30.0000000  0 10G16G 6G 3G23G13G21G19G25G 7G27      
 115045142.394    89645563.1754   21892360.643 7  21892360.44945  21892363.55845
     -1683.071       -1311.484  
 108273498.490    84368962.3084   20603758.502 8  20603758.32946  20603762.53246
     -1117.932        -871.115  
 104573482.078    81485839.7104   19899670.120 8  19899669.60146  19899673.72946
      -239.438        -186.575  
 119638980.555    93225181.8214   22766541.406 7  22766541.26644  22766543.56144
     -2479.590       -1932.144  
 118283693.494    92169118.7784   22508637.294 7  22508637.47544  22508641.32344
     -1140.464        -888.669  
 128154625.214    99860747.2134   24387011.232 4  24387011.30541  24387017.79141
     -1645.971       -1282.572  
 109996009.712    85711184.1584   20931539.812 8  20931538.79646  20931541.39346
      1800.441        1402.938  
 115038382.142    89640299.9834   21891072.644 7  21891071.99845  21891076.93645
      2102.457        1638.278  
 121040236.284    94317086.9794   23033190.051 6  23033190.24144  23033194.10244
      3150.882        2455.228  
 128467796.557   100104783.8714   24446606.894 6  24446606.14644  24446612.56644
      3152.459        2456.451  
 08 11  5  2  7  0.0000000  0 10G16G 6G 3G23G13G21G19G25G 7G27      
 115095695.961    89684955.5364   21901980.028 7  21901979.47645  21901984.14745
     -1687.024       -1314.564  
 108307203.686    84395226.0864   20610172.635 8  20610172.24846  20610176.45446
     -1128.954        -879.704  
 104580886.358    81491609.2794   19901079.178 8  19901078.78646  19901082.94146
      -254.019        -197.936  
 119713516.537    93283261.7684   22780724.799 7  22780723.86744  22780727.97044
     -2489.322       -1939.733  
 118318162.472    92195977.7134   22515196.960 7  22515197.27744  22515200.13044
     -1157.334        -901.815  
 128204203.934    99899379.9174   24396445.149 5  24396444.79841  24396451.02941
     -1659.016       -1292.748  
 109942202.824    85669256.7184   20921300.444 7  20921299.42746  20921302.16546
      1786.825        1392.332  
 114975474.320    89591280.8954   21879101.883 7  21879101.76445  21879105.53545
      2091.535        1629.767  
 120945804.000    94243503.4074   23015220.546 7  23015220.77045  23015223.78645
      3144.743        2450.447  
 128373253.183   100031113.7334   24428616.163 6  24428615.18243  24428620.40043
      3150.582        2454.988  
 08 11  5  2  7 30.0000000  0 10G16G 6G 3G23G13G21G19G25G 7G27      
 115146397.966    89724463.5774   21911628.734 7  21911628.17445  21911632.26145
     -1692.304       -1318.684  
 108341269.484    84421770.8604   20616655.049 8  20616654.71246  20616659.17046
     -1141.274        -889.300  
 104588757.986    81497743.0144   19902577.340 8  19902576.84846  19902581.11846
      -269.933        -210.336  
 119788372.645    93341591.1844   22794969.747 7  22794969.12344  22794972.31144
     -2500.248       -1948.245  
 118353166.962    92223253.9204   22521858.251 7  22521858.49544  22521861.24044
     -1175.475        -915.951  
 128254200.331    99938338.1904   24405961.417 4  24405959.19941  24405962.82441
     -1673.257       -1303.829  
 109888835.078    85627671.4674   20911145.099 7  20911143.99746  20911146.73446
      1771.832        1380.648  
 114912925.732    89542541.7324   21867199.217 7  21867198.79245  21867202.57945
      2079.182        1620.133  
 120851586.779    94170087.4084   22997291.401 7  22997291.56244  22997294.84844
      3137.214        2444.576  
 128278797.818    99957512.1674   24410641.190 7  24410640.89343  24410646.20043
      3147.253        2452.405  
 08 11  5  2  8  0.0000000  0 10G16G 6G 3G23G13G21G19G25G 7G27      
 115197249.019    89764087.7564   21921305.270 7  21921304.59645  21921309.23945
     -1697.658       -1322.853  
 108375694.961    84448595.9024   20623206.106 8  20623205.89746  20623209.94846
     -1153.599        -898.911  
 104597096.428    81504240.5054   19904163.828 8  19904163.41446  19904167.74446
      -285.837        -222.731  
 119863545.843    93400167.6874   22809274.987 7  22809274.17644  22809276.63844
     -2511.168       -1956.750  
 118388705.254    92250946.0874   22528620.963 7  22528621.02144  22528624.10044
     -1193.629        -930.092  
 128304613.292    99977620.9874   24415553.407 5  24415553.68141  24415560.12241
     -1687.481       -1314.953  
 109835907.460    85586429.1794   20901073.405 8  20901072.18546  20901074.64346
      1756.776        1368.909  
 114850739.318    89494084.7814   21855365.429 7  21855365.11945  21855369.66945
      2066.679        1610.402  
 120757587.839    94096841.4754   22979403.861 7  22979404.47945  22979407.37545
      3129.489        2438.565  
 128184433.332    99883981.4224   24392683.631 6  24392682.94643  24392689.27643
      3143.807        2449.728  
 08 11  5  2  8 30.0000000  0 10G16G 6G 3G23G13G21G19G25G 7G27      
 115248243.640    89803823.8094   21931009.148 7  21931008.72945  21931012.72645
     -1703.125       -1327.116  
 108410472.502    84475695.2764   20629824.192 8  20629823.76946  20629828.15746
     -1166.023        -908.592  
 104605894.908    81511096.4664   19905837.980 8  19905837.45046  19905841.78146
      -301.830        -235.190  
 119939027.766    93458984.7274   22823638.379 7  22823637.91444  22823640.44544
     -2522.072       -1965.251  
 118424769.938    92279048.4234   22535483.827 7  22535483.78344  22535486.98044
     -1211.808        -944.274  
 128355435.843   100017222.9304   24425225.384 5  24425224.78141  24425228.14741
     -1701.778       -1326.074  
 109783414.985    85545525.9584   20891084.292 8  20891083.47346  20891086.12846
      1741.575        1357.073  
 114788911.519    89445907.2754   21843600.453 7  21843600.29445  21843604.22745
      2054.021        1600.531  
 120663803.726    94023762.9654   22961557.518 7  22961557.56644  22961560.93645
      3121.614        2432.424  
 128090156.291    99810518.8414   24374743.146 6  24374742.50443  24374749.18443
      3140.179        2446.880  
 08 11  5  2  9  0.0000000  0 10G16G 6G 3G23G13G21G19G25G 7G27      
 115299388.260    89843676.7374   21940741.526 7  21940741.03345  21940745.39345
     -1707.160       -1330.253  
 108445607.147    84503072.9214   20636509.888 8  20636509.55946  20636514.00446
     -1176.935        -917.099  
 104615158.178    81518314.5974   19907600.952 8  19907600.34746  19907604.56946
      -316.360        -246.517  
 120014821.604    93518044.8384   22838061.500 7  22838061.00144  22838063.13644
     -2531.459       -1972.569  
 118461365.671    92307564.5584   22542447.981 7  22542448.09544  22542451.06644
     -1228.516        -957.284  
 128406672.837   100057147.8014   24434975.957 6  24434976.63541  24434978.91241
     -1714.667       -1336.104  
 109731364.667    85504967.2784   20881179.569 8  20881178.68646  20881181.26346
      1727.789        1346.323  
 114727451.024    89398015.9794   21831904.818 8  21831904.72645  21831908.65345
      2042.689        1591.701  
 120570243.804    93950859.1364   22943753.403 7  22943753.52444  22943756.71844
      3115.048        2427.305  
 127995975.145    99737130.9484   24356821.592 6  24356821.01143  24356826.98443
      3137.927        2445.128  
 08 11  5  2  9 30.0000000  0 10G16G 6G 3G23G13G21G19G25G 7G27      
 115350677.459    89883642.3244   21950501.932 7  21950501.52345  21950505.52545
     -1711.625       -1333.730  
 108481091.933    84530723.4024   20643262.567 8  20643262.05046  20643266.64246
     -1188.220        -925.883  
 104624880.841    81525890.7004   19909451.033 8  19909450.40746  19909454.78046
      -331.292        -258.151  
 120090918.768    93577341.3144   22852543.343 7  22852542.81644  22852544.06244
     -2541.157       -1980.118  
 118498484.856    92336488.5884   22549511.293 7  22549510.93644  22549514.56044
     -1245.565        -970.565  
 128458318.213   100097390.9624   24444804.096 6  24444803.45942  24444808.13542
     -1727.859       -1346.380  
 109679751.903    85464749.5564   20871357.982 8  20871356.93046  20871359.67346
      1713.568        1335.244  
 114666354.943    89350408.6464   21820278.987 8  21820278.52245  21820282.08145
      2030.871        1582.505  
 120476905.698    93878128.1484   22925991.556 7  22925991.81445  22925995.70945
      3107.996        2421.816  
 127901886.941    99663815.4754   24338916.708 5  24338916.39643  24338921.82243
      3135.164        2442.983  
 08 11  5  2 10  0.0000000  0 10G16G 6G 3G23G13G21G19G25G 7G27      
 115402117.541    89923725.4904   21960290.328 7  21960289.63545  21960294.19045
     -1717.209       -1338.093  
 108516931.150    84558650.0594   20650082.615 8  20650082.27646  20650086.58146
     -1200.558        -935.503  
 104635067.203    81533828.1244   19911389.358 8  19911388.91046  19911393.15346
      -347.284        -270.609  
 120167322.479    93636876.6424   22867082.051 7  22867081.89244  22867083.34244
     -2551.891       -1988.490  
 118536131.414    92365823.5554   22556675.154 7  22556674.98544  22556678.56944
     -1263.682        -984.681  
 128510376.463   100137955.7884   24454710.809 5  24454709.69342  24454715.04242
     -1742.158       -1357.519  
 109628582.983    85424877.6734   20861620.560 8  20861619.58746  20861622.37346
      1698.197        1323.277  
 114605631.567    89303091.7264   21808723.393 8  21808723.55045  21808726.99745
      2017.853        1572.358  
 120383797.859    93805576.5844   22908274.449 7  22908274.27045  22908277.62145
      3099.687        2415.350  
 127807899.921    99590578.8604   24321030.987 5  24321030.08043  24321037.60343
      3131.126        2439.847  
 08 11  5  2 10 30.0000000  0 10G16G 6G 3G23G13G21G19G25G 7G27      
 115453723.230    89963937.6914   21970110.952 7  21970110.18345  21970114.31745
     -1722.797       -1342.434  
 108553138.014    84586863.1924   20656972.584 8  20656972.15746  20656976.31246
     -1212.845        -945.073  
 104645730.437    81542137.1374   19913418.721 8  19913417.97946  19913422.25846
      -363.221        -283.030  
 120244044.081    93696659.6864   22881681.317 7  22881681.05544  22881683.37744
     -2562.480       -1996.736  
 118574317.972    92395579.3064   22563941.805 7  22563941.97544  22563945.52344
     -1281.702        -998.729  
 128562860.661   100178852.5014   24464697.711 5  24464697.67942  24464701.05042
     -1756.387       -1368.591  
 109577873.386    85385363.7094   20851970.911 8  20851969.98646  20851972.62146
      1682.821        1311.290  
 114545297.718    89256078.3404   21797242.240 8  21797241.81545  21797245.69645
      2004.771        1562.158  
 120290937.670    93733218.0074   22890603.883 7  22890603.86745  22890606.83445
      3091.343        2408.834  
 127714030.880    99517434.1864   24303167.700 6  24303167.32443  24303175.03743
      3127.142        2436.735  
 08 11  5  2 11  0.0000000  0 10G16G 6G 3G23G13G21G19G25G 7G27      
 115505460.390    90004252.3454   21979956.431 7  21979955.51045  21979959.86945
     -1726.537       -1345.358  
 108589676.639    84615334.8494   20663925.441 8  20663924.93046  20663929.25546
     -1223.224        -953.167  
 104656835.087    81550790.1084   19915531.770 8  19915531.17146  19915535.18046
      -377.278        -293.986  
 120321046.178    93756661.2964   22896334.670 7  22896334.27644  22896335.86244
     -2571.153       -2003.499  
 118613008.578    92425727.8174   22571304.224 7  22571304.49744  22571307.82344
     -1297.853       -1011.319  
 128615735.256   100220053.4584   24474759.439 5  24474758.88642  24474763.78742
     -1768.786       -1378.292  
 109527589.424    85346181.4014   20842402.206 8  20842401.20146  20842403.64246
      1669.252        1300.716  
 114485321.480    89209343.6144   21785829.118 7  21785828.63945  21785833.37545
      1993.456        1553.340  
 120198293.655    93661027.8714   22872973.843 7  22872974.32445  22872977.32845
      3084.722        2403.682  
 127620247.748    99444356.4534   24285321.939 6  24285321.73743  24285328.03143
      3124.883        2434.963  
 08 11  5  2 11 30.0000000  0 10G16G 6G 3G23G13G21G19G25G 7G27      
 115557349.550    90044685.4294   21989830.571 7  21989829.98945  21989833.96645
     -1731.931       -1349.554  
 108626565.693    84644079.5594   20670945.320 8  20670944.86646  20670949.15846
     -1235.234        -962.516  
 104668400.736    81559802.3054   19917732.757 8  19917732.28246  19917736.29546
      -392.942        -306.186  
 120398345.979    93816894.8914   22911044.950 7  22911044.94344  22911045.56144
     -2581.335       -2011.426  
 118652221.909    92456283.6554   22578766.370 7  22578766.56344  22578769.99944
     -1315.541       -1025.093  
 128669019.297   100261573.4494   24484898.527 5  24484897.15942  24484902.69642
     -1782.694       -1389.111  
 109477751.789    85307346.8894   20832918.518 7  20832917.61046  20832920.05046
      1654.062        1288.877  
 114425725.542    89162905.2254   21774488.315 8  21774488.27445  21774492.12745
      1980.412        1543.179  
 120105888.769    93589024.1004   22855389.764 7  22855390.51845  22855393.05345
      3076.404        2397.190  
 127526573.371    99371363.4414   24267496.324 5  24267494.84743  24267502.46443
      3120.896        2431.848  
 08 11  5  2 12  0.0000000  0 10G16G 6G 3G23G13G21G19G25G 7G27      
 115609401.321    90085245.2264   21999735.494 7  21999734.88945  21999739.08545
     -1737.864       -1354.179  
 108663814.315    84673104.4604   20678033.348 8  20678033.03346  20678037.52546
     -1247.702        -972.232  
 104680436.796    81569181.0574   19920023.276 8  19920022.59946  19920026.82146
      -409.123        -318.796  
 120475950.941    93877366.2554   22925812.098 7  22925811.76844  22925813.27544
     -2591.991       -2019.728  
 118691966.118    92487253.1534   22586329.223 7  22586329.37944  22586332.71644
     -1333.734       -1039.272  
 128722722.049   100303419.6964   24495119.337 6  24495119.34142  24495122.80242
     -1797.160       -1400.373  
 109428371.714    85268868.9124   20823521.655 7  20823520.60846  20823523.16546
      1638.271        1276.576  
 114366522.762    89116773.1884   21763222.667 8  21763222.33445  21763226.31045
      1966.752        1532.534  
 120013736.499    93517217.1384   22837853.849 7  22837854.02345  22837856.96245
      3067.394        2390.183  
 127433020.607    99298465.1904   24249693.580 6  24249693.78943  24249699.80443
      3116.279        2428.267  
 08 11  5  2 12 30.0000000  0 10G16G 6G 3G23G13G21G19G25G 7G27      
 115661611.469    90125928.4464   22009670.863 7  22009670.31845  22009674.26445
     -1742.300       -1357.640  
 108701416.502    84702404.8604   20685188.851 8  20685188.48546  20685193.05346
     -1258.623        -980.743  
 104692937.789    81578922.0954   19922402.036 8  19922401.38646  19922405.65946
      -423.750        -330.193  
 120553853.818    93938069.7594   22940636.830 7  22940636.71444  22940638.61344
     -2601.006       -2026.753  
 118732234.813    92518631.3514   22593992.517 7  22593991.81544  22593995.13844
     -1350.320       -1052.192  
 128776838.066   100345587.9744   24505416.438 5  24505415.83742  24505420.43442
     -1810.032       -1410.410  
 109379445.471    85230744.5744   20814211.251 7  20814210.19546  20814212.77446
      1623.994        1265.452  
 114307711.129    89070945.9394   21752031.015 8  21752030.70845  21752034.69445
      1954.539        1523.022  
 119921835.236    93445605.7694   22820365.840 7  22820365.85845  22820368.96145
      3059.862        2384.307  
 127339587.278    99225660.0064   24231913.961 5  24231912.55043  24231921.13043
      3113.135        2425.829  
 08 11  5  2 13  0.0000000  0  9G16G 6G 3G23G13G19G25G 7G27         
 115713949.955    90166711.6534   22019630.867 7  22019630.09945  22019634.09145
     -1747.313       -1361.542  
 108739340.480    84731956.0094   20692405.601 8  20692405.21546  20692409.73046
     -1270.050        -989.652  
 104705872.622    81589001.1904   19924863.538 8  19924862.79546  19924867.06846
      -438.917        -342.019  
 120632021.043    93998979.2564   22955511.154 7  22955510.57844  22955513.05144
     -2610.490       -2034.154  
 118772995.371    92550392.8134   22601748.473 7  22601748.78744  22601752.69744
     -1367.422       -1065.517  
 109330943.235    85192950.6274   20804981.819 8  20804981.00846  20804983.29246
      1609.119        1253.855  
 114249262.507    89025401.5664   21740908.721 8  21740908.29145  21740912.37945
      1941.658        1512.977  
 119830157.339    93374168.4534   22802919.367 7  22802919.92244  22802923.13944
      3051.624        2377.885  
 127246245.502    99152926.1834   24214151.440 5  24214150.56743  24214158.45743
      3109.300        2422.830  
 08 11  5  2 13 30.0000000  0  9G16G 6G 3G23G13G19G25G 7G27         
 115766458.811    90207627.6234   22029622.406 7  22029622.15645  22029626.05445
     -1751.255       -1364.620  
 108777626.230    84761789.0704   20699691.396 7  20699691.04146  20699695.20146
     -1280.314        -997.652  
 104719281.258    81599449.4794   19927415.088 8  19927414.65446  19927418.31546
      -452.959        -352.958  
 120710491.439    94060124.9994   22970442.989 7  22970442.97844  22970445.58944
     -2618.818       -2040.636  
 118814287.825    92582568.7264   22609606.219 7  22609605.99244  22609609.82344
     -1383.374       -1077.955  
 109282907.236    85155519.9854   20795840.866 8  20795839.81346  20795842.44246
      1595.309        1243.094  
 114191220.935    88980174.3714   21729863.629 7  21729863.49945  21729867.16245
      1929.773        1503.710  
 119738747.310    93302939.8754   22785525.368 7  22785525.18245  22785528.89844
      3044.391        2372.251  
 127153039.239    99080297.9334   24196414.784 5  24196411.98342  24196420.79942
      3106.480        2420.616  
 08 11  5  2 14  0.0000000  0  9G16G 6G 3G23G13G19G25G 7G27         
 115819111.939    90248656.0124   22039642.165 7  22039641.65745  22039645.94245
     -1757.181       -1369.231  
 108816246.277    84791882.6184   20707040.128 7  20707039.82446  20707044.14846
     -1292.551       -1007.179  
 104733136.874    81610246.0614   19930051.446 8  19930050.94546  19930054.98246
      -468.964        -365.427  
 120789235.792    94121484.1994   22985428.572 7  22985428.06944  22985430.15844
     -2629.016       -2048.586  
 118856083.969    92615137.1254   22617559.199 7  22617558.54744  22617563.71044
     -1401.234       -1091.874  
 109235312.212    85118432.9594   20786783.629 8  20786782.69146  20786785.44346
      1579.471        1230.757  
 114133562.872    88935246.0114   21718891.584 8  21718891.07145  21718895.10045
      1915.844        1492.867  
 119647582.105    93231902.0584   22768176.726 7  22768176.49844  22768179.98044
      3035.035        2364.977  
 127059944.792    99007756.8084   24178699.246 5  24178698.50843  24178705.92043
      3101.581        2416.824  
 08 11  5  2 14 30.0000000  0  9G16G 6G 3G23G13G19G25G 7G27         
 115871901.958    90289791.0654   22049687.790 7  22049686.92245  22049691.49545
     -1762.440       -1373.328  
 108855191.489    84822229.5464   20714451.075 7  20714450.69746  20714455.37646
     -1304.068       -1016.156  
 104747430.502    81621383.9584   19932771.493 8  19932771.00046  19932775.11346
      -484.227        -377.328  
 120868243.437    94183048.5634   23000462.597 7  23000461.76444  23000464.18144
     -2638.436       -2055.916  
 118898374.166    92648090.5104   22625607.286 7  22625607.02044  22625611.47844
     -1418.377       -1105.228  
 109188150.756    85081683.7854   20777809.333 7  20777808.36146  20777810.99546
      1564.316        1218.947  
 114076282.936    88890612.3024   21707991.731 7  21707991.28945  21707994.85345
      1902.506        1482.469  
 119556656.731    93161051.1194   22750874.285 7  22750875.03844  22750877.88744
      3026.351        2358.191  
 126966956.856    98935298.7064   24161005.087 6  24161004.55443  24161011.72943
      3097.319        2413.493  
 08 11  5  2 15  0.0000000  0  9G16G 6G 3G23G13G19G25G 7G27         
 115924868.797    90331063.9094   22059767.072 7  22059766.43545  22059770.76045
     -1767.998       -1377.661  
 108894499.856    84852859.4434   20721931.339 8  20721931.06846  20721935.71046
     -1315.823       -1025.315  
 104762200.375    81632892.9554   19935582.301 8  19935581.65646  19935585.65746
      -499.756        -389.419  
 120947550.955    94244846.6134   23015555.269 7  23015554.87344  23015556.07944
     -2648.036       -2063.404  
 118941195.954    92681458.1294   22633755.734 7  22633755.65444  22633760.07244
     -1435.717       -1118.743  
 109141463.032    85045303.7464   20768924.913 8  20768923.79646  20768926.67546
      1548.853        1206.897  
 114019422.988    88846305.8484   21697171.475 7  21697171.22945  21697174.85045
      1888.814        1471.810  
 119466013.487    93090420.0354   22733625.431 6  22733624.85244  22733628.78244
      3017.177        2351.044  
 126874117.426    98862956.3154   24143338.798 6  24143337.64843  24143344.14743
      3092.631        2409.853  
 08 11  5  2 15 30.0000000  0  9G16G 6G 3G23G13G19G25G 7G27         
 115977964.903    90372437.4694   22069870.900 7  22069870.09645  22069874.71045
     -1772.648       -1381.285  
 108934122.203    84883734.0094   20729471.287 8  20729471.09846  20729475.30446
     -1326.604       -1033.718  
 104777397.827    81644735.1294   19938474.313 8  19938473.67946  19938477.40746
      -514.326        -400.773  
 121027107.408    94306838.6384   23030694.038 7  23030693.74044  23030695.39744
     -2656.628       -2070.099  
 118984499.397    92715201.0514   22641995.471 6  22641995.06044  22642000.26344
     -1452.074       -1131.485  
 109095201.898    85009256.1194   20760121.698 8  20760120.70546  20760123.13846
      1534.292        1195.552  
 113962937.678    88802291.3324   21686422.482 7  21686422.23945  21686426.12345
      1875.947        1461.776  
 119375607.998    93019974.2094   22716421.491 6  22716421.02944  22716425.57144
      3008.900        2344.597  
 126781381.242    98790694.3644   24125692.034 6  24125690.93243  24125696.56543
      3088.862        2406.893  
 08 11  5  2 16  0.0000000  0  9G16G 6G 3G23G13G19G25G 7G27         
 116031212.327    90413928.9524   22080003.597 7  22080003.11545  22080006.73945
     -1777.438       -1385.014  
 108974078.518    84914868.7954   20737074.585 8  20737074.14046  20737078.67445
     -1337.429       -1042.149  
 104793043.532    81656926.5874   19941451.270 8  19941450.82746  19941454.78046
      -528.980        -412.195  
 121106931.548    94369039.2284   23045884.067 7  23045884.00944  23045885.87644
     -2665.236       -2076.798  
 119028304.169    92749334.6074   22650331.967 7  22650331.70644  22650336.72744
     -1468.495       -1144.281  
 109049389.352    84973558.0454   20751403.908 8  20751403.07146  20751405.59046
      1519.588        1184.094  
 113906850.907    88758587.3634   21675749.950 7  21675749.92445  21675752.87445
      1862.889        1451.596  
 119285464.639    92949732.6474   22699267.647 7  22699267.65344  22699271.05544
      3000.366        2337.949  
 126688772.602    98718531.7794   24108070.343 6  24108070.09643  24108074.21843
      3084.777        2403.730  
 08 11  5  2 16 30.0000000  0  9G16G 6G 3G23G13G19G25G 7G27         
 116084617.627    90455543.4464   22090166.205 7  22090165.49345  22090169.70045
     -1783.230       -1389.526  
 109014373.962    84946267.8434   20744742.519 7  20744741.90546  20744746.47246
     -1349.227       -1051.341  
 104809142.482    81669471.2254   19944514.873 8  19944514.36246  19944518.42646
      -544.598        -424.355  
 121187026.802    94431451.0844   23061125.750 7  23061125.34644  23061126.79244
     -2674.744       -2084.214  
 119072614.647    92783862.2474   22658763.740 6  22658763.59844  22658768.27044
     -1485.838       -1157.791  
 109004032.679    84938215.1954   20742772.833 8  20742771.95546  20742774.43146
      1503.866        1171.845  
 113851171.603    88715200.8954   21665154.288 8  21665154.37445  21665157.51045
      1848.743        1440.581  
 119195592.617    92879702.5154   22682166.486 7  22682166.67345  22682169.24044
      2990.749        2330.462  
 126596300.335    98646475.4764   24090472.691 6  24090471.88944  24090478.71144
      3079.681        2399.756  
 08 11  5  2 17  0.0000000  0  9G16G 6G 3G23G13G19G25G 7G27         
 116138185.438    90497284.5684   22100359.940 7  22100359.16745  22100363.14445
     -1787.936       -1393.197  
 109055011.194    84977933.2194   20752475.488 7  20752475.13146  20752479.43345
     -1359.878       -1059.646  
 104825697.788    81682371.4634   19947665.400 8  19947664.65046  19947669.01446
      -559.053        -435.624  
 121267394.506    94494075.2454   23076418.856 7  23076418.33544  23076420.62244
     -2683.056       -2090.692  
 119117433.067    92818785.6704   22667292.943 7  22667292.85844  22667297.12944
     -1501.996       -1170.384  
 108959136.594    84903231.2324   20734229.538 8  20734228.65946  20734230.86546
      1489.213        1160.429  
 113795906.374    88672137.0804   21654637.337 7  21654637.44845  21654640.72045
      1835.619        1430.355  
 119105999.056    92809889.3494   22665116.162 6  22665116.25744  22665119.83244
      2982.153        2323.756  
 126503970.933    98574530.5134   24072903.674 6  24072902.91544  24072908.03144
      3075.612        2396.583  
 08 11  5  2 17 30.0000000  0  9G16G 6G 3G23G13G19G25G 7G27         
 116191901.879    90539141.5224   22110581.557 7  22110581.18444  22110585.47144
     -1792.522       -1396.766  
 109095974.250    85009852.4804   20760270.540 7  20760270.10146  20760274.51146
     -1370.374       -1067.819  
 104842694.115    81695615.3594   19950899.651 8  19950898.92746  19950903.48346
      -573.399        -446.802  
 121348017.191    94556898.0724   23091761.051 7  23091760.31044  23091762.84344
     -2691.153       -2097.000  
 119162742.503    92854091.7024   22675914.437 6  22675914.49544  22675919.16344
     -1517.990       -1182.842  
 108914686.719    84868594.9764   20725770.766 8  20725769.72246  20725772.28546
      1474.702        1149.119  
 113741043.039    88629386.4334   21644197.573 7  21644197.30445  21644200.91245
      1822.546        1420.163  
 119016672.403    92740284.1834   22648118.238 6  22648118.04544  22648122.22145
      2973.571        2317.069  
 126411772.355    98502687.4804   24055359.286 6  24055359.12844  24055362.16744
      3071.569        2393.424  
 08 11  5  2 18  0.0000000  0  9G16G 6G 3G23G13G19G25G 7G27         
 116245784.473    90581127.9304   22120835.030 7  22120834.38444  22120838.86844
     -1797.727       -1400.825  
 109137279.706    85042038.5514   20768130.680 7  20768130.24145  20768134.60645
     -1381.411       -1076.424  
 104860148.312    81709216.0314   19954220.857 8  19954220.36646  19954224.76746
      -588.289        -458.408  
 121428909.600    94619931.0864   23107154.842 7  23107154.31444  23107156.49044
     -2699.756       -2103.692  
 119208559.100    92889792.9314   22684633.680 6  22684633.57844  22684637.92944
     -1534.518       -1195.724  
 108870702.054    84834321.2194   20717400.738 8  20717399.74146  20717402.44246
      1459.525        1137.293  
 113686601.974    88586964.8284   21633837.727 7  21633837.51845  21633840.87745
      1808.766        1409.431  
 118927633.461    92670903.2054   22631174.883 6  22631174.67245  22631178.51545
      2964.265        2309.813  
 126319725.163    98430962.4034   24037843.412 7  24037842.60244  24037846.95444
      3066.827        2389.739  
 08 11  5  2 18 30.0000000  0  9G16G 6G 3G23G13G19G25G 7G27         
 116299812.088    90623227.3424   22131116.233 7  22131115.14644  22131119.58444
     -1804.069       -1405.768  
 109178904.128    85074473.1614   20776051.522 7  20776050.95645  20776055.51445
     -1393.505       -1085.849  
 104878037.154    81723155.3924   19957625.090 8  19957624.49946  19957628.81546
      -604.252        -470.846  
 121510046.981    94683154.9904   23122594.712 7  23122594.37244  23122595.62644
     -2709.382       -2111.198  
 119254858.603    92925870.4514   22693443.748 6  22693443.39044  22693448.34344
     -1552.076       -1209.402  
 108827160.969    84800393.1124   20709115.284 8  20709114.25146  20709116.71646
      1443.246        1124.607  
 113632563.437    88544856.8804   21623554.569 7  21623554.41345  21623558.13245
      1793.827        1397.783  
 118838863.314    92601731.6814   22614282.348 7  22614282.85145  22614286.88445
      2953.745        2301.620  
 126227809.945    98359340.1634   24020351.288 6  24020350.73744  24020355.46343
      3060.887        2385.105  
 08 11  5  2 19  0.0000000  0  9G16G 6G 3G23G13G19G25G 7G27         
 116354001.408    90665452.7544   22141428.544 7  22141427.45444  22141432.08144
     -1808.048       -1408.869  
 109220862.170    85107167.7414   20784036.075 7  20784035.46345  20784039.89845
     -1403.190       -1093.393  
 104896376.293    81737445.6284   19961115.105 8  19961114.47446  19961118.69646
      -617.837        -481.431  
 121591442.679    94746580.1934   23138083.601 7  23138083.13944  23138084.63644
     -2716.493       -2116.756  
 119301655.484    92962335.5404   22702348.548 6  22702347.96144  22702353.31744
     -1567.202       -1221.203  
 108784080.116    84766823.6254   20700917.347 8  20700916.42446  20700918.29446
      1429.308        1113.744  
 113578946.262    88503077.2674   21613351.741 7  21613351.74445  21613355.11645
      1781.147        1387.907  
 118750381.477    92532784.8244   22597445.406 7  22597445.45045  22597448.62045
      2945.530        2295.210  
 126136045.528    98287835.4444   24002889.895 6  24002889.41144  24002894.50944
      3057.226        2382.250  
 08 11  5  2 19 30.0000000  0  9G16G 6G 3G23G13G19G25G 7G27         
 116408334.388    90707790.1154   22151767.193 7  22151766.82844  22151770.61844
     -1813.266       -1412.932  
 109263134.322    85140107.0824   20792080.087 7  20792079.70046  20792084.01045
     -1414.061       -1101.863  
 104915145.711    81752071.1504   19964686.539 8  19964686.00246  19964690.43946
      -632.570        -492.912  
 121673075.355    94810190.0414   23153617.602 7  23153616.94244  23153619.61444
     -2724.767       -2123.198  
 119348929.085    92999172.0714   22711344.130 6  22711344.01044  22711349.67044
     -1583.489       -1233.877  
 108741441.761    84733598.9394   20692803.652 8  20692802.56346  20692804.45146
      1414.120        1101.911  
 113525734.341    88461613.4414   21603225.772 7  21603225.50845  21603229.18745
      1767.171        1377.019  
 118662172.164    92464050.2974   22580659.608 7  22580659.26045  22580663.02745
      2935.964        2287.756  
 126044416.228    98216436.0144   23985453.554 7  23985453.27844  23985457.62844
      3052.255        2378.378  
 08 11  5  2 20  0.0000000  0  9G16G 6G 3G23G13G19G25G 7G27         
 116462821.954    90750247.9334   22162136.606 7  22162135.63244  22162139.80644
     -1819.576       -1417.849  
 109305729.709    85173298.2904   20800185.922 7  20800185.52046  20800189.64646
     -1425.977       -1111.148  
 104934354.673    81767039.1744   19968341.942 8  19968341.34446  19968345.78546
      -648.355        -505.212  
 121754952.684    94873990.5244   23169198.229 7  23169197.40944  23169200.72644
     -2734.043       -2130.426  
 119396687.872    93036386.6854   22720432.633 6  22720432.24344  22720437.97243
     -1600.788       -1247.363  
 108699257.006    84700727.7014   20684775.926 8  20684774.95346  20684777.22046
      1397.841        1089.228  
 113472940.849    88420475.6514   21593179.573 7  21593179.54145  21593183.25245
      1752.040        1365.225  
 118574249.242    92395538.9324   22563928.384 7  22563928.42545  22563931.80745
      2925.213        2279.388  
 125952935.179    98145152.0904   23968045.017 7  23968044.84644  23968048.67044
      3046.124        2373.603  
 08 11  5  2 20 30.0000000  0  9G16G 6G 3G23G13G19G25G 7G27         
 116517475.072    90792834.7514   22172535.874 7  22172535.92644  22172539.68944
     -1824.096       -1421.370  
 109348657.739    85206748.7014   20808354.711 8  20808354.58446  20808358.63345
     -1435.998       -1118.958  
 104954013.193    81782357.5004   19972082.798 8  19972082.30446  19972086.61146
      -662.317        -516.093  
 121837082.345    94937987.6264   23184827.249 7  23184827.05444  23184828.66144
     -2741.384       -2136.153  
 119444940.580    93073986.1774   22729614.709 6  22729615.39744  22729619.41844
     -1616.186       -1259.353  
 108657537.210    84668218.7754   20676836.952 8  20676835.83546  20676838.34646
      1383.347        1077.930  
 113420578.766    88379674.0294   21583215.183 7  21583215.32745  21583218.80145
      1738.637        1354.785  
 118486626.654    92327261.6094   22547254.790 7  22547255.02645  22547257.85145
      2916.154        2272.321  
 125861615.692    98073994.0644   23950667.421 7  23950666.91244  23950671.35144
      3041.712        2370.162  
 08 11  5  2 21  0.0000000  0  9G16G 6G 3G23G13G19G25G 7G27         
 116572277.028    90835537.5464   22182965.083 7  22182964.53644  22182968.14344
     -1828.383       -1424.718  
 109391899.377    85240443.4704   20816583.263 7  20816582.90245  20816587.40445
     -1445.770       -1126.574  
 104974102.665    81798011.6364   19975905.691 8  19975905.10946  19975909.55446
      -675.988        -526.741  
 121919443.856    95002165.4034   23200499.232 7  23200498.73844  23200501.87744
     -2748.407       -2141.611  
 119493667.439    93111955.1354   22738887.824 6  22738887.29944  22738891.73444
     -1631.297       -1271.137  
 108616265.294    84636058.8474   20668983.289 8  20668982.38246  20668984.79046
      1369.085        1066.814  
 113368633.069    88339196.8674   21573330.327 7  21573330.27945  21573334.28445
      1725.372        1344.447  
 118399289.510    92259206.6954   22530634.901 7  22530635.26345  22530638.47945
      2907.260        2265.399  
 125770442.864    98002950.3094   23933317.965 7  23933317.88244  23933321.27644
      3037.448        2366.839  
 08 11  5  2 21 30.0000000  0  9G16G 6G 3G23G13G19G25G 7G27         
 116627224.968    90878354.0944   22193421.041 6  22193420.42244  22193424.36344
     -1834.407       -1429.402  
 109435450.188    85274379.1624   20824870.513 7  20824870.00445  20824874.92545
     -1457.209       -1135.485  
 104994619.079    81813998.4594   19979809.802 8  19979809.05246  19979813.75346
      -691.336        -538.706  
 122002031.450    95066519.3454   23216215.622 7  23216215.17144  23216218.30244
     -2757.027       -2148.327  
 119542863.106    93150289.3904   22748249.508 7  22748249.47244  22748254.25244
     -1648.034       -1284.166  
 108575438.361    84604245.6644   20661214.352 8  20661213.38846  20661215.46746
      1353.094        1054.357  
 113317102.871    88299043.4724   21563524.729 8  21563524.75145  21563528.31046
      1710.358        1332.745  
 118312237.608    92191374.0664   22514069.796 7  22514069.59045  22514073.25545
      2896.569        2257.058  
 125679416.267    97932020.5214   23915996.103 7  23915995.67244  23915999.69644
      3031.391        2362.121  
 08 11  5  2 22  0.0000000  0  9G16G 6G 3G23G13G19G25G 7G27         
 116682330.405    90921293.3614   22203907.615 7  22203906.78844  22203910.24844
     -1840.117       -1433.859  
 109479319.865    85308563.3124   20833218.910 8  20833218.47645  20833222.85545
     -1468.239       -1144.078  
 105015571.999    81830325.4094   19983797.069 8  19983796.46246  19983801.05746
      -706.330        -550.384  
 122084853.105    95131055.6494   23231976.034 7  23231975.40844  23231978.82544
     -2765.224       -2154.704  
 119592536.580    93188995.9704   22757702.199 7  22757701.82344  22757706.33744
     -1664.348       -1296.882  
 108535068.227    84572788.4164   20653532.136 8  20653531.08646  20653533.44746
      1337.418        1042.146  
 113266001.693    88259224.3714   21553800.635 8  21553800.49145  21553803.71645
      1695.564        1321.219  
 118225485.582    92123775.0914   22497560.465 7  22497560.87545  22497564.67345
      2886.065        2248.884  
 125588549.714    97861215.4474   23898704.541 7  23898704.35744  23898708.49344
      3025.547        2357.567  
 08 11  5  2 22 30.0000000  0  9G16G 6G 3G23G13G19G25G 7G27         
 116737598.838    90964359.6474   22214424.478 7  22214423.72744  22214427.88244
     -1844.212       -1437.053  
 109523512.019    85342998.7584   20841628.586 7  20841628.40145  20841632.29145
     -1477.632       -1151.405  
 105036965.426    81846995.6154   19987868.117 8  19987867.51446  19987872.09046
      -719.660        -560.773  
 122167911.077    95195776.1014   23247781.544 7  23247781.18444  23247783.68644
     -2771.727       -2159.788  
 119642690.967    93228077.2944   22767246.423 7  22767246.35544  22767250.16044
     -1679.033       -1308.337  
 108495160.477    84541691.4804   20645937.739 8  20645936.66346  20645939.19146
      1323.330        1031.166  
 113215337.050    88219745.4304   21544159.490 8  21544159.44846  21544162.76746
      1682.298        1310.883  
 118139041.242    92056415.8824   22481111.145 7  22481111.06045  22481114.83245
      2877.110        2241.905  
 125497850.712    97790540.9124   23881445.515 7  23881444.96444  23881448.45244
      3021.263        2354.216  
 08 11  5  2 23  0.0000000  0  9G16G 6G 3G23G13G19G25G 7G27         
 116793015.767    91007541.6414   22224970.276 7  22224969.57244  22224973.27344
     -1849.599       -1441.245  
 109568010.480    85377672.8764   20850096.232 7  20850095.69346  20850100.36346
     -1488.278       -1159.699  
 105058783.698    81863996.8684   19992019.829 8  19992019.16946  19992023.62946
      -734.241        -572.138  
 122251187.366    95260666.6924   23263628.802 7  23263628.51044  23263630.77944
     -2779.390       -2165.754  
 119693309.176    93267520.0384   22776879.199 7  22776879.16144  22776882.67444
     -1694.879       -1320.681  
 108455700.653    84510943.5724   20638428.576 8  20638427.60246  20638430.24546
      1307.953        1019.185  
 113165096.392    88180596.8614   21534598.614 7  21534598.43246  21534602.44946
      1667.701        1299.505  
 118052892.865    91989287.2744   22464717.741 7  22464718.69845  22464721.30045
      2866.741        2233.826  
 125407307.032    97719987.4254   23864214.503 6  23864213.65943  23864218.47543
      3015.606        2349.826  
 08 11  5  2 23 30.0000000  0  9G16G 6G 3G23G13G19G25G 7G27         
 116848582.030    91050839.9994   22235544.706 7  22235543.97744  22235546.69044
     -1854.799       -1445.297  
 109612814.240    85412584.8864   20858621.855 7  20858621.50745  20858626.06945
     -1498.618       -1167.752  
 105081025.796    81881328.3814   19996252.441 8  19996251.79846  19996256.36546
      -748.531        -583.273  
 122334679.606    95325725.5424   23279516.975 7  23279515.81744  23279519.00744
     -2786.734       -2171.482  
 119744389.161    93307322.5934   22786599.361 7  22786599.58344  22786603.11544
     -1710.431       -1332.795  
 108416689.431    84480545.2264   20631005.209 8  20631004.13946  20631006.68646
      1292.796        1007.370  
 113115282.623    88141780.9394   21525119.610 8  21525119.18446  21525123.50646
      1653.214        1288.218  
 117967043.904    91922391.9974   22448381.189 7  22448381.04045  22448384.84745
      2856.540        2225.869  
 125316921.932    97649557.5104   23847015.173 7  23847015.39043  23847018.47944
      3010.071        2345.506  
 08 11  5  2 24  0.0000000  0  9G16G 6G 3G23G13G19G25G 7G27         
 116904305.960    91094261.2164   22246148.730 7  22246147.86444  22246151.14744
     -1860.079       -1449.420  
 109657929.660    85447739.7474   20867207.268 7  20867206.85345  20867210.98445
     -1509.051       -1175.879  
 105103698.317    81898995.2844   20000567.010 8  20000566.63746  20000570.85746
      -762.909        -594.478  
 122418392.913    95390956.6484   23295446.259 6  23295445.80344  23295449.10444
     -2794.085       -2177.213  
 119795936.477    93347489.3164   22796407.643 7  22796407.82344  22796412.39444
     -1726.009       -1344.944  
 108378135.247    84450503.0084   20623668.385 8  20623667.51946  20623670.14146
      1277.523         995.472  
 113065905.706    88103305.4244   21515723.377 8  21515723.09946  21515727.39446
      1638.614        1276.839  
 117881505.365    91855738.6014   22432103.335 7  22432103.05845  22432107.73845
      2846.099        2217.739  
 125226705.799    97579259.2414   23829847.607 7  23829847.53643  23829849.73643
      3004.379        2341.073  
 08 11  5  2 24 30.0000000  0  9G16G 6G 3G23G13G19G25G 7G27         
 116960182.977    91137801.7224   22256781.438 7  22256780.51844  22256784.57444
     -1864.719       -1453.033  
 109703350.558    85483132.6504   20875850.704 8  20875850.15545  20875854.24845
     -1518.686       -1183.399  
 105126795.501    81916993.0904   20004962.191 8  20004961.76746  20004966.24446
      -776.562        -605.113  
 122502319.371    95456353.8374   23311417.272 6  23311417.02444  23311419.88844
     -2800.659       -2182.328  
 119847944.167    93388014.7744   22806304.725 7  22806304.56644  22806308.16144
     -1740.818       -1356.484  
 108340033.640    84420813.4494   20616418.021 8  20616417.03146  20616419.65546
      1262.916         984.086  
 113016963.154    88065168.3774   21506409.918 8  21506409.56445  21506413.72846
      1624.557        1265.886  
 117796275.186    91789325.4864   22415884.422 7  22415884.31245  22415888.87645
      2836.222        2210.042  
 125136656.135    97509090.6834   23812711.281 6  23812710.77943  23812714.24543
      2999.240        2337.069  
 08 11  5  2 25  0.0000000  0  9G16G 6G 3G23G13G19G25G 7G27         
 117016218.237    91181465.5264   22267444.466 7  22267443.54844  22267447.68844
     -1869.867       -1457.027  
 109749079.877    85518765.8734   20884552.352 7  20884552.22345  20884556.40345
     -1528.846       -1191.309  
 105150320.469    81935324.2314   20009438.871 8  20009438.22846  20009442.86646
      -790.689        -616.119  
 122586460.298    95521918.1564   23327428.632 6  23327428.21744  23327431.62244
     -2807.634       -2187.752  
 119900414.202    93428900.5014   22816289.166 7  22816289.21944  22816293.35744
     -1756.102       -1368.378  
 108302389.064    84391480.0254   20609254.436 8  20609253.30046  20609256.18146
      1247.797         972.310  
 112968461.684    88027375.0284   21497180.437 7  21497180.01445  21497184.33545
      1609.948        1254.510  
 117711360.633    91723158.3254   22399725.759 7  22399725.99745  22399729.86045
      2825.781        2201.911  
 125046780.333    97439057.6124   23795609.183 7  23795608.81443  23795612.13843
      2993.540        2332.627  
 08 11  5  2 25 30.0000000  0  9G16G 6G 3G23G13G19G25G 7G27         
 117072396.588    91225240.8374   22278134.890 7  22278134.27244  22278138.37944
     -1875.323       -1461.290  
 109795101.379    85554626.7774   20893310.023 8  20893309.72245  20893313.66445
     -1539.191       -1199.368  
 105174256.987    81953976.0664   20013993.911 8  20013993.43246  20013997.65146
      -805.045        -627.309  
 122670797.778    95587635.6334   23343478.123 6  23343477.56144  23343480.31444
     -2814.784       -2193.324  
 119953329.405    93470133.0924   22826359.059 7  22826359.05044  22826362.89444
     -1771.547       -1380.424  
 108265187.099    84362491.4934   20602174.917 8  20602173.93546  20602176.59246
      1232.361         960.278  
 112920388.652    87989915.5244   21488032.406 8  21488032.23745  21488036.11645
      1594.940        1242.810  
 117626750.002    91657227.9634   22383625.677 7  22383626.12745  22383628.47145
      2814.945        2193.462  
 124957066.042    97369150.3884   23778536.784 6  23778536.14143  23778539.74743
      2987.436        2327.852  
 08 11  5  2 26  0.0000000  0  9G16G 6G 3G23G13G19G25G 7G27         
 117128752.911    91269154.8224   22288859.336 7  22288858.49644  22288862.74444
     -1881.231       -1465.890  
 109841447.651    85590740.7494   20902129.451 7  20902129.11645  20902133.21845
     -1549.988       -1207.779  
 105198638.179    81972974.4004   20018633.716 8  20018633.22546  20018637.43346
      -819.823        -638.823  
 122755362.970    95653530.5424   23359570.491 7  23359569.96544  23359572.52244
     -2822.336       -2199.222  
 120006721.819    93511737.5634   22836519.163 7  22836518.88244  22836522.44144
     -1787.408       -1392.789  
 108228462.095    84333874.6124   20595186.563 8  20595185.40546  20595187.66546
      1216.485         947.914  
 112872780.432    87952818.2084   21478972.750 8  21478972.62945  21478976.53945
      1579.449        1230.745  
 117542480.326    91591563.2824   22367589.418 7  22367589.52445  22367592.73845
      2803.558        2184.594  
 124867550.043    97299397.6704   23761501.631 6  23761500.17443  23761505.66543
      2980.826        2322.715  
 08 11  5  2 26 30.0000000  0  9G16G 6G 3G23G13G19G25G 7G27         
 117185257.331    91313184.2084   22299611.916 7  22299611.72144  22299614.90844
     -1886.094       -1469.679  
 109888086.917    85627083.0194   20911004.404 7  20911004.31345  20911008.40645
     -1559.622       -1215.291  
 105223432.098    81992294.3354   20023351.536 8  20023350.95446  20023355.82546
      -833.467        -649.451  
 122840122.973    95719577.2674   23375699.582 6  23375699.29744  23375701.63944
     -2828.667       -2204.152  
 120060558.768    93553688.4054   22846763.961 7  22846764.36244  22846767.56744
     -1802.095       -1404.221  
 108192184.239    84305606.1574   20588283.353 8  20588282.30646  20588284.45546
      1201.673         936.363  
 112825608.949    87916061.2124   21469996.421 8  21469995.97345  21470000.10145
      1564.947        1219.442  
 117458524.390    91526143.0924   22351612.756 7  22351612.65545  22351616.80345
      2793.129        2176.463  
 124778204.616    97229777.8854   23744499.636 6  23744499.12243  23744504.57543
      2975.163        2318.312  
 08 11  5  2 27  0.0000000  0  9G16G 6G 3G23G13G19G25G 7G27         
 117241913.918    91357332.1574   22310393.311 7  22310392.82344  22310396.35644
     -1891.910       -1474.212  
 109935021.529    85663655.4324   20919935.795 7  20919935.49445  20919939.90745
     -1570.187       -1223.518  
 105248641.811    82011938.2644   20028148.873 8  20028148.21946  20028152.95046
      -848.056        -660.820  
 122925078.179    95785776.0754   23391866.618 7  23391865.91944  23391869.70144
     -2835.866       -2209.760  
 120114841.391    93595986.5344   22857093.513 7  22857093.78344  22857097.21144
     -1817.640       -1416.331  
 108156357.474    84277689.2084   20581465.376 8  20581464.21146  20581466.85146
      1185.888         924.068  
 112778880.239    87879649.2274   21461104.453 7  21461103.96845  21461107.77345
      1549.407        1207.336  
 117374888.974    91460972.6674   22335697.424 7  22335697.61845  22335701.06845
      2781.647        2167.507  
 124689036.116    97160295.9634   23727531.753 6  23727531.21643  23727536.15743
      2968.490        2313.113  
 08 11  5  2 27 30.0000000  0  9G16G 6G 3G23G13G19G25G 7G27         
 117298727.046    91401602.1004   22321204.478 7  22321203.96044  22321207.65844
     -1895.863       -1477.290  
 109982253.832    85700459.8174   20928924.210 7  20928923.60045  20928928.04445
     -1578.885       -1230.295  
 105274269.623    82031907.9844   20033025.805 8  20033025.37346  20033029.60246
      -860.701        -670.677  
 123010229.384    95852127.6394   23408069.662 6  23408069.17144  23408072.85544
     -2841.091       -2213.840  
 120169571.071    93638633.0454   22867508.857 7  22867508.85044  22867512.37944
     -1831.230       -1426.937  
 108120985.907    84250126.9564   20574734.509 8  20574733.41646  20574735.85446
      1171.968         913.219  
 112732600.208    87843586.8644   21452297.280 7  21452297.10445  21452300.96445
      1535.677        1196.631  
 117291580.976    91396057.3464   22319844.433 7  22319845.50245  22319848.03545
      2771.960        2159.972  
 124600051.009    97090956.9504   23710598.720 6  23710597.74943  23710601.97243
      2963.593        2309.287  
 08 11  5  2 28  0.0000000  0  9G16G 6G 3G23G13G19G25G 7G27         
 117355695.299    91445992.9194   22332044.539 7  22332044.11844  22332048.15644
     -1902.093       -1482.157  
 110029780.912    85737493.8954   20937968.055 7  20937967.63945  20937972.09445
     -1589.674       -1238.705  
 105300312.563    82052201.1824   20037981.342 8  20037980.90246  20037985.23446
      -875.582        -682.273  
 123095572.232    95918628.4974   23424310.261 7  23424310.12844  23424312.66744
     -2848.495       -2219.613  
 120224744.114    93681624.9954   22878007.649 7  22878007.71944  22878011.17744
     -1847.027       -1439.249  
 108086068.031    84222918.2304   20568089.796 8  20568088.66646  20568091.22946
      1155.797         900.619  
 112686769.581    87807874.6824   21443576.118 7  21443575.92145  21443579.82645
      1519.601        1184.103  
 117208601.468    91331398.0054   22304054.439 7  22304054.67645  22304056.85345
      2759.908        2150.580  
 124511250.413    97021761.6834   23693700.694 6  23693700.11043  23693703.93643
      2956.368        2303.652  
 08 11  5  2 28 30.0000000  0  9G16G 6G 3G23G13G19G25G 7G27         
 117412803.369    91490492.6824   22342912.074 7  22342911.29444  22342915.21744
     -1906.453       -1485.554  
 110077585.374    85774744.1184   20947065.069 8  20947064.97745  20947069.29745
     -1598.630       -1245.682  
 105326753.785    82072804.7244   20043013.016 8  20043012.22246  20043016.79246
      -888.514        -692.349  
 123181088.162    95985264.2504   23440583.425 6  23440582.77044  23440585.51344
     -2853.890       -2223.808  
 120280342.071    93724948.0714   22888587.443 6  22888586.68444  22888591.46344
     -1860.858       -1450.024  
 108051588.376    84196050.9774   20561528.637 8  20561527.40346  20561529.94146
      1141.500         889.479  
 112641374.754    87772502.0894   21434937.716 8  21434937.47445  21434941.44345
      1505.347        1173.000  
 117125937.795    91266984.7594   22288323.700 7  22288322.83744  22288326.42044
      2749.635        2142.571  
 124422620.806    96952699.6494   23676834.659 6  23676834.11844  23676838.58544
      2950.908        2299.406  
 08 11  5  2 29  0.0000000  0  9G16G 6G 3G23G13G19G25G 7G27         
 117470069.159    91535115.3434   22353809.095 7  22353808.55044  22353812.27444
     -1911.679       -1489.609  
 110125683.561    85812223.2174   20956217.794 8  20956217.45545  20956221.93245
     -1608.324       -1253.234  
 105353609.260    82093731.0614   20048123.258 8  20048122.80046  20048127.28646
      -902.266        -703.063  
 123266791.342    96052045.9024   23456892.058 6  23456891.72943  23456894.31143
     -2860.056       -2228.608  
 120336380.172    93768614.0964   22899251.104 6  22899250.90743  22899255.08143
     -1875.439       -1461.385  
 108017564.662    84169538.9994   20555053.949 8  20555053.00546  20555055.02446
      1126.329         877.660  
 112596435.372    87737484.3884   21426385.999 7  21426386.03645  21426389.99945
      1490.165        1161.168  
 117043610.648    91202833.7334   22272657.129 7  22272657.75944  22272660.34145
      2738.424        2133.840  
 124334182.498    96883786.7014   23660004.607 6  23660004.01144  23660010.02243
      2944.522        2294.439  
 08 11  5  2 29 30.0000000  0  9G16G 6G 3G23G13G19G25G 7G27         
 117527482.683    91579853.1114   22364734.672 7  22364734.11944  22364738.47544
     -1915.720       -1492.766  
 110174063.800    85849922.0964   20965424.112 7  20965423.68545  20965428.54645
     -1616.794       -1259.836  
 105380868.015    82114971.6424   20053310.667 7  20053310.03146  20053314.51546
      -914.797        -712.826  
 123352668.718    96118963.3054   23473233.936 7  23473233.39344  23473236.40844
     -2864.927       -2232.407  
 120392845.780    93812613.2374   22909995.643 7  22909995.62043  22910000.03443
     -1888.731       -1471.724  
 107983986.973    84143374.5744   20548664.456 8  20548663.40446  20548665.51446
      1112.348         866.765  
 112551943.438    87702815.3484   21417919.578 8  21417919.46945  21417923.26345
      1476.128        1150.228  
 116961612.529    91138939.1074   22257053.430 7  22257053.62744  22257056.74044
      2728.287        2125.942  
 124245928.033    96815016.9984   23643210.988 6  23643209.96844  23643215.60844
      2939.245        2290.318  
 08 11  5  2 30  0.0000000  0  9G16G 6G 3G23G13G19G25G 7G27         
 117585072.726    91624728.4454   22375694.124 7  22375693.21244  22375697.15444
     -1922.461       -1498.026  
 110222752.267    85887861.1524   20974689.408 7  20974689.00845  20974693.62545
     -1627.913       -1268.508  
 105408556.705    82136547.2354   20058579.396 8  20058578.93246  20058583.71946
      -929.942        -724.629  
 123438745.382    96186035.9854   23489614.003 6  23489613.17343  23489615.12444
     -2872.376       -2238.219  
 120449764.468    93856965.4544   22920826.925 7  22920826.94543  22920830.71943
     -1904.643       -1484.144  
 107950883.462    84117579.6374   20542365.230 8  20542364.21346  20542366.41346
      1095.697         853.790  
 112507929.201    87668518.5344   21409543.757 8  21409543.69345  21409547.71545
      1459.308        1137.117  
 116879974.673    91075325.2164   22241518.589 7  22241518.88244  22241521.61444
      2715.367        2115.871  
 124157888.193    96746414.5334   23626456.750 6  23626456.12143  23626462.39943
      2931.229        2284.073  
 08 11  5  2 30 30.0000000  0  9G16G 6G 3G23G13G19G25G 7G27         
 117642821.595    91669727.5254   22386683.438 7  22386682.63644  22386686.57144
     -1927.806       -1502.172  
 110271730.072    85926025.6634   20984009.777 7  20984009.25345  20984013.53645
     -1637.567       -1276.027  
 105436655.755    82158442.5914   20063926.776 8  20063926.07446  20063930.70746
      -943.641        -735.307  
 123525000.514    96253247.7434   23506027.851 7  23506027.11743  23506030.06244
     -2878.292       -2242.825  
 120507115.802    93901654.7754   22931740.867 7  22931741.24743  22931744.16643
     -1919.091       -1495.388  
 107918236.325    84092140.3174   20536152.447 8  20536151.46846  20536154.05546
      1080.452         841.911  
 112464376.903    87634581.6734   21401256.132 8  21401255.80845  21401259.95645
      1443.845        1125.072  
 116798681.953    91011980.2454   22226048.210 6  22226047.89344  22226051.42144
      2703.783        2106.842  
 124070047.693    96677967.4084   23609742.101 6  23609741.84844  23609746.82644
      2924.497        2278.830  
 08 11  5  2 31  0.0000000  0  9G16G 6G 3G23G13G19G25G 7G27         
 117700726.017    91714847.8194   22397702.316 7  22397701.82244  22397705.55644
     -1931.514       -1505.077  
 110320992.060    85964411.6214   20993383.887 7  20993383.61445  20993387.70445
     -1645.520       -1282.228  
 105465160.309    82180653.9234   20069350.914 8  20069350.30946  20069354.71146
      -955.661        -744.675  
 123611427.397    96320593.3264   23522473.985 6  23522472.76043  23522476.12843
     -2882.478       -2246.094  
 120564893.603    93946676.4164   22942736.091 7  22942736.18244  22942739.29443
     -1931.782       -1505.284  
 107886041.998    84067053.8334   20530026.378 8  20530025.39446  20530027.78046
      1066.838         831.296  
 112421284.916    87601003.5054   21393056.417 8  21393055.98145  21393059.43345
      1429.934        1114.229  
 116717733.860    90948903.8114   22210644.501 7  22210644.52944  22210647.46744
      2693.738        2099.008  
 123982405.394    96609674.7194   23593064.245 7  23593064.16844  23593068.50444
      2919.309        2274.778  
 08 11  5  2 31 30.0000000  0  9G16G 6G 3G23G13G19G25G 7G27         
 117758752.740    91760063.4134   22408744.382 7  22408743.25344  22408747.01644
     -1936.638       -1509.074  
 110370503.130    86002991.6634   21002805.509 8  21002805.10645  21002809.31745
     -1654.857       -1289.501  
 105494036.091    82203154.5264   20074845.734 8  20074844.92746  20074849.54146
      -969.074        -755.124  
 123697989.796    96388044.4934   23538946.547 6  23538945.67043  23538948.65943
     -2887.990       -2250.370  
 120623061.905    93992002.3514   22953805.149 7  22953804.87944  22953808.14144
     -1945.793       -1516.209  
 107854267.322    84042294.3574   20523979.798 8  20523978.99246  20523981.27246
      1051.786         819.572  
 112378621.829    87567759.5354   21384937.399 8  21384937.22445  21384941.14945
      1414.565        1102.256  
 116637099.812    90886072.0764   22195300.683 7  22195300.57144  22195303.00544
      2682.178        2090.008  
 123894930.593    96541512.5474   23576418.130 6  23576417.13844  23576422.44243
      2912.651        2269.588  
 08 11  5  2 32  0.0000000  0  9G16G 6G 3G23G13G19G25G 7G27         
 117816939.817    91805403.9704   22419817.317 7  22419816.53344  22419819.90244
     -1942.358       -1513.535  
 110420299.425    86041793.9624   21012281.461 8  21012281.20445  21012285.28645
     -1664.703       -1297.173  
 105523318.961    82225972.3384   20080418.038 8  20080417.11446  20080422.17246
      -982.966        -765.953  
 123784721.960    96455627.9664   23555451.219 6  23555450.24443  23555452.83743
     -2893.989       -2255.064  
 120681655.716    94037659.8544   22964955.228 7  22964955.43044  22964958.38044
     -1960.301       -1527.505  
 107822949.890    84017891.1784   20518020.369 8  20518019.16546  20518021.47046
      1036.190         807.413  
 112336427.471    87534880.8094   21376908.278 8  21376908.18945  21376911.81845
      1398.556        1089.778  
 116556820.302    90823516.6294   22180023.605 7  22180023.85044  22180026.48044
      2669.933        2080.464  
 123807663.517    96473512.2334   23559812.450 6  23559811.17844  23559817.11344
      2905.282        2263.844  
 08 11  5  2 32 30.0000000  0  9G16G 6G 3G23G13G19G25G 7G27         
 117875271.748    91850857.3814   22430917.221 7  22430917.07944  22430920.37744
     -1947.607       -1517.621  
 110470363.195    86080804.6824   21021808.287 7  21021807.94845  21021812.31845
     -1674.037       -1304.441  
 105552990.976    82249093.3764   20086064.485 8  20086064.00546  20086068.59446
      -996.343        -776.373  
 123871604.945    96523328.9514   23571984.232 6  23571983.83343  23571986.78543
     -2899.397       -2259.268  
 120740656.234    94083634.2734   22976183.198 7  22976183.31944  22976186.41544
     -1974.263       -1538.391  
 107792073.218    83993831.4344   20512144.621 8  20512143.87446  20512146.05946
      1021.052         795.625  
 112294687.454    87502356.1164   21368965.616 7  21368965.52045  21368968.83045
      1382.920        1077.604  
 116476882.132    90761227.1624   22164812.663 7  22164812.45444  22164814.91544
      2658.053        2071.219  
 123720590.399    96405663.0674   23543243.353 6  23543242.94744  23543246.89344
      2898.360        2258.467  
 08 11  5  2 33  0.0000000  0  9G16G 6G 3G23G13G19G25G 7G27         
 117933739.363    91896416.5184   22442043.374 7  22442042.64144  22442046.42844
     -1950.990       -1520.253  
 110520684.199    86120015.8384   21031384.210 7  21031383.59245  21031388.26445
     -1681.470       -1310.236  
 105583042.529    82272510.1644   20091783.228 7  20091782.72946  20091787.20246
     -1007.821        -785.312  
 123958626.702    96591138.0644   23588544.230 6  23588543.68343  23588546.86543
     -2902.814       -2261.925  
 120800051.922    94129916.6004   22987485.139 7  22987485.73843  22987488.95443
     -1986.222       -1547.698  
 107761628.441    83970108.2384   20506350.976 8  20506350.14646  20506352.53346
      1007.805         785.301  
 112253395.013    87470180.1774   21361107.895 8  21361108.05145  21361111.41245
      1369.138        1066.855  
 116397279.285    90699198.9914   22149664.300 7  22149664.24444  22149667.68144
      2647.989        2063.370  
 123633705.094    96337960.2274   23526709.532 7  23526709.23044  23526713.09844
      2893.212        2254.455  
 08 11  5  2 33 30.0000000  0  9G16G 6G 3G23G13G19G25G 7G27         
 117992330.177    91942071.6734   22453193.173 7  22453192.64844  22453195.96344
     -1955.030       -1523.396  
 110571247.759    86159416.0054   21041006.139 8  21041005.58845  21041010.20945
     -1689.439       -1316.441  
 105613458.868    82296211.2044   20097571.142 8  20097570.72346  20097575.16246
     -1019.894        -794.722  
 124045771.101    96659042.7474   23605126.939 6  23605126.67843  23605129.41143
     -2906.774       -2265.009  
 120859827.411    94176494.8844   22998859.444 6  22998860.13943  22998863.11143
     -1998.767       -1557.473  
 107731603.085    83946711.8674   20500637.386 8  20500636.18746  20500638.81846
       993.911         774.478  
 112212539.202    87438344.4874   21353333.403 8  21353333.32445  21353336.38245
      1354.617        1055.541  
 116318002.045    90637424.5274   22134578.598 7  22134578.27344  22134580.60044
      2637.186        2054.948  
 123546997.047    96270395.5194   23510209.373 7  23510207.95144  23510213.21544
      2887.321        2249.863  
 08 11  5  2 34  0.0000000  0  9G16G 6G 3G23G13G19G25G 7G27         
 118051058.926    91987834.3004   22464368.124 7  22464367.65544  22464371.94344
     -1960.310       -1527.513  
 110622066.947    86199015.3614   21050676.620 8  21050676.06545  21050680.60945
     -1698.588       -1323.569  
 105644253.056    82320206.6764   20103431.154 8  20103430.62746  20103435.07346
     -1033.115        -805.028  
 124133049.341    96727051.7064   23621735.539 6  23621735.09643  23621738.14043
     -2911.844       -2268.966  
 120919994.096    94223377.9724   23010308.689 6  23010308.59943  23010312.40543
     -2012.406       -1568.116  
 107702011.177    83923653.2494   20495006.161 8  20495005.12746  20495007.63946
       978.811         762.710  
 112172136.256    87406861.6614   21345645.114 8  21345644.84845  21345648.02546
      1338.835        1043.246  
 116239066.889    90575916.6124   22119557.396 7  22119557.59144  22119560.35445
      2625.078        2045.511  
 123460483.341    96202982.2544   23493745.834 6  23493745.45444  23493750.55844
      2880.153        2244.269  
 08 11  5  2 34 30.0000000  0  9G16G 6G 3G23G13G19G25G 7G27         
 118109958.921    92033730.3574   22475577.024 7  22475576.42144  22475579.95344
     -1966.430       -1532.274  
 110673172.580    86238837.9224   21060401.713 7  21060401.32145  21060405.71645
     -1708.541       -1331.328  
 105675456.567    82344521.0904   20109369.242 8  20109368.46646  20109373.09046
     -1047.169        -815.977  
 124220491.628    96795188.4794   23638375.682 6  23638374.94243  23638377.83443
     -2917.698       -2273.530  
 120980582.301    94270589.5574   23021837.930 6  23021837.49143  23021842.42343
     -2026.843       -1579.360  
 107672885.547    83900957.9614   20489463.914 8  20489462.70546  20489465.42646
       962.838         750.261  
 112132220.956    87375758.8274   21338049.246 8  21338049.05245  21338052.08645
      1322.099        1030.207  
 116160509.892    90514703.3784   22104608.837 7  22104608.86745  22104611.35645
      2611.990        2035.310  
 123374199.237    96135747.8954   23477326.751 6  23477326.02144  23477330.19844
      2872.039        2237.954  
 08 11  5  2 35  0.0000000  0  9G16G 6G 3G23G13G19G25G 7G27         
 118169016.395    92079749.1334   22486815.106 7  22486814.23544  22486817.89144
     -1971.399       -1536.144  
 110724549.818    86278872.1214   21070178.394 8  21070177.91945  21070182.66345
     -1717.256       -1338.119  
 105707053.522    82369142.0864   20115381.915 8  20115381.22846  20115385.72446
     -1059.958        -825.940  
 124308080.702    96863439.6354   23655042.997 6  23655043.09643  23655045.79843
     -2922.240       -2277.062  
 121041575.542    94318116.7124   23033445.417 6  23033445.07843  23033449.13743
     -2040.016       -1589.617  
 107644212.308    83878615.1814   20484007.727 8  20484006.69446  20484008.86746
       948.056         738.747  
 112092781.280    87345026.6064   21330544.169 8  21330543.70745  21330547.25145
      1306.526        1018.073  
 116082319.993    90453776.1824   22089730.128 7  22089730.37145  22089731.99645
      2599.992        2025.972  
 123288133.557    96068683.7274   23460948.649 6  23460947.60344  23460953.08544
      2864.999        2232.478  
 08 11  5  2 35 30.0000000  0  9G16G 6G 3G23G13G19G25G 7G27         
 118228250.716    92125905.7234   22498087.006 6  22498086.13644  22498091.06744
     -1978.087       -1541.371  
 110776215.912    86319131.4124   21080010.156 7  21080009.68145  21080014.11545
     -1727.675       -1346.247  
 105739061.898    82394083.6734   20121472.770 8  20121472.01546  20121476.68846
     -1074.438        -837.225  
 124395832.598    96931817.7014   23671741.783 6  23671741.24443  23671743.97343
     -2928.411       -2281.862  
 121102990.308    94365972.3774   23045132.283 6  23045131.86543  23045135.51943
     -2054.804       -1601.144  
 107616010.432    83856639.7034   20478640.985 8  20478640.19346  20478642.18546
       931.539         725.870  
 112053838.368    87314681.4814   21323133.540 7  21323133.33045  21323136.55445
      1289.129        1004.521  
 116004519.359    90393152.3284   22074925.162 8  22074925.10645  22074927.80345
      2586.177        2015.200  
 123202307.910    96001806.6034   23444616.969 7  23444616.48144  23444621.38444
      2856.165        2225.577  
 08 11  5  2 36  0.0000000  0  9G16G 6G 3G23G13G19G25G 7G27         
 118287650.064    92172190.8824   22509390.280 6  22509389.77644  22509393.89844
     -1982.316       -1544.662  
 110828157.446    86359605.3174   21089894.269 7  21089893.93945  21089897.89445
     -1735.516       -1352.349  
 105771468.338    82419335.4424   20127639.468 8  20127638.91146  20127643.31746
     -1086.413        -846.555  
 124483732.218    97000310.8724   23688469.336 6  23688468.90343  23688470.73043
     -2932.003       -2284.677  
 121164811.426    94414144.6424   23056896.787 7  23056897.17743  23056900.34143
     -2067.035       -1610.693  
 107588267.276    83835021.6694   20473361.661 8  20473360.59646  20473362.74146
       917.524         714.955  
 112015381.972    87284715.4574   21315815.460 8  21315815.08746  21315818.09745
      1274.163         992.854  
 115927098.357    90332824.2834   22060192.209 7  22060192.10245  22060194.74145
      2574.757        2006.303  
 123116712.867    95935109.1884   23428328.864 7  23428328.10144  23428333.46344
      2849.713        2220.552  
 08 11  5  2 36 30.0000000  0  9G16G 6G 3G23G13G19G25G 7G27         
 118347194.262    92218588.9164   22520721.125 6  22520720.60144  22520724.60144
     -1986.920       -1548.252  
 110880352.095    86400276.4644   21099826.679 7  21099826.30245  21099830.75445
     -1743.741       -1358.754  
 105804250.833    82444880.2404   20133877.901 8  20133877.21346  20133881.37946
     -1098.697        -856.127  
 124571756.116    97068900.8764   23705220.086 7  23705220.08343  23705220.93843
     -2935.870       -2287.686  
 121227015.653    94462615.4674   23068733.690 7  23068733.54543  23068737.87843
     -2079.527       -1620.405  
 107560962.881    83813745.5234   20468165.787 8  20468164.74746  20468167.02246
       903.143         703.746  
 111977393.502    87255114.0514   21308586.703 8  21308586.43945  21308589.17746
      1258.751         980.846  
 115850039.469    90272778.4024   22045528.422 7  22045528.35245  22045531.21745
      2562.843        1997.025  
 123031330.248    95868577.2884   23412081.590 7  23412080.79344  23412084.93544
      2842.817        2215.184  
 08 11  5  2 37  0.0000000  0  9G16G 6G 3G23G13G19G25G 7G27         
 118406878.843    92265096.3434   22532078.690 6  22532078.19644  22532082.49844
     -1991.958       -1552.183  
 110932793.896    86441140.1944   21109806.304 7  21109805.79245  21109810.03245
     -1752.281       -1365.415  
 105837403.054    82470713.1334   20140186.273 8  20140185.79746  20140189.94746
     -1111.330        -865.969  
 124659896.478    97137581.6404   23721992.433 6  23721991.97743  23721994.06743
     -2940.057       -2290.951  
 121289595.517    94511378.9684   23080642.450 6  23080642.42043  23080646.22943
     -2092.357       -1630.407  
 107534092.005    83792807.1854   20463052.704 8  20463051.29246  20463053.79746
       888.336         692.200  
 111939870.090    87225875.0264   21301446.091 8  21301445.97545  21301448.91846
      1242.875         968.472  
 115773340.985    90213013.3504   22030933.322 7  22030933.20545  22030936.12345
      2550.450        1987.363  
 122946158.134    95802209.4064   23395873.504 6  23395873.08944  23395877.35744
      2835.391        2209.401  
 08 11  5  2 37 30.0000000  0  9G16G 6G 3G23G13G19G25G 7G27         
 118466711.204    92311718.9204   22543464.437 7  22543463.97944  22543468.15344
     -1996.988       -1556.096  
 110985488.315    86482200.7744   21119833.513 8  21119833.32545  21119837.39145
     -1760.811       -1372.061  
 105870930.767    82496838.6194   20146566.537 8  20146566.10146  20146569.94746
     -1123.940        -875.796  
 124748157.438    97206356.3504   23738786.962 6  23738786.56043  23738790.33343
     -2944.113       -2294.113  
 121352555.856    94560438.9404   23092623.868 7  23092623.21243  23092627.16243
     -2105.112       -1640.350  
 107507661.711    83772212.1574   20458022.821 8  20458021.85746  20458024.31346
       873.570         680.702  
 111902820.604    87197005.2954   21294396.130 8  21294395.51645  21294398.69746
      1226.955         956.069  
 115697012.601    90153536.6954   22016408.597 7  22016408.47845  22016411.55045
      2537.959        1977.630  
 122861206.095    95736013.0254   23379707.292 6  23379706.95444  23379711.32444
      2827.924        2203.576  
 08 11  5  2 38  0.0000000  0  9G16G 6G 3G23G13G19G25G 7G27         
 118526698.688    92358462.3764   22554880.182 6  22554879.01544  22554883.45344
     -2002.213       -1560.160  
 111038440.642    86523462.3204   21129910.107 8  21129909.81645  21129913.72445
     -1769.366       -1378.725  
 105904839.267    82523260.8174   20153019.392 8  20153018.89846  20153022.61746
     -1136.651        -885.704  
 124836542.714    97275227.9054   23755607.025 6  23755606.97643  23755608.79643
     -2948.251       -2297.340  
 121415900.723    94609798.5494   23104677.873 7  23104677.75944  23104682.43543
     -2117.907       -1650.310  
 107481678.750    83751965.6934   20453078.629 8  20453077.79446  20453079.93146
       858.603         669.044  
 111866253.786    87168511.6704   21287437.430 8  21287437.21146  21287440.38345
      1210.782         943.462  
 115621064.077    90094356.0244   22001955.678 7  22001955.48145  22001958.98545
      2525.211        1967.700  
 122776483.742    95669995.6154   23363585.520 7  23363585.01744  23363589.51844
      2820.197        2197.553  
 08 11  5  2 38 30.0000000  0  9G16G 6G 3G23G13G19G25G 7G27         
 118586845.627    92405330.0854   22566326.078 6  22566325.37644  22566329.56244
     -2007.067       -1563.939  
 111091653.698    86564927.0274   21140036.396 7  21140035.91345  21140039.93345
     -1777.581       -1385.130  
 105939131.884    82549982.3264   20159545.066 8  20159544.47446  20159548.46046
     -1148.960        -895.294  
 124925053.461    97344197.2574   23772449.416 6  23772449.04343  23772452.64043
     -2951.914       -2300.189  
 121479631.185    94659458.6234   23116805.011 6  23116805.28543  23116809.06743
     -2130.253       -1659.919  
 107456147.231    83732071.0064   20448219.844 8  20448218.62546  20448221.42546
       844.021         657.682  
 111830175.760    87140398.9134   21280571.910 8  21280571.84146  21280575.14246
      1194.938         931.124  
 115545502.703    90035477.0214   21987576.616 7  21987576.29845  21987580.02245
      2512.719        1957.968  
 122691997.846    95604162.4444   23347508.152 7  23347508.09044  23347512.52544
      2812.731        2191.735  
 08 11  5  2 39  0.0000000  0  9G16G 6G 3G23G13G19G25G 7G27         
 118647154.884    92452324.2734   22577802.344 7  22577801.65744  22577805.46044
     -2013.714       -1569.131  
 111145128.569    86606595.7444   21150211.970 7  21150211.54845  21150215.79045
     -1787.549       -1392.894  
 105973809.049    82577003.4874   20166143.790 8  20166142.99846  20166147.45746
     -1162.989        -906.227  
 125013689.208    97413264.0284   23789317.205 7  23789316.88744  23789319.61944
     -2957.286       -2304.372  
 121543747.369    94709419.2674   23129005.718 6  23129005.62743  23129010.79743
     -2144.303       -1670.889  
 107431069.301    83712529.7684   20443447.732 8  20443446.62746  20443449.14046
       827.660         644.925  
 111794590.813    87112670.3774   21273800.396 7  21273800.14946  21273803.49245
      1177.216         917.313  
 115470333.815    89976903.8624   21973272.806 7  21973273.13345  21973275.89745
      2498.344        1946.765  
 122607753.403    95538517.4274   23331476.826 6  23331475.83144  23331481.58744
      2803.410        2184.471  
 08 11  5  2 39 30.0000000  0  9G16G 6G 3G23G13G19G25G 7G27         
 118707633.207    92499450.1934   22589310.998 7  22589310.32844  22589315.06344
     -2017.675       -1572.213  
 111198870.103    86648472.2524   21160438.745 7  21160438.37145  21160442.41045
     -1794.729       -1398.492  
 106008875.689    82604328.1384   20172816.793 8  20172816.18946  20172820.43246
     -1174.289        -915.030  
 125102453.508    97482430.9824   23806208.602 7  23806208.36044  23806210.73044
     -2959.828       -2306.357  
 121608252.531    94759682.9974   23141281.004 7  23141281.02643  23141285.00843
     -2155.529       -1679.643  
 107406451.416    83693346.9954   20438763.323 8  20438762.32146  20438764.43846
       814.017         634.296  
 111759507.244    87085332.5264   21267124.473 8  21267124.41245  21267127.23645
      1162.161         905.577  
 115395566.764    89918643.8154   21959045.124 7  21959045.26145  21959048.20245
      2486.598        1937.609  
 122523759.397    95473067.5544   23315493.233 6  23315492.87944  23315497.56844
      2796.683        2179.235  
 08 11  5  2 40  0.0000000  0  9G16G 6G 3G23G13G19G25G 7G27         
 118768253.645    92546686.8744   22600846.624 7  22600845.82944  22600850.08344
     -2023.736       -1576.936  
 111252849.221    86690533.8934   21170710.718 7  21170710.54045  21170714.83945
     -1803.986       -1405.703  
 106044303.129    82631933.9244   20179558.402 8  20179557.88146  20179562.06246
     -1187.604        -925.404  
 125191315.632    97551674.1494   23823117.762 6  23823117.39343  23823120.46043
     -2964.393       -2309.917  
 121673116.617    94810226.4184   23153624.628 7  23153624.41143  23153626.98743
     -2168.788       -1689.958  
 107382265.607    83674500.9084   20434160.741 8  20434159.72346  20434162.40546
       798.300         622.055  
 111724899.254    87058365.2554   21260538.702 7  21260538.18145  21260541.33545
      1144.963         892.177  
 115321176.373    89860677.2714   21944888.842 7  21944889.09245  21944892.44845
      2472.655        1926.745  
 122439991.151    95407793.6054   23299552.235 6  23299551.52244  23299556.91944
      2787.812        2172.337  
