     2              OBSERVATION DATA                        RINEX VERSION / TYPE
DAT2RINW 3.10 001   .                   16NOV08 13:52:28    PGM / RUN BY / DATE 
.                   .                                       OBSERVER / AGENCY   
0220278985          TRIMBLE 5700        Nav 1.20 Sig 1.20   REC # / TYPE / VERS 
00000000            TRM39105.00     NONE                    ANT # / TYPE        
----------------------------------------------------------- COMMENT             
Offset from BOTTOM OF ANTENNA to PHASE CENTER is  46.0 mm   COMMENT             
----------------------------------------------------------- COMMENT             
0001                                                        MARKER NAME
0001                                                        MARKER NUMBER       
 -3060698.4118  4057489.0572  3840703.3928                  APPROX POSITION XYZ 
        1.4904        0.0000        0.0000                  ANTENNA: DELTA H/E/N
*** Above antenna height is from mark to BOTTOM OF ANTENNA. COMMENT             
----------------------------------------------------------- COMMENT             
Note: The above offsets are CORRECTED.                      COMMENT             
Raw Offsets: H=      1.5320 E=      0.0000 N=      0.0000   COMMENT             
----------------------------------------------------------- COMMENT             
     1     1     0                                          WAVELENGTH FACT L1/2
     4    L1    C1    L2    P2                              # / TYPES OF OBSERV 
    30                                                      INTERVAL            
  2008    11    15     0     0    0.000000                  TIME OF FIRST OBS   
  2008    11    15     8    10    0.000000                  TIME OF LAST OBS    
    20                                                      # OF SATELLITES     
     2    10    10    10    10                              PRN / # OF OBS      
     3   648   648   648   648                              PRN / # OF OBS      
     4   252   252   252   252                              PRN / # OF OBS      
     6   576   576   576   576                              PRN / # OF OBS      
     7   540   540   540   540                              PRN / # OF OBS      
     8   456   456   456   456                              PRN / # OF OBS      
    11   693   693   693   693                              PRN / # OF OBS      
    13   429   429   427   427                              PRN / # OF OBS      
    16   469   472   468   468                              PRN / # OF OBS      
    17   415   415   407   407                              PRN / # OF OBS      
    19   733   733   733   733                              PRN / # OF OBS      
    20   450   450   450   450                              PRN / # OF OBS      
    21   239   239   239   239                              PRN / # OF OBS      
    23   464   464   464   464                              PRN / # OF OBS      
    25   573   573   573   573                              PRN / # OF OBS      
    27   513   513   513   513                              PRN / # OF OBS      
    28   548   548   548   548                              PRN / # OF OBS      
    29    27    30    26    26                              PRN / # OF OBS      
    31   238   240   235   235                              PRN / # OF OBS      
    32   445   448   439   439                              PRN / # OF OBS      
                                                            END OF HEADER       
 08 11 14 23 59 59.9960000  0  8  3  6 13 16 19 21 23 31
 -15955998.19107  19857444.09807 -12415332.00748  19857441.39548
 -12829028.80107  19557737.87907  -9977573.95948  19557734.59848
  -9509823.03106  21760668.52706  -7403593.74247  21760664.86747
  -4137055.47707  19547065.00407  -3218060.48148  19547060.18448
  -3004203.50006  22539683.03506  -2327569.38547  22539677.42247
  -5343114.48406  23003588.87906  -4161871.99946  23003585.09046
 -10530071.62106  20420403.12106  -8191610.90448  20420397.71148
     92644.30507  20929843.99607     75092.57448  20929839.70348
 08 11 15  0  0 29.9960000  0  8  3  6 13 16 19 21 23 31
 -16077311.38307  19834358.53507 -12509861.75948  19834355.85948
 -12917894.30107  19540826.94907 -10046819.80048  19540824.18848
  -9619520.44906  21739793.81606  -7489072.25947  21739790.02047
  -4158685.78107  19542948.89507  -3234915.28048  19542943.90648
  -3159055.12906  22510215.02006  -2448233.01147  22510210.53147
  -5416241.64806  22989672.53506  -4218854.15346  22989668.82446
 -10590770.75006  20408852.55106  -8238908.94748  20408847.13748
    111742.35207  20933478.27707     89974.14648  20933474.30148
 08 11 15  0  0 59.9960000  0  9  3  6 13 16 19 21 23 25 31
 -16198183.99207  19811357.55107 -12604048.20848  19811354.47348
 -13006269.33607  19524009.82407 -10115683.46148  19524006.73448
  -9728715.72306  21719014.38706  -7574159.46147  21719011.10947
  -4180089.37107  19538875.73107  -3251593.40548  19538871.23148
  -3313739.07006  22480781.24606  -2568765.96547  22480775.62147
  -5488972.58205  22975831.51205  -4275527.60947  22975828.69547
 -10650845.44906  20397420.66806  -8285720.40048  20397415.13348
   -165753.33616  23297615.44106   -124220.09556  23297610.91846
    131154.35907  20937171.95707    105100.35248  20937168.72348
 08 11 15  0  1 29.9960000  0  9  3  6 13 16 19 21 23 25 31
 -16318618.34007  19788439.66807 -12697893.14848  19788436.66848
 -13094157.16407  19507285.45707 -10184167.49148  19507282.18048
  -9837410.11706  21698330.94906  -7658856.39147  21698327.43047
  -4201271.48007  19534844.93407  -3268098.95148  19534840.38348
  -3468257.07406  22451375.37906  -2689169.53147  22451371.61747
  -5561309.33206  22962067.46506  -4331893.91346  22962063.19946
 -10710299.32806  20386106.75406  -8332048.11248  20386100.85948
   -302348.25805  23271621.98805   -230657.73746  23271618.32046
    150876.24207  20940925.02007    120468.04548  20940921.65648
 08 11 15  0  1 59.9960000  0  9  3  6 13 16 19 21 23 25 31
 -16438614.35207  19765605.02007 -12791396.50848  19765602.50048
 -13181558.72707  19490653.23107 -10252272.59248  19490649.84448
  -9945602.68006  21677742.65206  -7743162.26247  21677738.68447
  -4222234.60507  19530855.50407  -3284433.86348  19530851.18448
  -3622608.64806  22422003.69906  -2809443.47047  22421999.57847
  -5633252.15206  22948376.61306  -4387953.19646  22948373.10646
 -10769133.91406  20374911.14506  -8377893.24548  20374905.77348
   -438930.65604  23245630.82404   -337085.56646  23245627.89846
    170905.76207  20944736.70707    136075.45048  20944733.16448
 08 11 15  0  2 29.9960000  0  9  3  6 13 16 19 21 23 25 31
 -16558168.62507  19742854.56607 -12884555.67448  19742851.75448
 -13268471.66407  19474114.16807 -10319996.95448  19474110.95748
 -10053289.53906  21657250.10606  -7827074.10847  21657246.37947
  -4242977.80107  19526908.32407  -3300597.40448  19526903.67648
  -3776789.66806  22392664.66006  -2929584.53647  22392659.82047
  -5704797.62506  22934761.59806  -4443702.91546  22934759.16846
 -10827347.04706  20363834.02706  -8423254.14248  20363828.24648
   -575497.59805  23219643.79305   -443501.32246  23219640.50846
    191244.17207  20948606.87107    151923.52348  20948603.77048
 08 11 15  0  2 59.9960000  0  9  3  6 13 16 19 21 23 25 31
 -16677279.33607  19720188.95707 -12977369.22648  19720185.78548
 -13354895.16807  19457668.54307 -10387339.95148  19457665.10248
 -10160468.29706  21636854.69106  -7910590.01947  21636851.27347
  -4263502.00007  19523002.96507  -3316590.29348  19522998.04748
  -3930797.86306  22363357.74606  -3049590.89247  22363353.30947
  -5775944.45306  22921223.52006  -4499141.99846  22921219.52046
 -10884938.05506  20352874.50406  -8468130.25848  20352868.98148
   -712047.22705  23193659.01205   -549903.55046  23193656.15646
    211891.32807  20952536.16007    168012.21548  20952532.31348
 08 11 15  0  3 29.9960000  0  9  3  6 13 16 19 21 23 25 31
 -16795941.37107  19697607.96507 -13069833.12848  19697605.12948
 -13440824.82007  19441316.29307 -10454298.11648  19441312.91448
 -10267132.84006  21616557.45706  -7993705.23447  21616553.29747
  -4283804.18007  19519139.23107  -3332410.18748  19519134.80148
  -4084626.93406  22334083.93406  -3169457.67047  22334079.26647
  -5846686.51605  22907760.54305  -4554265.61146  22907757.26246
 -10941902.87107  20342034.50407  -8512518.44748  20342028.78148
   -848574.25006  23167678.55906   -656288.23747  23167675.29347
    232850.48007  20956524.70707    184343.98748  20956521.02348
 08 11 15  0  3 59.9960000  0  9  3  6 13 16 19 21 23 25 31
 -16914152.17207  19675112.87107 -13161945.43248  19675109.91848
 -13526259.52007  19425058.51207 -10520870.60648  19425055.44548
 -10373281.14506  21596357.55906  -8076418.19947  21596353.62547
  -4303885.01607  19515318.52707  -3348057.60748  19515313.38348
  -4238274.17606  22304847.33206  -3289182.77247  22304841.11747
  -5917022.03506  22894377.45706  -4609072.47246  22894373.14846
 -10998240.75007  20331313.94907  -8556418.09848  20331307.62948
   -985076.85906  23141703.33206   -762653.88747  23141699.91047
    254121.64507  20960572.23807    200918.90148  20960568.45748
 08 11 15  0  4 29.9960000  0  9  3  6 13 16 19 21 23 25 31
 -17031911.41807  19652704.07407 -13253705.89148  19652700.84848
 -13611200.16407  19408895.27007 -10587058.11648  19408891.94148
 -10478912.50006  21576257.16806  -8158728.36747  21576251.98847
  -4323746.75407  19511538.81607  -3363534.28948  19511534.01648
  -4391738.72306  22275643.20706  -3408765.52847  22275636.34847
  -5986951.02306  22881069.48106  -4663562.57347  22881066.30547
 -11053952.93807  20320712.33207  -8599830.19248  20320706.40248
  -1121554.87506  23115732.29306   -869000.39647  23115729.01647
    275703.19507  20964678.69107    217735.66848  20964675.95748
 08 11 15  0  4 59.9960000  0  9  3  6 13 16 19 21 23 25 31
 -17149220.32007  19630381.21507 -13345115.42148  19630378.27048
 -13695648.30507  19392825.23807 -10652861.85648  19392821.66048
 -10584026.69906  21556255.13706  -8240635.54747  21556250.04747
  -4343392.76607  19507799.91807  -3378842.87348  19507795.51648
  -4545020.49606  22246475.60606  -3528205.86647  22246469.14547
  -6056474.16006  22867840.31606  -4717736.42047  22867835.83247
 -11109041.53106  20310229.09806  -8642756.37548  20310223.32048
  -1258009.17605  23089766.40205   -975328.40746  23089762.56346
    297591.99207  20968844.19107    234791.84648  20968840.52748
 08 11 15  0  5 29.9960000  0  9  3  6 13 16 19 21 23 25 31
 -17266073.41007  19608144.97307 -13436169.78148  19608141.76248
 -13779599.52007  19376849.94107 -10718278.40648  19376846.03948
 -10688618.01606  21536351.64506  -8322135.27247  21536346.88747
  -4362819.76207  19504103.30907  -3393980.81248  19504098.76648
  -4698113.41406  22217342.51206  -3647499.01847  22217337.09847
  -6125585.87106  22854688.48106  -4771589.66846  22854685.16446
 -11163502.47307  20299865.43407  -8685193.48448  20299859.77048
  -1394434.18806  23063805.35606  -1081633.60046  23063800.80546
    319791.37907  20973068.34007    252090.04248  20973065.02348
 08 11 15  0  5 59.9960000  0  9  3  6 13 16 19 21 23 25 31
 -17382472.47307  19585994.65207 -13526870.32948  19585991.94548
 -13863056.98807  19360968.23107 -10783310.18548  19360964.88348
 -10792687.91806  21516547.75406  -8403228.69647  21516543.17247
  -4382032.42607  19500446.73107  -3408951.72148  19500442.57448
  -4851018.82006  22188244.59006  -3766646.00047  22188239.77747
  -6194288.46906  22841615.55906  -4825124.11246  22841610.86746
 -11217339.30107  20289620.87907  -8727144.27848  20289614.44148
  -1530832.20306  23037849.77706  -1187917.76146  23037845.53946
    342297.50807  20977351.77007    269627.26748  20977347.55548
 08 11 15  0  6 29.9960000  0  9  3  6 13 16 19 21 23 25 31
 -17498409.66807  19563932.80907 -13617211.00948  19563929.69548
 -13946013.96507  19345182.44107 -10847952.00348  19345179.14848
 -10896228.21506  21496844.45706  -8483909.45047  21496841.04747
  -4401025.33607  19496832.80107  -3423751.42148  19496828.20748
  -5003728.27006  22159185.84006  -3885640.33747  22159181.51247
  -6262573.89505  22828620.40205  -4878333.50347  22828615.92247
 -11270545.70307  20279495.80107  -8768603.82048  20279490.05548
  -1667195.47306  23011900.58206  -1294174.82347  23011896.34447
    365115.79707  20981693.44907    287407.72848  20981690.34848
 08 11 15  0  6 59.9960000  0  9  3  6 13 16 19 21 23 25 31
 -17613885.00007  19541958.52707 -13707191.78748  19541955.46548
 -14028471.13707  19329490.93407 -10912204.33848  19329487.81648
 -10999237.98406  21477242.77006  -8564176.82647  21477238.80947
  -4419800.74207  19493260.28507  -3438381.61248  19493255.89148
  -5156240.67606  22130163.83206  -4004481.17147  22130158.37147
  -6330442.12506  22815705.77706  -4931217.80546  22815701.84846
 -11323122.63307  20269491.12907  -8809572.87048  20269485.85948
  -1803523.63706  22985957.84006  -1400404.54247  22985954.13347
    388244.70307  20986094.82407    305430.22348  20986091.82448
 08 11 15  0  7 29.9960000  0  9  3  6 13 16 19 21 23 25 31
 -17728898.32807  19520071.84807 -13796812.56548  19520068.84048
 -14110429.53507  19313894.96507 -10976068.03348  19313891.69548
 -11101716.91406  21457741.73106  -8644030.51347  21457737.08247
  -4438360.88707  19489728.22307  -3452844.07748  19489723.84448
  -5308555.45306  22101178.89506  -4123167.98647  22101174.39147
  -6397893.02006  22802870.02006  -4983776.94947  22802866.06347
 -11375071.43807  20259605.48107  -8850052.46348  20259599.27048
  -1939816.67605  22960022.34005  -1506606.88247  22960019.16447
    411682.18807  20990555.31607    323693.17848  20990551.77048
 08 11 15  0  7 59.9960000  0  9  3  6 13 16 19 21 23 25 31
 -17843448.65207  19498273.86307 -13886072.53748  19498270.74248
 -14191888.87507  19298393.27707 -11039542.84948  19298390.41448
 -11203663.42606  21438341.83206  -8723469.37547  21438337.10947
  -4456707.12107  19486236.79307  -3467139.85148  19486232.31648
  -5460670.30506  22072232.07406  -4241698.98547  22072226.16047
  -6464925.56606  22790114.44106  -5036010.04446  22790110.50046
 -11426392.55907  20249839.09807  -8890042.93848  20249833.55948
  -2076073.31306  22934093.66806  -1612780.84947  22934089.27047
    435427.30507  20995073.97307    342195.84848  20995070.04348
 08 11 15  0  8 29.9960000  0  9  3  6 13 16 19 21 23 25 31
 -17957530.81307  19476564.84807 -13974967.71548  19476561.75848
 -14272845.37907  19282988.30907 -11102625.83248  19282985.00848
 -11305071.60906  21419044.32406  -8802488.76647  21419040.41847
  -4474836.75407  19482787.08207  -3481266.86748  19482783.04748
  -5612579.53506  22043323.95706  -4360069.77447  22043319.15647
  -6531535.14506  22777439.52006  -5087913.62846  22777434.49246
 -11477082.38307  20240193.25407  -8929541.52448  20240187.65648
  -2212288.60505  22908172.09005  -1718922.60547  22908168.83247
    459482.88307  20999651.12107    360940.43248  20999646.63748
 08 11 15  0  8 59.9960000  0  9  3  6 13 16 19 21 23 25 31
 -18071148.09007  19454944.07407 -14063500.65348  19454940.92248
 -14353303.10507  19267677.66007 -11165320.16748  19267674.20348
 -11405944.45306  21399848.79306  -8881090.95947  21399844.99247
  -4492755.23807  19479377.19107  -3495229.32248  19479373.10648
  -5764285.63706  22014456.61306  -4478282.27347  22014450.39147
  -6597724.65206  22764843.54306  -5139489.87747  22764839.18047
 -11527145.66807  20230666.44907  -8968551.87448  20230660.87548
  -2348465.45705  22882258.79305  -1825034.43446  22882255.42246
    483844.01607  21004287.21507    379923.09448  21004283.59848
 08 11 15  0  9 29.9960000  0  9  3  6 13 16 19 21 23 25 31
 -18184298.46907  19433412.18407 -14151669.77448  19433409.18848
 -14433261.37107  19252462.31607 -11227625.30948  19252459.03548
 -11506279.37907  21380756.16807  -8959274.02447  21380751.85947
  -4510462.95307  19476007.82407  -3509027.55448  19476003.23848
  -5915785.89806  21985625.81606  -4596334.40547  21985620.57847
  -6663492.14506  22752328.48106  -5190737.26947  22752324.54747
 -11576581.97706  20221259.13706  -9007073.67748  20221253.57448
  -2484602.04705  22856352.93405  -1931114.87347  22856349.06647
    508510.29707  21008980.68407    399143.54148  21008977.45348
 08 11 15  0  9 59.9960000  0  9  3  6 13 16 19 21 23 25 31
 -18296979.07407  19411969.76207 -14239472.82048  19411966.44548
 -14512718.23807  19237342.01207 -11289539.74048  19237339.19948
 -11606073.61706  21361765.94106  -9037035.79747  21361760.30547
  -4527959.69106  19472678.38706  -3522661.37948  19472673.60648
  -6067076.60506  21956837.50406  -4714223.22847  21956831.51247
  -6728834.82806  22739894.12906  -5241653.62647  22739890.65247
 -11625390.00006  20211971.64506  -9045105.90548  20211965.30148
  -2620695.27305  22830454.70705  -2037161.51046  22830452.19146
    533482.96507  21013733.53507    418602.72648  21013730.29748
 08 11 15  0 10 29.9960000  0  9  3  6 13 16 19 21 23 25 31
 -18409190.44907  19390617.19107 -14326910.24248  19390613.58648
 -14591675.38307  19222316.93407 -11351064.79148  19222313.98148
 -11705326.84406  21342878.37106  -9114375.95747  21342873.55547
  -4545248.11307  19469388.66007  -3536132.87548  19469383.76248
  -6218157.50406  21928087.07406  -4831948.56547  21928081.35247
  -6793753.50806  22727540.47306  -5292239.57547  22727535.19147
 -11673571.70707  20202802.86307  -9082650.09948  20202796.88748
  -2756745.43805  22804565.21505  -2143174.62547  22804562.03547
    558759.05507  21018542.85607    438298.38348  21018539.09448
 08 11 15  0 10 59.9960000  0  9  3  6 13 16 19 21 23 25 31
 -18520928.58207  19369354.06607 -14413978.91148  19369350.69948
 -14670129.77306  19207387.64506 -11412198.06948  19207384.65648
 -11804034.28506  21324095.11306  -9191290.83747  21324090.70347
  -4562326.30906  19466138.52006  -3549440.57748  19466133.77048
  -6369023.73806  21899378.65206  -4949506.62947  21899372.86747
  -6858244.06606  22715267.71506  -5342491.99646  22715263.62546
 -11721124.53106  20193753.65206  -9119704.24448  20193747.77348
  -2892748.28105  22778684.74605  -2249150.83646  22778681.26246
    584340.72307  21023411.16807    458232.12648  21023407.86748
 08 11 15  0 11 29.9960000  0  9  3  6 13 16 19 21 23 25 31
 -18632193.68407  19348180.84007 -14500678.98248  19348177.67248
 -14748082.42607  19192553.38707 -11472940.41048  19192550.18448
 -11902195.20706  21305415.50406  -9267779.87747  21305412.32047
  -4579196.32806  19462928.28506  -3562586.06648  19462923.98448
  -6519674.44506  21870709.62106  -5066896.74847  21870704.70747
  -6922306.62506  22703077.01206  -5392410.88346  22703073.28946
 -11768050.25806  20184823.70706  -9156269.75648  20184817.82848
  -3028703.52705  22752813.44905  -2355090.01247  22752810.24647
    610225.96907  21028336.69107    478402.41148  21028333.72748
 08 11 15  0 11 59.9960000  0  9  3  6 13 16 19 21 23 25 31
 -18742981.72707  19327098.33207 -14587007.32648  19327095.48848
 -14825530.75807  19177815.52007 -11533289.74748  19177812.76648
 -11999806.52706  21286840.44906  -9343840.64247  21286837.05147
  -4595856.94506  19459757.98106  -3575568.37248  19459753.35248
  -6670105.05106  21842083.80106  -5184115.36147  21842079.52347
  -6985937.30906  22690968.97306  -5441993.25646  22690965.50846
 -11814346.53906  20176014.13706  -9192344.78548  20176008.02048
  -3164607.43405  22726951.94905  -2460989.16347  22726948.63347
    636416.50807  21033321.14507    498810.60548  21033317.37148
 08 11 15  0 12 29.9960000  0  9  3  6 13 16 19 21 23 25 31
 -18853293.56307  19306106.78507 -14672964.59048  19306103.56348
 -14902476.65607  19163173.37107 -11593247.58548  19163170.89548
 -12096867.75006  21268369.91806  -9419472.73347  21268365.88347
  -4612311.37507  19456626.48107  -3588390.00948  19456622.11748
  -6820315.43406  21813500.25406  -5301162.38547  21813496.00047
  -7049137.12106  22678943.03506  -5491239.85547  22678938.39847
 -11860015.77306  20167323.80106  -9227931.21548  20167318.29748
  -3300460.28105  22701100.32405  -2566848.49947  22701096.68847
    662909.70307  21038362.39507    519454.62448  21038358.62948
 08 11 15  0 12 59.9960000  0  9  3  6 13 16 19 21 23 25 31
 -18963126.27307  19285206.12907 -14758548.50348  19285203.37148
 -14978918.34407  19148627.05107 -11652812.53148  19148623.33648
 -12193375.84406  21250005.66806  -9494673.86047  21250001.29747
  -4628558.68007  19453535.29307  -3601050.26348  19453530.98448
  -6970302.03506  21784959.30906  -5418035.03647  21784954.50047
  -7111903.30506  22666998.77006  -5540148.55447  22666994.36347
 -11905056.95706  20158752.52006  -9263028.22248  20158746.94948
  -3436259.32805  22675258.84805  -2672665.91946  22675255.19146
    689705.83607  21043461.30907    540334.70548  21043458.58248
 08 11 15  0 13 29.9960000  0  9  3  6 13 16 19 21 23 25 31
 -19072480.71507  19264397.02707 -14843759.76148  19264393.73848
 -15054857.36307  19134176.44107 -11711985.78848  19134173.22348
 -12289331.51207  21231746.11307  -9569444.53047  21231741.63347
  -4644601.60507  19450482.16007  -3613551.25548  19450477.11748
  -7120064.55506  21756459.65206  -5534733.05147  21756455.16847
  -7174236.28106  22655136.87106  -5588719.72247  22655133.46147
 -11949471.94906  20150300.32406  -9297637.31848  20150294.26648
  -3572004.59404  22649427.12904  -2778441.44546  22649423.83246
    716802.75807  21048617.78507    561449.16648  21048613.99248
 08 11 15  0 13 59.9960000  0  9  3  6 13 16 19 21 23 25 31
 -19181354.97308  19243678.57408 -14928596.84748  19243675.71948
 -15130293.03507  19119821.23107 -11770766.83648  19119818.30948
 -12384731.13707  21213592.13707  -9643781.90947  21213588.08647
  -4660440.66807  19447468.02007  -3625893.39348  19447463.62548
  -7269600.15606  21728004.16806  -5651254.29247  21727999.53947
  -7236134.53506  22643358.37906  -5636952.13447  22643354.91847
 -11993260.73007  20141967.77007  -9331758.45348  20141961.77348
  -3707694.00405  22623606.28505  -2884173.38846  22623602.24646
    744200.36707  21053831.73807    582797.91248  21053827.93048
 08 11 15  0 14 29.9960000  0  9  3  6 13 16 19 21 23 25 31
 -19289747.39807  19223052.37907 -15013058.47348  19223049.96148
 -15205224.70707  19105562.49607 -11829155.13248  19105559.25848
 -12479573.54306  21195543.71506  -9717685.07147  21195540.32047
  -4676076.25006  19444492.71506  -3638076.95548  19444488.25048
  -7418906.26206  21699591.34806  -5767596.66047  21699586.91847
  -7297596.44906  22631662.09806  -5684844.48447  22631658.11347
 -12036423.16006  20133754.34806  -9365391.51948  20133748.79348
  -3843325.32405  22597796.19105  -2989860.12647  22597793.05947
    771898.16807  21059102.19107    604380.60748  21059098.15648
 08 11 15  0 14 59.9960000  0  9  3  6 13 16 19 21 23 25 31
 -19397658.07007  19202517.54307 -15097144.71348  19202514.19548
 -15279653.43807  19091398.88707 -11887151.55248  19091395.91448
 -12573858.51606  21177602.11306  -9791153.85447  21177598.62147
  -4691510.27007  19441555.63707  -3650103.48948  19441551.44548
  -7567981.96506  21671224.19106  -5883759.56447  21671218.22747
  -7358621.96106  22620049.60606  -5732396.82247  22620045.76647
 -12078960.92206  20125659.62106  -9398537.82648  20125654.28548
  -3978898.34005  22571997.63705  -3095501.43246  22571994.01246
    799894.33607  21064429.98107    626195.76748  21064426.29348
 08 11 15  0 15 29.9960000  0  9  3  6 13 16 19 21 23 25 31
 -19505085.93807  19182074.98807 -15180854.74048  19182072.27048
 -15353579.50807  19077331.16007 -11944756.28148  19077328.33248
 -12667583.98406  21159767.37906  -9864186.69247  21159762.37547
  -4706743.76206  19438656.70706  -3661973.74148  19438652.37148
  -7716825.30106  21642899.98806  -5999741.40147  21642895.15647
  -7419210.06606  22608519.81606  -5779608.31447  22608516.34847
 -12120874.59807  20117684.00407  -9431197.85448  20117677.46548
  -4114411.65604  22546210.50404  -3201096.22047  22546205.92247
    828187.78107  21069813.96507    648242.55548  21069810.33648
 08 11 15  0 15 59.9950000  0  9  3  6 13 16 19 21 23 25 31
 -19612024.38707  19161725.07707 -15264183.40348  19161721.87448
 -15426998.21907  19063360.03807 -12001965.67548  19063357.61248
 -12760743.28106  21142039.46806  -9936778.36247  21142035.31947
  -4721775.37106  19435796.28006  -3673686.70648  19435791.86648
  -7865427.18806  21614622.20206  -6115535.07547  21614617.38247
  -7479355.70706  22597074.74106  -5826475.03247  22597070.67147
 -12162161.33207  20109827.06907  -9463369.35048  20109821.42148
  -4249857.05105  22520436.44405  -3306638.10847  22520431.71847
    856778.90607  21075254.56907    670521.33548  21075251.35148
 08 11 15  0 16 29.9950000  0  9  3  6 13 16 19 21 23 25 31
 -19718480.24607  19141467.23307 -15347136.02048  19141463.58148
 -15499915.71107  19049484.85807 -12058784.49648  19049481.15148
 -12853342.35506  21124418.43706 -10008933.48147  21124414.65947
  -4736607.85906  19432973.63206  -3685244.49248  19432969.37448
  -8013796.55106  21586387.77306  -6231147.51247  21586384.04247
  -7539062.91806  22585713.17906  -5873000.13447  22585709.21447
 -12202825.64507  20102088.92907  -9495055.83648  20102082.79648
  -4385243.30105  22494673.44405  -3412133.84747  22494669.57747
    885667.48807  21080751.72607    693031.88248  21080748.74548
 08 11 15  0 16 59.9950000  0  9  3  6 13 16 19 21 23 25 31
 -19824447.68007  19121302.17907 -15429708.03948  19121298.84748
 -15572327.77307  19035705.10107 -12115209.47348  19035701.87048
 -12945375.23006  21106905.12406 -10080647.40747  21106900.70247
  -4751240.12106  19430189.34306  -3696646.26648  19430184.83948
  -8161924.66806  21558200.14006  -6346572.02047  21558195.35147
  -7598327.36706  22574435.29606  -5919180.20946  22574430.70246
 -12242865.24207  20094469.83507  -9526255.53848  20094464.22248
  -4520562.43005  22468922.78005  -3517577.32647  22468919.36247
    914853.46106  21086305.92106    715774.17948  21086302.23048
 08 11 15  0 17 29.9950000  0  9  3  6 13 16 19 21 23 25 31
 -19929924.62107  19101230.84307 -15511897.86348  19101227.38248
 -15644233.86707  19022021.67107 -12171240.19748  19022018.71048
 -13036839.22306  21089499.93706 -10151918.06747  21089495.42947
  -4765672.53507  19427442.96007  -3707892.33048  19427438.84348
  -8309809.20706  21530059.12406  -6461806.70747  21530053.04247
  -7657147.14106  22563241.97606  -5965013.78447  22563238.59747
 -12282279.95707  20086969.50707  -9556968.33048  20086963.60148
  -4655812.25805  22443185.39805  -3622966.77247  22443181.62047
    944336.53907  21091916.27307    738747.99548  21091912.85148
 08 11 15  0 17 59.9950000  0  9  3  6 13 16 19 21 23 25 31
 -20034911.12107  19081252.30407 -15593705.52248  19081249.23348
 -15715634.81607  19008434.83507 -12226877.30948  19008431.47248
 -13127734.21106  21072203.63206 -10222745.32447  21072199.55047
  -4779906.96106  19424734.54606  -3718984.09048  19424730.30448
  -8457448.84006  21501963.51506  -6576850.58948  21501959.34348
  -7715522.00806  22552133.70206  -6010500.71547  22552129.42547
 -12321071.16407  20079587.82707  -9587195.24748  20079582.21848
  -4790992.03105  22417461.37405  -3728301.65047  22417458.16747
    974115.34007  21097583.27307    761952.21648  21097579.20648
 08 11 15  0 18 29.9950000  0  9  3  6 13 16 19 21 23 25 31
 -20139405.37507  19061367.56207 -15675129.62348  19061364.60548
 -15786530.12107  18994943.67907 -12282120.41048  18994940.65948
 -13218058.68006  21055014.57706 -10293128.03747  21055011.55847
  -4793943.50407  19422063.27307  -3729921.66148  19422059.08548
  -8604840.85906  21473915.85106  -6691701.49347  21473911.78447
  -7773450.56606  22541110.06206  -6055639.81847  22541105.46847
 -12359238.90607  20072324.33507  -9616936.34948  20072319.66348
  -4926099.75005  22391751.88205  -3833580.35247  22391747.89047
   1004189.20707  21103305.27307    785386.35748  21103302.04248
 08 11 15  0 18 59.9950000  0  9  3  6 13 16 19 21 23 25 31
 -20243407.07007  19041577.13207 -15756169.89848  19041574.01948
 -15856920.27707  18981548.83507 -12336969.87948  18981545.69048
 -13307810.65606  21037935.42106 -10363064.64647  21037931.50747
  -4807783.72307  19419429.74107  -3740706.26648  19419425.08548
  -8751983.73806  21445915.80406  -6806358.27947  21445910.92947
  -7830932.45706  22530172.15506  -6100430.90747  22530168.22247
 -12396784.67207  20065179.54607  -9646192.80948  20065174.18748
  -5061134.19905  22366055.79605  -3938801.99947  22366051.64047
   1034556.57006  21109084.34306    809049.21548  21109080.99948
 08 11 15  0 19 29.9950000  0  9  3  6 13 16 19 21 23 25 31
 -20346914.23807  19021880.01507 -15836824.81448  19021877.34748
 -15926805.10907  18968250.03007 -12391425.57948  18968246.85848
 -13396988.16406  21020966.22606 -10432553.64547  21020962.05047
  -4821427.78907  19416833.17907  -3751338.00748  19416829.08548
  -8898874.91806  21417962.70206  -6920818.92047  21417957.91747
  -7887965.97306  22519319.06206  -6144872.61547  22519315.37047
 -12433708.52307  20058153.14807  -9674964.65348  20058147.35548
  -5196093.19105  22340374.10105  -4043964.86547  22340369.17147
   1065217.39807  21114919.32707    832940.74548  21114916.33548
 08 11 15  0 19 59.9950000  0  9  3  6 13 16 19 21 23 25 31
 -20449925.45307  19002277.78007 -15917093.29348  19002274.26548
 -15996183.54307  18955047.93707 -12445486.70748  18955044.89848
 -13485589.61706  21004105.11606 -10501593.69947  21004101.29647
  -4834876.07407  19414274.13207  -3761817.21548  19414269.77648
  -9045511.12906  21390059.63206  -7035080.89947  21390053.42547
  -7944549.59406  22508551.56206  -6188963.73047  22508547.70647
 -12470010.42607  20051245.66307  -9703251.87248  20051239.57348
  -5330974.23406  22314706.35106  -4149066.94447  22314702.65947
   1096171.62107  21120809.91307    857060.89348  21120806.22248
 08 11 15  0 20 29.9950000  0  9  3  6 13 16 19 21 23 25 31
 -20552444.60507  18982769.08507 -15996978.33548  18982766.61648
 -16065060.60207  18941941.22607 -12499157.13848  18941938.03848
 -13573618.07806  20987353.87406 -10570187.31347  20987350.21047
  -4848134.00007  19411750.96807  -3772148.05448  19411746.87848
  -9191895.74206  21362202.92106  -7149146.81147  21362197.86247
  -8000686.83206  22497868.78806  -6232707.00547  22497864.58147
 -12505695.88307  20044455.00707  -9731058.74248  20044449.68748
  -5465780.47306  22289053.56206  -4254110.75447  22289049.15147
   1127413.49607  21126754.76507    881405.17848  21126750.70648
 08 11 15  0 20 59.9950000  0  9  3  6 13 16 19 21 23 25 31
 -20654465.92207  18963354.63207 -16076475.45948  18963351.79248
 -16133431.89107  18928930.52307 -12552433.46348  18928927.16748
 -13661067.71106  20970713.33506 -10638329.86347  20970708.87047
  -4861197.57807  19409265.21007  -3782327.47948  19409260.92148
  -9338021.92206  21334396.18706  -7263011.30147  21334391.07347
  -8056372.28506  22487272.24906  -6276098.23047  22487267.98047
 -12540761.12107  20037781.83507  -9758382.32048  20037775.97248
  -5600505.60906  22263416.43706  -4359091.36247  22263412.87447
   1158946.62507  21132755.28007    905976.42848  21132751.46848
 08 11 15  0 21 29.9950000  0  9  3  6 13 16 19 21 23 25 31
 -20755986.58607  18944036.46007 -16155582.44248  18944033.33548
 -16201295.36707  18916016.63207 -12605314.09848  18916013.58948
 -13747935.27706  20954182.62406 -10706018.88447  20954178.60147
  -4874065.93806  19406816.52306  -3792354.77848  19406812.58148
  -9483885.36306  21306639.60806  -7376671.15947  21306633.33147
  -8111602.96106  22476761.94406  -6319135.13147  22476758.30047
 -12575204.90207  20031227.23307  -9785221.63248  20031221.71048
  -5735146.00806  22237794.91306  -4464005.95447  22237791.21447
   1190772.35206  21138811.47606    930775.69048  21138808.19848
 08 11 15  0 21 59.9950000  0  9  3  6 13 16 19 21 23 25 31
 -20857007.40607  18924812.77307 -16234299.96948  18924810.42548
 -16268653.16007  18903198.84307 -12657800.68448  18903196.12848
 -13834221.28506  20937762.75706 -10773254.73747  20937758.75747
  -4886741.86307  19404404.35807  -3802232.12248  19404400.09348
  -9629486.18406  21278932.56906  -7490126.33647  21278927.29247
  -8166380.10506  22466337.68706  -6361818.61947  22466333.85547
 -12609029.97307  20024790.67907  -9811578.84748  20024785.42548
  -5869701.81606  22212189.48306  -4568854.61847  22212186.61247
   1222887.50806  21144923.00706    955800.44648  21144919.76948
 08 11 15  0 22 29.9950000  0  9  3  6 13 16 19 21 23 25 31
 -20957525.15207  18905684.64007 -16312625.48848  18905681.73748
 -16335503.02307  18890477.61607 -12709891.48548  18890474.56548
 -13919921.88706  20921455.05406 -10840034.42647  20921450.48747
  -4899223.26607  19402029.13207  -3811957.89348  19402024.62048
  -9774820.00406  21251275.96006  -7603373.45247  21251271.55447
  -8220700.29306  22456001.04606  -6404145.99546  22455997.49546
 -12642234.77007  20018472.42907  -9837452.75648  20018466.83548
  -6004168.95706  22186602.05406  -4673634.22647  22186598.24947
   1255293.62107  21151089.41307    981051.92248  21151086.14448
 08 11 15  0 22 59.9950000  0  9  3  6 13 16 19 21 23 25 31
 -21057543.05107  18886652.11607 -16390561.49048  18886649.19448
 -16401849.28107  18877852.35107 -12761589.85648  18877849.24948
 -14005040.04706  20905257.55406 -10906360.28747  20905253.55047
  -4911515.49207  19399690.03007  -3821536.25548  19399685.96848
  -9919888.77306  21223670.71006  -7716414.00247  21223664.92547
  -8274566.88306  22445751.39006  -6446119.93347  22445746.68347
 -12674824.33207  20012270.37407  -9862847.22848  20012265.02648
  -6138549.86706  22161029.64806  -4778346.60547  22161025.80047
   1287986.04707  21157310.79607   1006526.50148  21157307.07748
 08 11 15  0 23 29.9950000  0  9  3  6 13 16 19 21 23 25 31
 -21157056.25807  18867715.07707 -16468104.25048  18867712.18748
 -16467688.14807  18865323.63207 -12812892.87648  18865320.96448
 -14089569.93006  20889172.06206 -10972227.74047  20889168.08147
  -4923615.30907  19397386.96007  -3830964.69948  19397383.11648
 -10064686.44906  21196117.06206  -7829243.37647  21196110.74547
  -8327974.91006  22435587.60106  -6487736.58347  22435583.36647
 -12706795.77707  20006186.39007  -9887760.04748  20006180.92148
  -6272838.68806  22135475.81206  -4882987.22947  22135471.89847
   1320967.58607  21163587.07707   1032226.36248  21163583.20648
 08 11 15  0 23 59.9950000  0  9  3  6 13 16 19 21 23 25 31
 -21256066.78907  18848874.19407 -16545255.31848  18848871.44448
 -16533023.19507  18852890.51507 -12863803.29248  18852887.78448
 -14173514.39806  20873197.35106 -11037638.99247  20873193.84347
  -4935527.02007  19395120.81207  -3840246.55648  19395117.37448
 -10209214.48406  21168613.69406  -7941862.60147  21168608.04247
  -8380927.06606  22425510.71006  -6528998.00747  22425507.57347
 -12738152.96507  20000219.77307  -9912194.23748  20000213.80448
  -6407037.25806  22109938.25706  -4987557.52047  22109934.62047
   1354233.92207  21169917.10107   1058148.15648  21169914.46048
 08 11 15  0 24 29.9950000  0  9  3  6 13 16 19 21 23 25 31
 -21354576.28507  18830128.31907 -16622015.93848  18830124.96048
 -16597856.93007  18840553.26507 -12914323.08948  18840550.16748
 -14256874.25806  20857335.31206 -11102594.73147  20857331.03047
  -4947253.48007  19392889.38207  -3849384.05848  19392885.17548
 -10353472.94106  21141162.66306  -8054271.77948  21141156.70248
  -8433424.55906  22415520.89006  -6569905.13447  22415517.50747
 -12768899.45307  19994368.67907  -9936152.54048  19994363.44048
  -6541145.94506  22084418.17906  -5092057.77647  22084415.18347
   1387781.87107  21176301.36607   1084289.39348  21176298.94448
 08 11 15  0 24 59.9950000  0  9  3  6 13 16 19 21 23 25 31
 -21452579.80907  18811478.78807 -16698382.33548  18811475.73748
 -16662185.15207  18828312.24907 -12964448.97248  18828308.71048
 -14339643.96506  20841584.76506 -11167090.60047  20841580.71447
  -4958791.27007  19390694.24907  -3858374.53548  19390689.76148
 -10497455.53906  21113763.15506  -8166465.99247  21113757.67947
  -8485462.53106  22405618.45206  -6610454.21447  22405614.37047
 -12799031.91407  19988634.84307  -9959632.39648  19988629.33548
  -6675158.71106  22058916.66306  -5196483.28647  22058913.21847
   1421614.89507  21182739.64807   1110652.74648  21182736.54648
 08 11 15  0 25 29.9950000  0  9  3  6 13 16 19 21 23 25 31
 -21550073.72307  18792926.50707 -16774351.62048  18792923.72248
 -16726005.82807  18816167.31207 -13014179.36248  18816164.30048
 -14421819.82006  20825946.73306 -11231123.73447  20825942.40547
  -4970138.49607  19388534.64807  -3867216.54348  19388530.41748
 -10641157.89106  21086417.06206  -8278441.82347  21086412.69447
  -8537037.72706  22395804.22606  -6650642.67547  22395800.19847
 -12828549.19107  19983017.92107  -9982632.87848  19983012.81248
  -6809071.24206  22033433.23306  -5300830.70747  22033430.26147
   1455734.46506  21189232.35806   1137239.42048  21189228.50348
 08 11 15  0 25 59.9950000  0  9  3  6 13 16 19 21 23 25 31
 -21647063.16807  18774470.00707 -16849927.79548  18774466.67948
 -16789324.82807  18804118.02307 -13063518.84548  18804115.19848
 -14503407.08606  20810421.45206 -11294698.23447  20810417.15947
  -4981301.65207  19386410.14007  -3875915.11548  19386406.02648
 -10784583.54306  21059124.78806  -8390202.03448  21059120.48048
  -8588154.61706  22386077.51506  -6690474.05547  22386073.74147
 -12857457.09407  19977517.19407 -10005158.54248  19977511.47648
  -6942887.46506  22007968.53006  -5405103.08646  22007965.21846
   1490133.90207  21195778.86607   1164044.12548  21195774.86248
 08 11 15  0 26 29.9950000  0  9  3  6 13 16 19 21 23 25 31
 -21743545.89808  18756110.04608 -16925109.14348  18756106.99548
 -16852141.08607  18792164.48307 -13112466.57148  18792161.48748
 -14584401.98806  20795008.53006 -11357811.13647  20795004.51147
  -4992280.23007  19384320.89807  -3884469.84248  19384317.14848
 -10927729.24206  21031884.72606  -8501744.12847  21031879.94847
  -8638811.72706  22376437.56906  -6729947.13947  22376433.36647
 -12885755.66407  19972131.69407 -10027209.39748  19972126.21848
  -7076604.32006  21982523.41306  -5509298.02047  21982520.45647
   1524813.45706  21202377.46806   1191067.11348  21202374.26148
 08 11 15  0 26 59.9950000  0  9  3  6 13 16 19 21 23 25 31
 -21839520.73807  18737846.51507 -16999894.73048  18737843.44048
 -16914454.53107  18780306.85107 -13161022.50148  18780303.65148
 -14664803.28506  20779708.85806 -11420461.49447  20779704.27347
  -5003074.34007  19382266.99907  -3892880.83848  19382262.35548
 -11070592.54706  21004699.12406  -8613066.15147  21004694.12047
  -8689007.44506  22366885.16306  -6769060.69747  22366880.91347
 -12913446.30107  19966862.74907 -10048786.50948  19966856.74948
  -7210219.49206  21957097.61606  -5613413.71847  21957094.97247
   1559772.75006  21209030.34306   1218308.06948  21209026.89048
 08 11 15  0 27 29.9950000  0  9  3  6 13 16 19 21 23 25 31
 -21934985.80107  18719680.06207 -17074283.07448  18719677.48048
 -16976264.41407  18768544.85107 -13209186.04248  18768541.43748
 -14744609.25806  20764521.84306 -11482647.95747  20764517.67947
  -5013683.88307  19380248.05407  -3901148.01948  19380244.13648
 -11213170.56607  20977567.44407  -8724165.90947  20977561.83947
  -8738740.49206  22357422.14006  -6807813.74846  22357417.60546
 -12940528.57407  19961708.99107 -10069889.58548  19961703.30048
  -7343730.19506  21931691.41306  -5717448.01847  21931687.74947
   1595011.60206  21215736.24106   1245766.90148  21215732.76548
 08 11 15  0 27 59.9950000  0  9  3  6 13 16 19 21 23 25 31
 -22029941.02007  18701610.61607 -17148274.14648  18701608.06948
 -17037571.61707  18756878.34307 -13256957.88748  18756875.04648
 -14823819.38307  20749449.16307 -11544370.15847  20749444.37847
  -5024110.19907  19378264.08507  -3909272.43548  19378259.96048
 -11355461.67206  20950490.60106  -8835042.10348  20950485.15548
  -8788010.03906  22348045.93706  -6846205.58246  22348042.05446
 -12967003.88707  19956670.98307 -10090519.71148  19956665.83148
  -7477135.11706  21906305.08506  -5821399.89147  21906301.50347
   1630528.65607  21222494.56907   1273442.50448  21222490.88648
 08 11 15  0 28 29.9950000  0  9  3  6 13 16 19 21 23 25 31
 -22124381.78107  18683639.09307 -17221864.33048  18683635.69848
 -17098372.89107  18745308.13207 -13304335.50048  18745304.76148
 -14902429.00806  20734489.71006 -11605624.40747  20734485.10847
  -5034350.32007  19376315.28007  -3917251.74848  19376310.96848
 -11497460.20706  20923469.56906  -8945690.27747  20923462.96447
  -8836812.05905  22338758.31905  -6884233.11946  22338755.24546
 -12992870.25007  19951748.45207 -10110675.33348  19951743.04648
  -7610428.80106  21880940.53806  -5925265.10547  21880936.37447
   1666326.54306  21229306.29606   1301336.94048  21229303.00748
 08 11 15  0 28 59.9950000  0  9  3  6 13 16 19 21 23 25 31
 -22218311.98007  18665764.42907 -17295056.70048  18665762.00748
 -17158672.82807  18733833.58507 -13351322.46248  18733830.19848
 -14980441.20306  20719644.78806 -11666413.13147  20719640.89447
  -5044409.19107  19374401.19407  -3925089.85148  19374397.17948
 -11639168.71106  20896502.23306  -9056112.48448  20896496.94448
  -8885150.64106  22329560.59306  -6921899.57647  22329556.21847
 -13018132.76606  19946941.64806 -10130360.43948  19946936.80848
  -7743613.65206  21855596.46806  -6029045.53047  21855592.71447
   1702399.81306  21236171.31206   1329445.93947  21236167.66747
 08 11 15  0 29 29.9950000  0  9  3  6 13 16 19 21 23 25 31
 -22311729.53107  18647988.41307 -17367849.59648  18647985.04648
 -17218470.78507  18722454.44407 -13397918.27348  18722451.49948
 -15057853.62906  20704913.78006 -11726734.49447  20704909.78047
  -5054286.62507  19372521.75707  -3932786.54848  19372517.28848
 -11780583.89506  20869591.72606  -9166306.09048  20869587.44448
  -8933023.32406  22320450.18706  -6959202.99846  22320446.71446
 -13042791.89807  19942248.77307 -10149575.34948  19942243.31948
  -7876686.83606  21830273.08506  -6132738.88847  21830269.24547
   1738749.00806  21243088.95206   1357769.96347  21243084.56547
 08 11 15  0 29 59.9950000  0  9  3  6 13 16 19 21 23 25 31
 -22404636.28107  18630308.55407 -17440244.45748  18630305.20648
 -17277769.32007  18711170.21807 -13444124.92748  18711167.21848
 -15134668.17206  20690296.18706 -11786590.02447  20690292.17947
  -5063985.23007  19370676.02307  -3940343.93248  19370671.93748
 -11921705.96506  20842736.85806  -9276271.31848  20842732.58948
  -8980432.13306  22311428.86606  -6996144.94347  22311424.96047
 -13066850.99607  19937670.35107 -10168322.70048  19937664.34348
  -8009648.68406  21804970.99906  -6236345.49947  21804967.69447
   1775370.26206  21250057.32706   1386305.96047  21250052.58147
 08 11 15  0 30 29.9950000  0  9  3  6 13 16 19 21 23 25 31
 -22497026.69907  18612727.64807 -17512236.98049  18612724.31549
 -17336564.34407  18699981.85107 -13489939.21748  18699978.90548
 -15210878.62106  20675793.93706 -11845974.77147  20675789.33547
  -5073501.23407  19368865.42107  -3947759.02148  19368861.09748
 -12062528.77006  20815939.52306  -9386003.34447  20815934.62847
  -9027371.88306  22302496.44406  -7032721.36746  22302492.30846
 -13090306.94907  19933207.48307 -10186600.06848  19933201.52648
  -8142492.75806  21779692.28006  -6339860.34747  21779687.89047
   1812267.28507  21257078.41307   1415056.87348  21257075.24148
 08 11 15  0 30 59.9950000  0  9  3  6 13 16 19 21 23 25 31
 -22588903.53108  18595243.95208 -17583829.29849  18595240.24949
 -17394859.71107  18688888.78007 -13535364.17348  18688885.39848
 -15286488.08206  20661405.93706 -11904891.24247  20661401.76947
  -5082838.74607  19367088.87407  -3955035.01648  19367083.99948
 -12203053.60206  20789198.24106  -9495503.18248  20789193.14048
  -9073845.39806  22293653.64806  -7068934.53647  22293649.75347
 -13113163.87507  19928857.65507 -10204410.66748  19928852.08948
  -8275220.47306  21754434.84306  -6443284.54347  21754430.62847
   1849435.74207  21264151.76507   1444019.28548  21264148.04248
 08 11 15  0 31 29.9950000  0  9  3  6 13 16 19 21 23 25 31
 -22680264.91807  18577857.99107 -17655019.97648  18577855.03048
 -17452654.54707  18677890.38207 -13580399.10948  18677887.78848
 -15361493.73406  20647133.00706 -11963337.21047  20647128.33147
  -5091996.91807  19365345.88207  -3962171.25848  19365341.49948
 -12343277.03506  20762514.94406  -9604768.17848  20762509.91348
  -9119850.53506  22284899.17106  -7104782.72646  22284894.30446
 -13135422.18007  19924621.99107 -10221754.81648  19924617.16748
  -8407828.77306  21729200.24906  -6546615.69447  21729197.02647
   1886876.00806  21271276.47606   1473193.49848  21271273.47248
 08 11 15  0 31 59.9950000  0  9  3  6 13 16 19 21 23 25 31
 -22771108.24607  18560571.49907 -17725806.98448  18560567.91348
 -17509947.38307  18666988.03007 -13625042.86348  18666984.89848
 -15435893.23406  20632975.28806 -12021310.84847  20632971.37047
  -5100975.01207  19363637.21007  -3969167.19148  19363632.58148
 -12483195.09006  20735889.69406  -9713795.24148  20735884.19048
  -9165384.55905  22276234.13205  -7140263.79047  22276229.49547
 -13157081.05907  19920500.55407 -10238631.87748  19920495.15948
  -8540313.71906  21703989.45206  -6649850.67847  21703986.12447
   1924588.96506  21278452.90506   1502580.17348  21278449.71848
 08 11 15  0 32 29.9950000  0  9  3  6 13 16 19 21 23 25 31
 -22861436.44907  18543382.24907 -17796192.58248  18543379.26948
 -17566741.95307  18656180.27307 -13669298.38448  18656176.76948
 -15509688.54306  20618932.26506 -12078813.67447  20618928.21847
  -5109776.37507  19361962.96007  -3976025.40248  19361958.49548
 -12622809.39806  20709321.54606  -9822585.56047  20709316.72647
  -9210450.42206  22267658.80406  -7175380.06347  22267654.14047
 -13178145.12107  19916492.24107 -10255045.44948  19916486.52648
  -8672676.62106  21678801.71006  -6752990.61247  21678797.80047
   1962569.87106  21285680.57706   1532175.66047  21285676.34347
 08 11 15  0 32 59.9950000  0  9  3  6 13 16 19 21 23 25 31
 -22951247.25408  18526291.98308 -17866175.02948  18526288.81248
 -17623037.15607  18645467.77307 -13713164.76248  18645464.08548
 -15582877.71906  20605004.64006 -12135844.21747  20605000.54247
  -5118400.43407  19360321.47607  -3982745.46548  19360317.51948
 -12762116.39806  20682812.35806  -9931136.43848  20682807.24148
  -9255046.37506  22259171.67106  -7210130.14047  22259167.71447
 -13198614.73007  19912596.97607 -10270995.80348  19912591.10548
  -8804914.19906  21653637.13206  -6856032.84847  21653633.29247
   2000819.78506  21292959.13206   1561980.77048  21292955.40148
 08 11 15  0 33 29.9950000  0  9  3  6 13 16 19 21 23 25 31
 -23040538.32008  18509300.35808 -17935752.46748  18509297.11648
 -17678831.83607  18634850.42107 -13756641.13448  18634847.10148
 -15655457.84406  20591193.48306 -12192400.15747  20591189.27647
  -5126845.88707  19358714.26507  -3989326.33648  19358709.96848
 -12901112.35506  20656362.26506 -10039444.94648  20656357.65948
  -9299169.77306  22250775.89806  -7244512.01147  22250771.76947
 -13218488.93807  19908815.03007 -10286482.20148  19908809.50348
  -8937022.50006  21628498.13206  -6958974.39547  21628494.01547
   2039339.10906  21300288.78806   1591995.78147  21300285.23047
 08 11 15  0 33 59.9940000  0  9  3  6 13 16 19 21 23 25 31
 -23129306.64508  18492408.29108 -18004922.59248  18492405.29948
 -17734125.55907  18624328.56507 -13799727.15648  18624325.50248
 -15727426.62906  20577497.97106 -12248479.72847  20577493.53347
  -5135114.20707  19357140.66607  -3995769.19848  19357136.63548
 -13039791.72706  20629972.48606 -10147506.77648  20629967.49848
  -9342820.25006  22242469.45506  -7278525.34247  22242465.14347
 -13237769.79307  19905146.48607 -10301506.24848  19905140.48248
  -9068996.45306  21603383.90806  -7061811.20247  21603380.72547
   2078124.39806  21307670.11106   1622218.06247  21307665.70947
 08 11 15  0 34 29.9940000  0  9  3  6 13 16 19 21 23 25 31
 -23217556.57007  18475615.04107 -18073688.77348  18475611.51448
 -17788921.52307  18613900.73607 -13842425.30248  18613897.79948
 -15798787.10906  20563918.40806 -12304085.30747  20563914.84647
  -5143205.34007  19355600.87707  -4002073.97748  19355596.64748
 -13178160.68006  20603641.51806 -10255326.70348  20603636.64748
  -9385998.84806  22234252.68206  -7312171.03847  22234247.85447
 -13256458.68807  19901590.27507 -10316069.02848  19901584.45148
  -9200841.69106  21578294.72906  -7164547.73747  21578291.08847
   2117178.35506  21315101.59606   1652649.70747  21315098.53747
 08 11 15  0 34 59.9940000  0  9  3  6 13 16 19 21 23 25 31
 -23305287.09407  18458920.22107 -18142050.21749  18458917.60049
 -17843220.34407  18603568.23607 -13884736.07248  18603564.90048
 -15869538.20306  20550455.26006 -12359216.05047  20550451.51047
  -5151121.87507  19354094.96307  -4008242.72748  19354090.30748
 -13316214.76207  20577370.47107 -10362901.28648  20577365.66648
  -9428704.92606  22226125.86906  -7345448.49747  22226122.07647
 -13274558.59407  19898145.22907 -10330172.86548  19898140.61548
  -9332553.80506  21553231.17406  -7267180.51647  21553226.99847
   2156496.66807  21322583.40807   1683287.32347  21322580.67447
 08 11 15  0 35 29.9940000  0  9  3  6 13 16 19 21 23 25 31
 -23392493.21907  18442325.69007 -18210003.04149  18442322.63549
 -17897017.93807  18593331.04907 -13926656.26848  18593328.01048
 -15939674.59806  20537108.64306 -12413867.77447  20537104.73647
  -5158859.44907  19352622.33807  -4014271.98848  19352618.43648
 -13453947.48007  20551161.38507 -10470225.46648  20551156.09648
  -9470933.79706  22218090.74406  -7378354.13447  22218086.61547
 -13292066.35207  19894813.82207 -10343815.28448  19894808.30348
  -9464126.14506  21528193.04906  -7369704.41147  21528189.51847
   2196082.98806  21330116.18206   1714133.78147  21330112.98247
 08 11 15  0 35 59.9940000  0  9  3  6 13 16 19 21 23 25 31
 -23479177.51208  18425830.32208 -18277549.24749  18425827.06149
 -17950318.75407  18583188.17407 -13968189.37248  18583185.19348
 -16009199.28106  20523878.54906 -12468042.87647  20523874.30347
  -5166422.52007  19351183.31507  -4020165.30848  19351178.53348
 -13591360.63706  20525012.80706 -10577300.62048  20525007.22148
  -9512689.07006  22210144.71306  -7410890.72147  22210140.68647
 -13308987.06607  19891593.40007 -10357000.26748  19891589.04948
  -9595560.63306  21503182.01006  -7472120.90547  21503178.45947
   2235932.31307  21337699.85407   1745185.16648  21337696.57648
 08 11 15  0 36 29.9940000  0  9  3  6 13 16 19 21 23 25 31
 -23565341.35507  18409433.83807 -18344689.91148  18409430.75248
 -18003125.03107  18573139.39307 -14009337.12048  18573135.60748
 -16078113.24606  20510764.83806 -12521742.06847  20510760.71747
  -5173813.32807  19349776.80707  -4025924.38148  19349772.41648
 -13728454.00806  20498924.51806 -10684126.60148  20498918.69748
  -9553971.98806  22202288.69706  -7443059.22247  22202284.31147
 -13325324.61706  19888484.51006 -10369730.84148  19888479.81848
  -9726856.92206  21478197.28306  -7574429.70947  21478193.94347
   2276041.64806  21345332.01006   1776439.14948  21345328.81148
 08 11 15  0 36 59.9940000  0  9  3  6 13 16 19 21 23 25 31
 -23650985.84408  18393136.18208 -18411425.87149  18393132.65849
 -18055438.39507  18563184.68207 -14050100.77248  18563181.42848
 -16146416.73806  20497766.84606 -12574965.55947  20497763.20147
  -5181033.45707  19348403.01007  -4031550.46448  19348399.19048
 -13865226.70706  20472897.31506 -10790702.72848  20472892.01848
  -9594782.87506  22194522.52506  -7474859.91747  22194519.32647
 -13341081.14806  19885486.36906 -10382008.67348  19885480.79548
  -9858014.12106  21453239.08806  -7676630.07947  21453235.24847
   2316408.97706  21353013.34606   1807894.17748  21353010.75648
 08 11 15  0 37 29.9940000  0  9  3  6 13 16 19 21 23 25 31
 -23736107.35507  18376938.08007 -18477754.32648  18376935.11948
 -18107256.57007  18553323.97107 -14090478.56948  18553320.71748
 -16214106.29706  20484886.19706 -12627710.68647  20484882.02547
  -5188080.52307  19347061.90007  -4037041.68948  19347057.31548
 -14001673.84006  20446932.04106 -10897025.15848  20446927.17448
  -9635118.60506  22186846.77506  -7506290.35547  22186842.95947
 -13356255.22707  19882599.09607 -10393832.64048  19882593.32248
  -9989027.07806  21428307.35406  -7778718.08747  21428304.56847
   2357036.23406  21360744.52506   1839551.76348  21360741.68248
 08 11 15  0 37 59.9940000  0  9  3  6 13 16 19 21 23 25 31
 -23820702.21908  18360839.94008 -18543672.40648  18360836.71348
 -18158577.07007  18543557.61907 -14130468.55848  18543554.69748
 -16281178.26206  20472122.86106 -12679974.55947  20472118.67447
  -5194952.19907  19345754.47107  -4042396.26048  19345749.92848
 -14137790.49206  20421030.31506 -11003090.09148  20421024.99448
  -9674975.66806  22179262.24406  -7537347.78947  22179257.78347
 -13370845.35907  19879822.61107 -10405201.56948  19879816.86148
 -10119890.81606  21403405.38506  -7880689.84147  21403400.90047
   2397925.49606  21368526.40806   1871413.47948  21368522.83048
 08 11 15  0 38 29.9940000  0  9  3  6 13 16 19 21 23 25 31
 -23904773.42207  18344841.86907 -18609182.43948  18344838.50648
 -18209403.99607  18533885.96307 -14170073.96348  18533883.02948
 -16347635.51606  20459476.62706 -12731759.43647  20459472.36147
  -5201652.35907  19344479.36907  -4047617.16948  19344474.81848
 -14273578.37106  20395190.03306 -11108898.79348  20395185.19348
  -9714356.93406  22171768.00206  -7568034.48647  22171763.49047
 -13384856.52307  19877156.45507 -10416119.39948  19877150.98248
 -10250606.78506  21378530.69706  -7982546.43447  21378527.14347
   2439071.91806  21376355.25206   1903475.59547  21376352.69047
 08 11 15  0 38 59.9940000  0  9  3  6 13 16 19 21 23 25 31
 -23988322.84808  18328943.01808 -18674285.88048  18328940.10448
 -18259740.19107  18524307.32207 -14209296.96748  18524303.60448
 -16413479.52006  20446946.75206 -12783066.46147  20446942.83847
  -5208184.02007  19343235.97907  -4052706.79048  19343232.17848
 -14409037.73806  20369413.01006 -11214451.54548  20369408.36548
  -9753264.80506  22164363.85406  -7598352.30547  22164359.59647
 -13398293.10507  19874599.33007 -10426589.46648  19874594.37348
 -10381175.22306  21353684.53306  -8084288.05447  21353680.64347
   2480472.14106  21384233.39306   1935735.46947  21384231.36947
 08 11 15  0 39 29.9940000  0  9  3  6 13 16 19 21 23 25 31
 -24071349.37507  18313143.49407 -18738981.87448  18313140.42848
 -18309585.77707  18514822.19707 -14248137.68148  18514818.89348
 -16478709.16406  20434534.10406 -12833894.75047  20434530.18247
  -5214546.57807  19342025.33007  -4057664.63848  19342021.19348
 -14544166.29306  20343699.36906 -11319746.51148  20343694.69348
  -9791697.83606  22157050.69006  -7628300.11247  22157046.52247
 -13411155.77707  19872151.58007 -10436612.36548  19872145.86548
 -10511593.23806  21328866.87706  -8185912.47847  21328862.44747
   2522125.82806  21392160.99406   1968192.85547  21392157.44747
 08 11 15  0 39 59.9940000  0  9  3  6 13 16 19 21 23 25 31
 -24153847.25008  18297444.77508 -18803265.93949  18297441.91249
 -18358935.82807  18505430.58007 -14286592.26948  18505428.20148
 -16543318.46106  20422239.23606 -12884239.64647  20422235.21747
  -5220735.34007  19340848.02507  -4062487.07448  19340843.47148
 -14678956.44107  20318050.02507 -11424777.78948  20318045.25648
  -9829650.52706  22149828.05706  -7657873.63247  22149824.40047
 -13423440.82807  19869814.28307 -10446185.12648  19869808.73248
 -10641853.46906  21304078.85406  -8287413.95947  21304075.10047
   2564037.31606  21400135.88506   2000851.13147  21400133.53347
 08 11 15  0 40 29.9940000  0  9  3  6 13 16 19 21 23 25 31
 -24235821.53907  18281845.44707 -18867141.99348  18281842.03348
 -18407796.51607  18496133.10407 -14324665.52748  18496130.01048
 -16607312.20306  20410061.26006 -12934104.89347  20410057.58047
  -5226755.94507  19339702.00207  -4067178.46248  19339698.09648
 -14813411.65207  20292464.04907 -11529548.06648  20292458.81848
  -9867127.82406  22142696.54906  -7687076.69146  22142692.04146
 -13435155.20306  19867584.88506 -10455313.21648  19867579.10748
 -10771959.02005  21279320.51805  -8388794.90947  21279317.54947
   2606200.22306  21408159.70506   2033705.30248  21408156.60048
 08 11 15  0 40 59.9940000  0  9  3  6 13 16 19 21 23 25 31
 -24317267.79307  18266346.78307 -18930606.61249  18266343.82649
 -18456164.55907  18486929.28307 -14362354.90948  18486925.69348
 -16670686.23807  20398002.05707 -12983487.29747  20397997.34647
  -5232605.10207  19338589.02507  -4071736.25448  19338584.77948
 -14947526.27306  20266942.23606 -11634052.93148  20266937.47548
  -9904125.30906  22135656.51006  -7715905.92347  22135652.08847
 -13446296.77707  19865465.06507 -10463994.99248  19865459.05348
 -10901904.07806  21254592.44006  -8490050.77347  21254589.86147
   2648616.86306  21416231.38506   2066757.19047  21416227.74847
 08 11 15  0 41 29.9940000  0  9  3  6 13 16 19 21 23 25 31
 -24398187.89507  18250948.24407 -18993661.22548  18250945.14748
 -18504042.89507  18477818.18207 -14399662.70448  18477814.52948
 -16733442.07006  20386059.88506 -13032387.92247  20386055.79147
  -5238285.65607  19337508.03307  -4076162.67748  19337503.97548
 -15081300.82007  20241486.15007 -11738292.82948  20241481.08448
  -9940645.10906  22128706.95506  -7744362.88647  22128702.74847
 -13456869.48807  19863452.97107 -10472233.48248  19863447.57648
 -11031688.64106  21229896.06506  -8591181.59647  21229893.06147
   2691284.47306  21424350.51006   2100004.65547  21424346.80347
 08 11 15  0 41 59.9940000  0  9  3  6 13 16 19 21 23 25 31
 -24478582.94108  18235649.69008 -19056306.69948  18235646.26048
 -18551433.44507  18468799.93207 -14436590.41748  18468796.87348
 -16795580.62107  20374235.04907 -13080807.58147  20374231.06147
  -5243799.05107  19336459.27507  -4080458.83748  19336454.67048
 -15214734.28507  20216094.41607 -11842266.96748  20216088.61548
  -9976688.13706  22121848.88506  -7772448.34847  22121844.18247
 -13466876.50007  19861549.10407 -10480031.19048  19861543.11948
 -11161311.86706  21205229.19706  -8692186.69047  21205226.50647
   2734200.25406  21432517.33806   2133445.48647  21432513.54147
 08 11 15  0 42 29.9940000  0  9  3  6 13 16 19 21 23 25 31
 -24558453.60907  18220450.63507 -19118543.58248  18220447.63148
 -18598338.07007  18459873.90807 -14473139.47248  18459871.00648
 -16857102.55107  20362528.00207 -13128746.76947  20362523.77547
  -5249146.94907  19335441.17407  -4084626.04748  19335437.36148
 -15347826.19907  20190767.95507 -11945974.93948  20190762.45148
 -10012255.24206  22115080.15006  -7800163.00347  22115075.72147
 -13476320.29307  19859751.69007 -10487389.99448  19859745.89748
 -11290772.74206  21180593.87706  -8793065.27947  21180590.34647
   2777362.07006  21440731.15806   2167078.03547  21440727.31147
 08 11 15  0 42 59.9940000  0  9  3  6 13 16 19 21 23 25 31
 -24637798.54707  18205351.68207 -19180370.80248  18205348.81848
 -18644756.20307  18451041.12707 -14509309.44448  18451037.95548
 -16918006.03907  20350938.41607 -13176204.02947  20350934.72147
  -5254328.65207  19334455.53307  -4088663.73748  19334451.38548
 -15480573.62106  20165507.41606 -12049414.46148  20165502.31148
 -10047345.04706  22108402.81506  -7827505.71947  22108398.19747
 -13485201.60907  19858061.44707 -10494310.49048  19858055.35048
 -11420067.74606  21155990.00206  -8893814.63547  21155986.46347
   2820770.18405  21448990.62705   2200902.47547  21448987.38547
 08 11 15  0 43 29.9940000  0  9  3  6 13 16 19 21 23 25 31
 -24716615.48007  18190353.67407 -19241786.59348  18190350.43248
 -18690686.98007  18442300.50207 -14545099.67548  18442297.67448
 -16978289.21907  20339466.81507 -13223177.95047  20339463.72147
  -5259342.77307  19333501.54907  -4092570.85348  19333497.41648
 -15612972.90207  20140312.19707 -12152582.69248  20140307.19748
 -10081955.67606  22101816.79906  -7854475.06047  22101812.51047
 -13493520.57807  19856478.33807 -10500792.84548  19856472.85448
 -11549193.19106  21131418.04106  -8994431.85447  21131414.58447
   2864424.89506  21457298.19706   2234919.10947  21457295.58447
 08 11 15  0 43 59.9940000  0  9  3  6 13 16 19 21 23 25 31
 -24794909.65207  18175454.52507 -19302795.01548  18175451.31148
 -18736136.46907  18433652.00207 -14580514.83348  18433649.02248
 -17037956.93006  20328112.29106 -13269672.24947  20328108.35047
  -5264194.93807  19332578.01807  -4096351.76948  19332573.77548
 -15745027.30507  20115183.32207 -12255482.20448  20115177.51448
 -10116092.20306  22095320.54106  -7881074.97147  22095316.01047
 -13501284.32407  19855001.60407 -10506842.51348  19854995.48248
 -11678152.11706  21106878.09606  -9094919.31647  21106874.74447
   2908319.96106  21465650.91606   2269123.03247  21465648.45547
 08 11 15  0 44 29.9940000  0  9  3  6 13 16 19 21 23 25 31
 -24872676.50407  18160655.85407 -19363392.57449  18160653.40449
 -18781101.12507  18425095.82207 -14615552.22748  18425092.36148
 -17097004.54706  20316876.26006 -13315683.39947  20316872.81847
  -5268881.39807  19331685.82207  -4100003.56948  19331681.86948
 -15876730.98807  20090120.76007 -12358108.44248  20090115.14348
 -10149749.59806  22088916.32206  -7907301.54247  22088911.25647
 -13508490.32007  19853630.20507 -10512457.60148  19853624.17848
 -11806938.18406  21082371.04106  -9195272.08447  21082366.80747
   2952458.32806  21474050.24406   2303516.51548  21474047.82648
 08 11 15  0 44 59.9940000  0  9  3  6 13 16 19 21 23 25 31
 -24949910.72307  18145959.01807 -19423575.07249  18145955.52549
 -18825576.64807  18416632.06507 -14650208.48448  18416629.40448
 -17155426.36706  20305759.07206 -13361206.89747  20305755.02947
  -5273397.42207  19330826.38507  -4103522.55948  19330822.43248
 -16008076.85906  20065126.25206 -12460455.85048  20065121.08048
 -10182922.87906  22082604.09606  -7933150.87647  22082598.41247
 -13515135.54707  19852365.03307 -10517635.70448  19852359.39348
 -11935544.02306  21057898.15006  -9295484.42547  21057894.40847
   2996843.94906  21482496.46306   2338102.64447  21482492.91647
 08 11 15  0 45 29.9940000  0  9  3  6 13 16 19 21 23 25 31
 -25026615.25807  18131362.42407 -19483344.82449  18131359.17049
 -18869567.07407  18408261.00207 -14684486.74248  18408258.00248
 -17213225.89806  20294759.52506 -13406245.49947  20294755.75647
  -5277746.58206  19329999.14306  -4106911.53848  19329994.81848
 -16139066.52707  20040200.02507 -12562525.71748  20040194.78348
 -10215615.44906  22076381.72106  -7958625.62247  22076377.72147
 -13521224.99206  19851206.77506 -10522380.74248  19851200.41248
 -12063970.80506  21033459.26806  -9395557.24047  21033456.01847
   3041472.53506  21490989.20506   2372878.13947  21490985.77547
 08 11 15  0 45 59.9940000  0  9  3  6 13 16 19 21 23 25 31
 -25102788.96507  18116866.84607 -19542700.97148  18116864.23648
 -18913072.41407  18399982.31507 -14718387.00948  18399979.53748
 -17270401.83206  20283879.81506 -13450798.18947  20283875.49447
  -5281928.52007  19329203.22107  -4110170.18048  19329199.22548
 -16269697.27707  20015341.35407 -12664315.87048  20015336.89748
 -10247826.40206  22070252.58006  -7983725.04147  22070248.30747
 -13526759.82007  19850153.54907 -10526693.59448  19850148.38548
 -12192215.48406  21009054.84606  -9495488.13847  21009051.86947
   3086343.55505  21499527.40805   2407842.52447  21499524.13547
 08 11 15  0 46 29.9940000  0  9  3  6 13 16 19 21 23 25 31
 -25178438.16807  18102471.46307 -19601648.38848  18102468.56148
 -18956099.69907  18391794.26807 -14751914.76348  18391791.59248
 -17326960.37906  20273116.99406 -13494869.79947  20273113.12347
  -5285949.80907  19328437.97907  -4113303.68148  19328433.76848
 -16399973.52307  19990551.11907 -12765829.81648  19990546.10048
 -10279561.22306  22064213.57206  -8008453.45247  22064209.68247
 -13531748.09407  19849204.19007 -10530580.59048  19849198.77948
 -12320282.01206  20984684.72106  -9595280.23847  20984680.98247
   3131449.75006  21508111.33806   2442990.12947  21508107.89347
 08 11 15  0 46 59.9940000  0  9  3  6 13 16 19 21 23 25 31
 -25253560.75007  18088176.18207 -19660185.47248  18088172.87348
 -18998648.23407  18383697.48607 -14785069.47048  18383694.50648
 -17382899.96906  20262471.80706 -13538459.09347  20262468.11947
  -5289809.21107  19327703.83807  -4116311.02148  19327699.54548
 -16529892.27307  19965828.13507 -12867065.19848  19965823.02548
 -10310818.84006  22058265.42406  -8032810.03947  22058261.31147
 -13536190.25807  19848358.21307 -10534042.02248  19848353.23648
 -12448166.75406  20960348.70506  -9694930.69347  20960345.37747
   3176791.25406  21516739.97106   2478321.17747  21516736.13947
 08 11 15  0 47 29.9940000  0  9  3  6 13 16 19 21 23 25 31
 -25328155.40207  18073981.15807 -19718311.17648  18073977.79948
 -19040717.57807  18375692.15007 -14817850.79048  18375689.21748
 -17438218.50407  20251945.44707 -13581564.46347  20251941.78347
  -5293505.81307  19327000.09607  -4119191.49748  19326995.78748
 -16659450.07407  19941174.77507 -12968019.30948  19941168.82248
 -10341597.78506  22052408.51806  -8056793.68047  22052404.05747
 -13540087.13707  19847616.61107 -10537078.56548  19847611.26848
 -12575866.02006  20936048.76006  -9794436.59747  20936044.74847
   3222368.34006  21525412.97906   2513835.73147  21525410.01447
 08 11 15  0 47 59.9940000  0  9  3  6 13 16 19 21 23 25 31
 -25402221.53107  18059887.04107 -19776025.05849  18059884.09249
 -19082308.35207  18367777.86907 -14850259.17948  18367774.70148
 -17492915.34807  20241536.70507 -13624185.38347  20241532.87347
  -5297039.94507  19326327.51807  -4121945.38748  19326324.07648
 -16788645.13707  19916589.13507 -13068690.79248  19916583.90448
 -10371897.60206  22046642.50206  -8080403.90447  22046638.23247
 -13543440.29707  19846979.27507 -10539691.45648  19846973.41648
 -12703377.45706  20911784.69706  -9893796.17347  20911780.13947
   3268180.00406  21534130.42406   2549533.11647  21534127.81847
 08 11 15  0 48 29.9940000  0  9  3  6 13 16 19 21 23 25 31
 -25475758.46907  18045893.34607 -19833326.55848  18045890.24848
 -19123420.31607  18359954.23607 -14882294.47848  18359951.03748
 -17546990.30107  20231246.62707 -13666321.70347  20231243.41247
  -5300410.78107  19325686.12707  -4124572.02948  19325681.95148
 -16917474.69907  19892073.93207 -13169077.44548  19892067.81548
 -10401717.25406  22040968.27506  -8103640.00647  22040964.50247
 -13546250.68007  19846444.64307 -10541881.36548  19846438.44348
 -12830697.90206  20887555.62706  -9993006.88247  20887552.50647
   3314226.21106  21542893.07206   2585413.23047  21542890.38947
 08 11 15  0 48 59.9940000  0  9  3  6 13 16 19 21 23 25 31
 -25548767.43007  18032000.08807 -19890216.65448  18031997.04548
 -19164055.92207  18352221.78307 -14913958.58248  18352218.29948
 -17600444.07406  20221075.03306 -13707974.01047  20221071.26447
  -5303619.90607  19325075.86107  -4127072.65748  19325071.38948
 -17045938.35207  19867627.69007 -13269178.98748  19867622.49848
 -10431058.08206  22035384.70506  -8126502.96747  22035380.88947
 -13548521.52707  19846012.36107 -10543650.87048  19846006.29148
 -12957826.47306  20863364.53306 -10092068.09147  20863361.14747
   3360504.21906  21551699.44706   2621473.97247  21551696.24847
 08 11 15  0 49 29.9940000  0  9  3  6 13 16 19 21 23 25 31
 -25621248.23807  18018207.46307 -19946695.20348  18018204.95948
 -19204216.14807  18344579.29107 -14945252.26548  18344576.29548
 -17653276.71106  20211021.17406 -13749142.30047  20211017.00247
  -5306667.94907  19324495.76007  -4129447.76248  19324491.88548
 -17174034.43406  19843251.71306 -13368994.11148  19843246.64748
 -10459920.38706  22029892.20506  -8148993.05247  22029887.74447
 -13550255.48407  19845682.04107 -10545002.00048  19845676.81148
 -13084760.96506  20839209.08806 -10190978.05847  20839205.42847
   3407012.73406  21560549.89306   2657714.32747  21560546.60447
 08 11 15  0 49 59.9940000  0  9  3  6 13 16 19 21 23 25 31
 -25693201.89107  18004515.29907 -20002762.98448  18004511.84648
 -19243902.98807  18337027.34607 -14976177.08348  18337024.23648
 -17705489.43007  20201085.26007 -13789827.53947  20201082.24847
  -5309556.28107  19323946.45507  -4131698.43048  19323942.09648
 -17301762.38706  19818946.06506 -13468522.37448  19818940.77948
 -10488304.70706  22024490.69706  -8171110.72547  22024486.04547
 -13551455.60906  19845453.94006 -10545937.18448  19845448.22948
 -13211500.31306  20815091.61906 -10289735.99047  20815087.81847
   3453749.36306  21569442.95506   2694132.43047  21569440.38947
 08 11 15  0 50 29.9940000  0  9  3  6 13 16 19 21 23 25 31
 -25764623.83207  17990923.97107 -20058416.44749  17990921.02549
 -19283112.34807  18329566.05707 -15006729.83948  18329562.54148
 -17757077.06606  20191268.71306 -13830025.72447  20191265.30347
  -5312279.83207  19323427.73607  -4133820.70948  19323424.03348
 -17429115.31306  19794711.70506 -13567758.38348  19794705.90448
 -10516206.64506  22019181.03306  -8192852.49046  22019177.06546
 -13552118.75407  19845327.82207 -10546453.93548  19845322.12748
 -13338037.12906  20791012.32206 -10388336.09847  20791008.29147
   3500717.84406  21578381.39306   2730731.20947  21578378.05347
 08 11 15  0 50 59.9940000  0  9  3  6 13 16 19 21 23 25 31
 -25835515.53107  17977433.61107 -20113656.73148  17977431.11148
 -19321847.14107  18322195.19707 -15036912.78948  18322191.78348
 -17808041.87106  20181570.23606 -13869738.56347  20181566.19747
  -5314841.17207  19322940.03307  -4135816.55448  19322935.88948
 -17556093.66806  19770548.35406 -13666702.55448  19770542.59248
 -10543628.09806  22013963.15006  -8214219.82747  22013959.17447
 -13552249.07807  19845303.12707 -10546555.47948  19845296.61148
 -13464371.28506  20766971.58806 -10486778.29147  20766967.67447
   3547915.02706  21587362.76806   2767508.17147  21587359.00647
 08 11 15  0 51 29.9930000  0  9  3  6 13 16 19 21 23 25 31
 -25905872.82007  17964045.28607 -20168480.59248  17964041.83348
 -19360105.09007  18314914.59907 -15066724.18148  18314911.79848
 -17858379.87506  20171991.15306 -13908962.99447  20171987.51347
  -5317238.90207  19322483.95007  -4137684.93548  19322479.75148
 -17682689.77706  19746457.46606 -13765348.85348  19746452.93548
 -10570566.00006  22008837.04406  -8235210.44547  22008833.38847
 -13551846.54307  19845379.21607 -10546241.84248  19845373.89948
 -13590494.30906  20742971.45806 -10585055.96847  20742967.50547
   3595339.96906  21596387.90306   2804462.64147  21596383.99347
 08 11 15  0 51 59.9930000  0 10  3  6  7 13 16 19 21 23 25 31
 -25975708.05107  17950756.06007 -20222897.65048  17950752.92348
 -19397897.62907  18307723.25507 -15096172.91348  18307720.12648
   -178533.95315  22196058.20805   -131940.55357  22196054.46247
 -17908102.47706  20162529.20006 -13947707.88047  20162526.42347
  -5319481.19907  19322057.46607  -4139432.19148  19322052.97448
 -17808917.98806  19722437.53606 -13863708.49148  19722432.45448
 -10597030.37106  22003800.74706  -8255832.04047  22003796.25947
 -13550921.71907  19845555.34907 -10545521.19648  19845549.90748
 -13716420.24206  20719007.95006 -10683180.05747  20719003.90347
   3642986.75806  21605454.69206   2841589.95847  21605451.38847
 08 11 15  0 52 29.9930000  0 10  3  6  7 13 16 19 21 23 25 31
 -26045021.29707  17937566.11407 -20276907.96649  17937563.13449
 -19435226.76606  18300619.71606 -15125260.55848  18300616.55648
   -325617.10905  22168069.17705   -246550.77447  22168064.62647
 -17957210.65607  20153185.00507 -13985974.01547  20153180.52447
  -5321570.47707  19321659.90307  -4141060.22048  19321655.26748
 -17934774.85506  19698487.48906 -13961778.74348  19698482.13848
 -10623022.59406  21998855.41106  -8276085.66747  21998851.36847
 -13549478.86707  19845830.23907 -10544396.91048  19845824.59948
 -13842144.93006  20695084.18506 -10781147.35047  20695079.68547
   3690850.21506  21614562.73206   2878886.08947  21614560.02147
 08 11 15  0 52 59.9930000  0 10  3  6  7 13 16 19 21 23 25 31
 -26113814.88307  17924475.00507 -20330513.35148  17924472.36048
 -19472095.34007  18293604.00507 -15153989.29948  18293600.61448
   -472646.66406  22140090.20806   -361119.25047  22140085.92347
 -18005706.23806  20143955.83306 -14023762.76547  20143951.89247
  -5323508.93807  19321290.97407  -4142570.71048  19321286.32148
 -18060260.46106  19674608.07506 -14059559.71948  19674603.48548
 -10648544.63706  21993998.00506  -8295972.94146  21993993.38446
 -13547521.98007  19846202.97407 -10542872.08448  19846196.91948
 -13967667.84806  20671197.64606 -10878957.40747  20671194.11847
   3738927.23406  21623711.38006   2916348.66047  21623708.77847
 08 11 15  0 53 29.9930000  0 10  3  6  7 13 16 19 21 23 25 31
 -26182083.80907  17911483.99707 -20383709.92248  17911480.75948
 -19508499.56307  18286676.28607 -15182356.23948  18286673.19248
   -619615.85506  22112123.39606   -475640.69047  22112119.61447
 -18053584.60206  20134844.87206 -14061070.61047  20134841.65747
  -5325291.75807  19320951.65307  -4143959.94448  19320947.88848
 -18185368.60506  19650801.40306 -14157046.57248  19650796.25148
 -10673591.53106  21989231.89606  -8315490.05947  21989227.65747
 -13545048.27307  19846673.12207 -10540944.53948  19846668.40348
 -14092982.00406  20647351.13006 -10976604.78147  20647347.91947
   3787221.38706  21632901.59106   2953980.40047  21632898.09147
 08 11 15  0 53 59.9930000  0 10  3  6  7 13 16 19 21 23 25 31
 -26249828.71107  17898592.61407 -20436498.15048  17898589.64948
 -19544440.85207  18279836.77807 -15210362.43148  18279833.92748
   -766522.50805  22084167.45805   -590113.33147  22084164.36047
 -18100846.44106  20125851.62206 -14097898.03447  20125847.73947
  -5326919.69107  19320641.52107  -4145228.46448  19320637.62248
 -18310097.91007  19627066.19207 -14254238.21248  19627061.21248
 -10698163.72306  21984555.55206  -8334637.16046  21984551.75546
 -13542060.47707  19847242.15307 -10538616.39848  19847237.46648
 -14218085.40206  20623544.53606 -11074087.96247  20623540.91947
   3835731.04706  21642132.39606   2991780.10447  21642129.81447
 08 11 15  0 54 29.9930000  0 10  3  6  7 13 16 19 21 23 25 31
 -26317047.69907  17885801.38807 -20488876.57948  17885798.21648
 -19579918.66406  18273085.64606 -15238007.47348  18273082.72048
   -913363.17605  22056223.93505   -704534.64046  22056219.91146
 -18147490.13706  20116975.03606 -14134243.76747  20116971.57547
  -5328391.40607  19320361.81007  -4146375.27148  19320357.52148
 -18434445.06306  19603403.38806 -14351132.07848  19603398.25148
 -10722260.74206  21979970.01306  -8353414.05447  21979965.64247
 -13538559.25007  19847908.22407 -10535888.20048  19847902.55248
 -14342974.25006  20599778.87206 -11171403.95347  20599775.27147
   3884456.41806  21651404.86406   3029747.89947  21651401.33747
 08 11 15  0 54 59.9930000  0 10  3  6  7 13 16 19 21 23 25 31
 -26383742.90207  17873109.20807 -20540846.85648  17873106.13848
 -19614936.14507  18266421.88807 -15265293.81248  18266419.11048
  -1060137.64105  22028294.31705   -818904.33746  22028288.54046
 -18193517.72306  20108216.63006 -14170109.43147  20108212.44647
  -5329709.48407  19320111.42707  -4147402.35448  19320106.93948
 -18558410.74206  19579813.32506 -14447728.67648  19579808.05248
 -10745884.44906  21975474.80206  -8371822.14646  21975470.88046
 -13534548.94907  19848671.09907 -10532763.29748  19848665.38848
 -14467648.23806  20576054.07506 -11268552.48447  20576050.84547
   3933394.40606  21660717.26306   3067881.34147  21660713.59147
 08 11 15  0 55 29.9930000  0 10  3  6  7 13 16 19 21 23 25 31
 -26449910.70707  17860518.56007 -20592406.19748  17860514.78248
 -19649490.27707  18259846.59907 -15292219.12748  18259843.70848
  -1206839.85905  22000377.17705   -933217.73447  22000373.35347
 -18238925.55507  20099576.11407 -14205492.17347  20099572.18547
  -5330870.18007  19319890.06007  -4148306.82048  19319886.42348
 -18681989.14806  19556297.74706 -14544023.51548  19556292.56048
 -10769030.47706  21971069.69206  -8389857.98846  21971066.42346
 -13530027.74207  19849531.68507 -10529240.28948  19849525.97848
 -14592101.19506  20552371.63006 -11365528.81347  20552368.31447
   3982547.27306  21670070.63806   3106182.20247  21670067.21647
 08 11 15  0 55 59.9930000  0 10  3  6  7 13 16 19 21 23 25 31
 -26515551.39807  17848027.06007 -20643554.76648  17848023.99748
 -19683582.04706  18253359.31706 -15318784.13048  18253356.11448
  -1353467.43005  21972474.89605  -1047472.97747  21972471.73247
 -18283714.06606  20091053.06006 -14240392.32447  20091049.23247
  -5331873.11307  19319699.36407  -4149088.34448  19319695.31448
 -18805178.69906  19532855.63806 -14640015.35248  19532849.97048
 -10791699.17205  21966756.10705  -8407521.91246  21966752.38446
 -13524997.98006  19850488.80206 -10525320.99348  19850483.45448
 -14716330.50406  20528731.76306 -11462330.85847  20528727.78247
   4031914.04306  21679464.92706   3144649.75547  21679461.98547
 08 11 15  0 56 29.9930000  0 10  3  6  7 13 16 19 21 23 25 31
 -26580663.95707  17835636.68507 -20694291.82949  17835633.93549
 -19717211.91006  18246959.44206 -15344989.21048  18246956.32948
  -1500017.79706  21944587.76306  -1161668.07347  21944584.28647
 -18327883.03506  20082648.00506 -14274809.72447  20082644.29847
  -5332718.19907  19319538.66107  -4149746.87748  19319534.50148
 -18927977.12907  19509488.01307 -14735702.42848  19509482.03648
 -10813890.21905  21962533.46605  -8424813.62346  21962529.58346
 -13519461.26607  19851542.27807 -10521006.71348  19851537.06748
 -14840333.39506  20505134.47406 -11558956.50347  20505131.27147
   4081493.94506  21688899.43506   3183283.38447  21688897.05247
 08 11 15  0 56 59.9930000  0 10  3  6  7 13 16 19 21 23 25 31
 -26645251.52707  17823346.35707 -20744619.79348  17823342.88848
 -19750383.76206  18240647.10706 -15370837.41248  18240644.14948
  -1646491.27306  21916714.72406  -1275803.19947  21916711.15347
 -18371435.30506  20074360.49706 -14308746.55247  20074356.42347
  -5333408.59407  19319407.20007  -4150284.85448  19319403.84548
 -19050385.71106  19486193.66906 -14831085.72148  19486189.05648
 -10835606.64505  21958400.59905  -8441735.50746  21958397.74346
 -13513422.61707  19852691.22407 -10516301.28348  19852686.00148
 -14964110.31306  20481580.43506 -11655406.03247  20481577.18947
   4131282.91406  21698374.09106   3222079.92847  21698371.66547
 08 11 15  0 57 29.9930000  0 10  3  6  7 13 16 19 21 23 25 31
 -26709311.20307  17811156.10707 -20794536.42248  17811152.32148
 -19783095.43406  18234422.39606 -15396327.03148  18234419.22448
  -1792882.46106  21888857.53606  -1389874.23547  21888853.69247
 -18414367.85507  20066190.35707 -14342200.49847  20066186.79047
  -5333941.14507  19319305.70807  -4150699.85548  19319301.89648
 -19172399.73806  19462975.14606 -14926161.57948  19462970.41148
 -10856845.52306  21954359.56706  -8458285.29446  21954355.87646
 -13506881.32407  19853936.24707 -10511204.19548  19853931.05248
 -15087655.68006  20458070.73906 -11751675.14947  20458067.31747
   4181282.84406  21707888.99706   3261040.87547  21707885.91147
 08 11 15  0 57 59.9930000  0 10  3  6  7 13 16 19 21 23 25 31
 -26772846.70707  17799065.94207 -20844044.61348  17799062.48248
 -19815351.64807  18228284.36407 -15421461.74748  18228280.97848
  -1939192.88706  21861015.48206  -1503882.33847  21861012.01347
 -18456684.84006  20058137.66106 -14375174.78647  20058133.91547
  -5334319.55106  19319233.91906  -4150994.73548  19319229.81448
 -19294021.12506  19439831.48206 -15020931.46048  19439826.82548
 -10877610.78105  21950408.20005  -8474466.01646  21950404.03646
 -13499843.14107  19855275.43507 -10505719.91348  19855270.59948
 -15210970.65206  20434604.45806 -11847764.74747  20434601.04447
   4231488.96106  21717442.71606   3300162.43447  21717439.63047
 08 11 15  0 58 29.9930000  0 10  3  6  7 13 16 19 21 23 25 31
 -26835855.64107  17787075.67707 -20893142.48649  17787072.29449
 -19847150.58206  18222233.06006 -15446240.15148  18222229.90748
  -2085417.14105  21833189.50505  -1617823.24046  21833186.06446
 -18498384.28106  20050202.86406 -14407667.85647  20050197.93147
  -5334541.30906  19319191.84106  -4151167.55248  19319188.07948
 -19415245.43406  19416763.59906 -15115391.94848  19416757.96648
 -10897899.47706  21946547.43506  -8490275.38146  21946543.57146
 -13492307.81307  19856709.80207 -10499848.24048  19856703.85748
 -15334050.16806  20411183.52806 -11943670.85847  20411180.75147
   4281902.92206  21727036.38806   3339445.97746  21727033.08746
 08 11 15  0 58 59.9930000  0 10  3  6  7 13 16 19 21 23 25 31
 -26898337.17207  17775185.36407 -20941829.38548  17775181.86048
 -19878492.66006  18216268.95006 -15470662.54148  18216265.93948
  -2231552.21506  21805380.76306  -1731694.70247  21805377.50947
 -18539465.10207  20042384.70807 -14439678.90547  20042381.76347
  -5334605.84006  19319179.32506  -4151217.85948  19319175.33748
 -19536070.62906  19393771.02806 -15209541.42948  19393765.34948
 -10917711.76206  21942776.72406  -8505713.52946  21942772.87246
 -13484276.63707  19858238.09107 -10493590.20948  19858231.63448
 -15456890.93006  20387807.31706 -12039390.91047  20387804.06747
   4332523.74605  21736669.45805   3378890.73946  21736665.98946
 08 11 15  0 59 29.9930000  0 10  3  6  7 13 16 19 21 23 25 31
 -26960297.98007  17763394.78607 -20990110.53648  17763391.43948
 -19909385.68006  18210390.48206 -15494735.02348  18210387.34548
  -2377602.62106  21777588.77806  -1845500.22447  21777585.54847
 -18579934.59406  20034683.93506 -14471213.60047  20034681.09547
  -5334519.87107  19319195.21607  -4151150.88748  19319192.14248
 -19656501.43406  19370853.42706 -15303383.61148  19370848.81748
 -10937054.03105  21939096.39605  -8520785.42446  21939092.57946
 -13475758.84407  19859859.09907 -10486952.96448  19859853.36048
 -15579497.30906  20364476.17706 -12134928.35047  20364473.08347
   4383343.85905  21746339.97405   3418490.76046  21746336.29046
 08 11 15  0 59 59.9930000  0 10  3  6  7 13 16 19 21 23 25 31
 -27021733.90606  17751704.06706 -21037982.68148  17751701.17348
 -19939826.02006  18204597.55206 -15518454.77148  18204594.50148
  -2523561.52706  21749812.98206  -1959234.38047  21749810.77447
 -18619788.81306  20027100.07506 -14502268.83347  20027095.82547
  -5334278.85906  19319241.63006  -4150963.09348  19319237.49348
 -19776531.86306  19348012.88806 -15396913.80448  19348007.60348
 -10955922.31305  21935505.28605  -8535487.93246  21935502.27846
 -13466752.18807  19861572.27107 -10479934.79747  19861567.11447
 -15701862.41006  20341191.21606 -12230277.76547  20341187.43547
   4434366.28504  21756048.78604   3458248.40646  21756045.39946
 08 11 15  1  0 29.9930000  0 10  3  6  7 13 16 19 21 23 25 31
 -27082645.98407  17740112.73207 -21085446.64148  17740109.49348
 -19969815.69107  18198890.63807 -15541823.35548  18198887.44248
  -2669427.36706  21722055.54406  -2072896.06947  21722052.49747
 -18659028.68407  20019632.92707 -14532845.35247  20019629.24347
  -5333883.75407  19319316.95007  -4150655.25048  19319312.75948
 -19896161.14807  19325248.31707 -15490131.41648  19325242.65748
 -10974317.12105  21932005.13005  -8549821.53847  21932001.82947
 -13457259.82807  19863378.79407 -10472538.19148  19863373.49748
 -15823984.47706  20317952.60706 -12325437.83348  20317949.02148
   4485589.48003  21765797.59903   3498162.48846  21765794.01346
 08 11 15  1  0 59.9930000  0 10  3  6  7 13 16 19 21 23 25 31
 -27143033.02007  17728621.67707 -21132501.47448  17728618.42748
 -19999353.98007  18193270.02107 -15564840.20648  18193266.59148
  -2815196.00406  21694317.14606  -2186481.99347  21694313.65747
 -18697652.90207  20012283.18507 -14562942.16847  20012279.84947
  -5333332.96907  19319421.52107  -4150226.07948  19319417.84148
 -20015386.19106  19302560.10706 -15583034.04548  19302555.11848
 -10992237.85906  21928595.55206  -8563785.75647  21928591.56047
 -13447282.35506  19865277.35706 -10464763.57348  19865272.15348
 -15945859.41806  20294760.04406 -12420405.32547  20294756.69647
   4537013.32004  21775582.88004   3538232.81445  21775579.74745
 08 11 15  1  1 29.9930000  0 10  3  6  7 13 16 19 21 23 25 31
 -27202897.56607  17717229.44207 -21179149.16748  17717226.47048
 -20028444.68407  18187734.19207 -15587508.28348  18187730.59148
  -2960867.73406  21666597.25506  -2299992.46447  21666592.88847
 -18735664.76206  20005049.75506 -14592561.81847  20005046.62647
  -5332629.05906  19319555.13806  -4149677.58748  19319551.77148
 -20134207.94106  19279949.10706 -15675622.40748  19279943.98548
 -11009687.01605  21925274.59905  -8577382.48746  21925270.80646
 -13436824.84807  19867267.66907 -10456614.89848  19867262.68548
 -16067487.33206  20271614.77106 -12515180.30847  20271612.00547
   4588634.10503  21785406.96603   3578456.87945  21785403.34545
 08 11 15  1  1 59.9930000  0 10  3  6  7 13 16 19 21 23 25 31
 -27262240.74207  17705937.14607 -21225390.60948  17705933.69648
 -20057089.40607  18182283.12207 -15609828.83748  18182280.17348
  -3106440.10506  21638895.77806  -2413425.47347  21638892.02847
 -18773065.45707  19997932.52807 -14621705.23347  19997928.73247
  -5331772.78506  19319718.40306  -4149010.37648  19319714.43148
 -20252625.37906  19257415.48906 -15767895.72948  19257410.34148
 -11026665.91806  21922043.78606  -8590612.86846  21922039.67746
 -13425890.23807  19869348.89607 -10448094.45648  19869343.24748
 -16188866.33606  20248517.92706 -12609761.35048  20248514.50148
   4640449.83601  21795266.84101         0.00000         0.00000
 08 11 15  1  2 29.9930000  0 10  3  6  7 13 16 19 21 23 25 31
 -27321061.46907  17694743.81007 -21271224.94348  17694740.69248
 -20085288.38307  18176917.18507 -15631802.08148  18176913.86048
  -3251910.11306  21611213.76306  -2526778.70847  21611209.98247
 -18809854.40607  19990931.99707 -14650371.94747  19990927.69247
  -5330763.20306  19319910.30206  -4148223.69148  19319906.54048
 -20370636.12506  19234957.84106 -15859852.12648  19234953.48548
 -11043173.33606  21918902.50506  -8603475.78146  21918898.05246
 -13414479.95307  19871520.04407 -10439203.34348  19871514.15748
 -16309992.99206  20225467.73906 -12704145.74048  20225464.16948
         0.00000  21805160.06001         0.00000         0.00000
 08 11 15  1  2 59.9930000  0 10  3  6  7 13 16 19 21 23 25 31
 -27379358.99207  17683650.29407 -21316651.58748  17683646.75948
 -20113041.60507  18171635.88807 -15653427.96548  18171632.23548
  -3397274.68805  21583551.55205  -2640049.79447  21583547.44647
 -18846030.84807  19984047.59107 -14678561.38847  19984044.74747
  -5329599.25406  19320132.29406  -4147316.74948  19320128.09548
 -20488237.44506  19212579.90306 -15951489.51748  19212574.61848
 -11059208.72705  21915851.27805  -8615970.90547  21915846.48947
 -13402595.09407  19873782.11407 -10429942.45447  19873776.17347
 -16430863.84006  20202466.01306 -12798330.80447  20202462.56747
   4744665.82801  21815098.08301         0.00000         0.00000
 08 11 15  1  3 29.9930000  0  9  3  6  7 13 16 19 21 23 25
 -27437137.77007  17672655.73207 -21361674.01548  17672651.85348
 -20140354.41007  18166438.18507 -15674710.66648  18166435.18148
  -3542535.33205  21555909.57505  -2753239.94647  21555905.58747
 -18881599.85906  19977279.22406 -14706277.52847  19977276.21647
  -5328285.29306  19320382.10706  -4146292.87448  19320378.22048
 -20605432.15606  19190278.13006 -16042810.06948  19190273.31748
 -11074776.26206  21912888.98206  -8628101.44147  21912885.19247
 -13390242.87107  19876131.81707 -10420317.34348  19876126.20048
 -16551480.48806  20179514.16906 -12892317.79748  20179510.07148
 08 11 15  1  3 59.9930000  0  9  3  6  7 13 16 19 21 23 25
 -27494393.06607  17661759.80207 -21406288.52748  17661756.72848
 -20167222.89107  18161324.91107 -15695647.13448  18161321.82548
  -3687684.32405  21528288.26305  -2866343.02547  21528284.74747
 -18916556.79707  19970627.41907 -14733516.68747  19970623.62647
  -5326816.16406  19320661.64606  -4145148.11148  19320657.85348
 -20722213.68407  19168055.67707 -16133808.62748  19168050.41148
 -11089871.69506  21910016.68506  -8639864.13846  21910011.79846
 -13377420.21107  19878571.96607 -10410325.69548  19878566.95448
 -16671835.50806  20156611.62206 -12986100.94148  20156607.51748
 08 11 15  1  4 29.9930000  0  9  3  6  7 13 16 19 21 23 25
 -27551129.31307  17650963.46607 -21450498.59848  17650960.57148
 -20193651.83207  18156296.06707 -15716241.13248  18156292.71248
  -3832723.29705  21500688.60705  -2979360.37747  21500685.07147
 -18950906.35507  19964091.18507 -14760282.61747  19964086.48947
  -5325195.63306  19320970.20006  -4143885.36848  19320966.57548
 -20838584.00807  19145910.99707 -16224486.77448  19145905.89248
 -11104499.77306  21907233.04406  -8651262.66646  21907228.03246
 -13364133.48007  19881100.38807 -10399972.42847  19881095.36847
 -16791930.16006  20133758.15306 -13079681.16547  20133754.82947
 08 11 15  1  4 59.9930000  0 10  3  6  7 13 16 19 21 23 25 31
 -27607344.92607  17640265.94207 -21494302.97348  17640262.73948
 -20219640.83607  18151350.67707 -15736492.31548  18151347.40748
  -3977648.04705  21473110.46605  -3092288.74547  21473107.62647
 -18984647.28106  19957669.73906 -14786574.25347  19957666.29047
  -5323422.17606  19321307.85706  -4142503.48348  19321303.40348
 -20954540.34806  19123845.05206 -16314842.34948  19123839.36048
 -11118658.71105  21904538.54405  -8662295.61846  21904534.41146
 -13350383.61707  19883717.18507 -10389258.28547  19883711.20847
 -16911760.36706  20110955.19206 -13173055.36147  20110951.08747
     42837.73411  21855212.01301         0.00000         0.00000
 08 11 15  1  5 29.9930000  0 10  3  6  7 13 16 19 21 23 25 31
 -27663041.41807  17629666.93507 -21537702.83648  17629663.63048
 -20245192.79307  18146488.35707 -15756402.91848  18146485.38048
  -4122457.37904  21445554.26304  -3205127.15447  21445550.41547
 -19017781.62906  19951365.37206 -14812393.26047  19951361.84547
  -5321497.14807  19321674.09907  -4141003.46648  19321669.93948
 -21070082.72706  19101858.16906 -16404875.35148  19101852.56748
 -11132350.51206  21901932.63006  -8672964.57046  21901928.75546
 -13336174.37107  19886421.14607 -10378186.17747  19886414.54847
 -17031325.06606  20088202.63806 -13266222.64447  20088199.32147
         0.00000  21865311.74701         0.00000         0.00000
 08 11 15  1  5 59.9930000  0  9  3  6  7 13 16 19 21 23 25
 -27718219.94907  17619167.09907 -21580699.07448  17619163.69248
 -20270308.59007  18141708.93507 -15775973.67048  18141705.82148
  -4267149.21504  21418019.43504  -3317873.99847  21418015.85747
 -19050310.62107  19945173.83307 -14837740.53247  19945171.63047
  -5319421.07807  19322068.98907  -4139385.76548  19322065.48948
 -21185209.80107  19079949.98907 -16494584.74848  19079945.19648
 -11145575.37906  21899416.27106  -8683269.65946  21899412.06046
 -13321508.36707  19889211.98907 -10366758.11547  19889205.81747
 -17150621.91006  20065501.30206 -13359181.22547  20065497.57947
 08 11 15  1  6 29.9930000  0  9  3  6  7 13 16 19 21 23 25
 -27772880.56607  17608765.69207 -21623291.77148  17608762.00948
 -20294989.49607  18137011.87207 -15795205.54548  18137008.68548
  -4411720.63305  21390508.96605  -3430527.04447  21390504.69647
 -19082234.73007  19939099.42707 -14862616.46947  19939096.06447
  -5317193.19907  19322492.77807  -4137649.75848  19322489.24748
 -21299920.05106  19058121.22406 -16583969.33048  19058116.39948
 -11158333.43006  21896988.05206  -8693211.04446  21896985.09146
 -13306388.16407  19892089.49707 -10354976.15048  19892083.85348
 -17269648.46906  20042851.45006 -13451929.17248  20042847.59548
 08 11 15  1  6 59.9930000  0  9  3  6  7 13 16 19 21 23 25
 -27827024.78907  17598462.27107 -21665482.07248  17598458.86048
 -20319237.80907  18132397.82507 -15814100.34348  18132394.52848
  -4556170.20305  21363021.48905  -3543085.16947  21363017.41547
 -19113555.50006  19933139.95006 -14887022.28047  19933135.59547
  -5314814.91407  19322946.11407  -4135796.58748  19322942.05248
 -21414212.84407  19036372.71607 -16673028.62848  19036366.79048
 -11170627.38706  21894648.58306  -8702790.79246  21894645.25146
 -13290817.37507  19895052.56007 -10342843.11448  19895046.58348
 -17388402.80106  20020253.61406 -13544465.01348  20020249.11848
 08 11 15  1  7 29.9930000  0  9  3  6  7 13 16 19 21 23 25
 -27880652.87107  17588257.16907 -21707270.17848  17588253.63848
 -20343054.73007  18127866.02807 -15832658.97948  18127862.79848
  -4700495.55905  21335556.54405  -3655546.46547  21335552.87247
 -19144273.65606  19927294.56006 -14910958.51947  19927290.88047
  -5312286.39807  19323426.52807  -4133826.32848  19323423.05648
 -21528086.92207  19014702.38007 -16761761.67448  19014697.66948
 -11182457.08606  21892398.31006  -8712008.72846  21892394.04446
 -13274798.56607  19898100.70007 -10330360.95347  19898095.08747
 -17506882.94106  19997706.72406 -13636787.18347  19997703.09147
 08 11 15  1  7 59.9930000  0  9  3  6  7 13 16 19 21 23 25
 -27933767.13307  17578149.87207 -21748657.91248  17578146.23548
 -20366443.14107  18123415.25507 -15850883.72848  18123411.83748
  -4844695.86304  21308116.48904  -3767910.28147  21308113.01747
 -19174391.93806  19921562.95006 -14934427.31447  19921559.91147
  -5309609.07007  19323936.37207  -4131740.13248  19323932.30648
 -21641542.80507  18993112.91107 -16850168.84048  18993107.83348
 -11193824.71506  21890234.57506  -8720866.60046  21890230.33346
 -13258335.53106  19901232.61406 -10317532.62947  19901227.81747
 -17625087.79706  19975213.70006 -13728894.87847  19975209.89247
 08 11 15  1  8 29.9930000  0  9  3  6  7 13 16 19 21 23 25
 -27986365.09407  17568140.59107 -21789643.32948  17568138.01348
 -20389401.20307  18119046.17707 -15868773.11448  18119042.94248
  -4988765.55105  21280701.09905  -3880172.36547  21280697.09147
 -19203908.25406  19915946.17706 -14957427.06547  19915941.92747
  -5306779.74207  19324474.72407  -4129535.47348  19324470.90348
 -21754575.92607  18971603.63007 -16938246.58248  18971598.36048
 -11204727.46106  21888160.23906  -8729362.31446  21888156.22846
 -13241428.40607  19904450.78607 -10304358.25847  19904445.44647
 -17743012.00006  19952773.25506 -13820783.86448  19952769.20048
 08 11 15  1  8 59.9920000  0  9  3  6  7 13 16 19 21 23 25
 -28038446.08207  17558230.10207 -21830225.91648  17558227.03148
 -20411930.16807  18114759.11707 -15886328.15048  18114755.91448
  -5132698.08205  21253311.50005  -3992327.57647  21253307.59847
 -19232823.10506  19910443.78906 -14979958.13247  19910439.84847
  -5303799.80907  19325041.80507  -4127213.47148  19325038.10948
 -21867182.23006  18950175.02306 -17025991.74548  18950169.92648
 -11215167.30506  21886173.89106  -8737497.19946  21886170.06346
 -13224081.06607  19907752.10207 -10290840.88447  19907746.59447
 -17860649.82406  19930387.43806 -13912449.69448  19930383.98848
 08 11 15  1  9 29.9920000  0  9  3  6  7 13 16 19 21 23 25
 -28090013.25407  17548417.10207 -21870408.12048  17548414.02048
 -20434032.48807  18110553.45307 -15903550.74848  18110549.78948
  -5276500.19505  21225946.44505  -4104381.18247  21225943.14847
 -19261139.02306  19905055.37506 -15002022.51447  19905051.62547
  -5300668.11307  19325637.63307  -4124773.20748  19325633.79748
 -21979367.24607  18928826.82007 -17113408.62248  18928821.99648
 -11225144.25406  21884275.39106  -8745271.44046  21884271.59846
 -13206294.39107  19911136.28907 -10276981.12147  19911130.62547
 -17978006.28906  19908055.20306 -14003896.27448  19908051.26648
 08 11 15  1  9 59.9920000  0  9  3  6  7 13 16 19 21 23 25
 -28141064.37507  17538702.30507 -21910188.21448  17538699.21548
 -20455707.12107  18106429.07807 -15920440.06548  18106425.37948
  -5420162.91406  21198608.52306  -4216326.12647  21198605.12547
 -19288854.40606  19899781.10906 -15023618.92047  19899777.27347
  -5297383.05107  19326263.07007  -4122213.44548  19326259.03548
 -22091124.21907  18907560.63307 -17200491.98448  18907555.01648
 -11234657.44106  21882464.46106  -8752684.39546  21882460.94146
 -13188070.04707  19914604.80507 -10262780.34947  19914598.65647
 -18095073.39107  19885778.29707 -14095117.41448  19885774.08648
 08 11 15  1 10 29.9920000  0  9  3  6  7 13 16 19 21 23 25
 -28191598.98406  17529086.21906 -21949565.82048  17529082.81648
 -20476954.11306  18102385.36706 -15936996.14648  18102382.50848
  -5563682.52706  21171297.37506  -4328159.55147  21171294.14547
 -19315969.39806  19894621.55506 -15044747.49647  19894618.07047
  -5293944.01607  19326917.42207  -4119533.70348  19326913.29748
 -22202450.87106  18886375.61706 -17287240.00048  18886370.02048
 -11243705.91006  21880742.98406  -8759735.10846  21880738.51646
 -13169409.48807  19918155.21907 -10248239.65547  19918150.14147
 -18211847.56307  19863557.03907 -14186110.26948  19863553.00048
 08 11 15  1 10 59.9920000  0  9  3  6  7 13 16 19 21 23 25
 -28241614.85207  17519568.45307 -21988539.23148  17519565.40648
 -20497772.18407  18098424.13307 -15953218.02848  18098421.12148
  -5707054.02706  21144014.68006  -4439877.56647  21144011.24647
 -19342482.04307  19889576.21107 -15065406.73447  19889572.29747
  -5290348.09807  19327601.78107  -4116731.70348  19327597.17248
 -22313343.20307  18865272.77307 -17373649.59448  18865267.98848
 -11252288.25006  21879109.42206  -8766422.58746  21879104.90246
 -13150312.79707  19921789.28107 -10233359.16447  19921784.23847
 -18328323.64807  19841392.36707 -14276870.84948  19841388.55148
 08 11 15  1 11 29.9920000  0  9  3  6  7 13 16 19 21 23 25
 -28291117.27307  17510148.19507 -22027112.56048  17510144.77048
 -20518167.18807  18094543.05507 -15969110.24448  18094540.00048
  -5850278.97706  21116760.10206  -4551481.40947  21116756.25447
 -19368397.59806  19884644.46906 -15085600.68947  19884641.82447
  -5286599.69107  19328315.14807  -4113810.87448  19328310.87948
 -22423804.35506  18844253.12506 -17459723.20148  18844247.84448
 -11260408.59405  21877563.26605  -8772750.24946  21877559.99646
 -13130786.96507  19925504.88307 -10218144.22947  19925499.45747
 -18444503.77707  19819283.63307 -14367400.81648  19819279.72748
 08 11 15  1 11 59.9920000  0  9  3  6  7 13 16 19 21 23 25
 -28340108.44107  17500825.48407 -22065287.50148  17500822.53548
 -20538142.70707  18090741.76607 -15984675.59348  18090738.64148
  -5993357.32806  21089533.66406  -4662971.05447  21089529.67247
 -19393719.45706  19879826.50806 -15105331.99747  19879822.26647
  -5282701.44507  19329056.89807  -4110773.30048  19329053.03148
 -22533835.64507  18823315.25807 -17545461.86448  18823309.73848
 -11268071.49605  21876105.12505  -8778721.32746  21876102.52746
 -13110837.39107  19929301.29707 -10202599.14347  19929296.27347
 -18560387.57406  19797232.00806 -14457699.88748  19797228.13748
 08 11 15  1 12 29.9920000  0  9  3  6  7 13 16 19 21 23 25
 -28388589.30507  17491599.97707 -22103064.79648  17491596.96148
 -20557699.82807  18087020.02307 -15999914.91048  18087016.82848
  -6136286.36706  21062335.04706  -4774344.31647  21062331.30547
 -19418448.69906  19875120.22706 -15124601.54847  19875116.50847
  -5278652.52707  19329827.70307  -4107618.32648  19329823.28548
 -22643435.56607  18802458.94507 -17630864.40148  18802453.55548
 -11275276.52306  21874735.00006  -8784335.62946  21874730.84046
 -13090466.32007  19933178.23407 -10186725.61047  19933172.62947
 -18675972.50406  19775236.93006 -14547766.06448  19775233.21948
 08 11 15  1 12 59.9920000  0  9  3  6  7 13 16 19 21 23 25
 -28436561.32007  17482471.18807 -22140445.58048  17482468.18448
 -20576840.74607  18083377.75007 -16014829.91148  18083374.57048
  -6279064.30106  21035165.39106  -4885599.82847  21035161.12947
 -19442587.27706  19870526.68006 -15143410.87747  19870523.85247
  -5274454.33207  19330626.72707  -4104347.02148  19330621.80948
 -22752603.80107  18781684.87507 -17715930.55348  18781679.33248
 -11282025.33605  21873450.75005  -8789594.45846  21873446.40646
 -13069677.55107  19937133.96107 -10170526.59047  19937128.69147
 -18791257.05506  19753298.93006 -14637598.15948  19753294.84048
 08 11 15  1 13 29.9920000  0  9  3  6  7 13 16 19 21 23 25
 -28484027.44107  17473438.35207 -22177432.17948  17473435.09448
 -20595569.35207  18079813.92207 -16029423.63648  18079810.60648
  -6421691.11306  21008024.24206  -4996737.61547  21008020.09847
 -19466138.75406  19866045.17206 -15161762.69247  19866042.43047
  -5270109.01607  19331453.52307  -4100961.09448  19331449.77748
 -22861341.56307  18760992.88307 -17800661.25248  18760987.54748
 -11288320.88705  21872252.43805  -8794500.09646  21872248.50046
 -13048475.98006  19941168.33606 -10154005.89647  19941162.68447
 -18906241.14806  19731418.30506 -14727196.16248  19731414.36348
 08 11 15  1 13 59.9920000  0  9  3  6  7 13 16 19 21 23 25
 -28530985.46507  17464503.01607 -22214022.85748  17464499.87548
 -20613883.94507  18076329.39107 -16043694.74648  18076325.59848
  -6564161.16406  20980912.96906  -5107753.21147  20980909.30947
 -19489101.48806  19861676.01606 -15179655.75247  19861672.09447
  -5265613.56307  19332308.12507  -4097458.14148  19332304.33648
 -22969644.58207  18740383.16407 -17885053.20948  18740378.52348
 -11294161.33606  21871141.69506  -8799051.19246  21871137.94146
 -13026861.62107  19945281.70307 -10137163.54847  19945276.53947
 -19020919.38706  19709595.77306 -14816555.82848  19709592.18048
 08 11 15  1 14 29.9920000  0  9  3  6  7 13 16 19 21 23 25
 -28577439.70707  17455663.02307 -22250220.97048  17455659.69148
 -20631789.87107  18072921.46907 -16057647.40948  18072918.41848
  -6706476.03106  20953831.73406  -5218647.90747  20953827.75047
 -19511480.46907  19857417.07007 -15197093.91147  19857412.84047
  -5260971.90607  19333191.78907  -4093841.29948  19333187.57848
 -23077515.66007  18719855.91407 -17969108.59148  18719851.12548
 -11299551.54306  21870115.39806  -8803251.33447  21870111.78147
 -13004841.34807  19949472.05507 -10120004.91147  19949466.13347
 -19135293.11706  19687830.81306 -14905678.20848  19687827.24248
 08 11 15  1 14 59.9920000  0  9  3  6  7 13 16 19 21 23 25
 -28623391.09807  17446918.45307 -22286027.25448  17446915.56348
 -20649288.12507  18069591.86707 -16071282.41348  18069588.91048
  -6848632.53506  20926779.65606  -5329419.17447  20926775.89147
 -19533276.55906  19853268.34406 -15214077.90647  19853265.77047
  -5256183.49206  19334103.25806  -4090110.05848  19334099.19548
 -23184953.43807  18699411.45307 -18052826.33748  18699405.77748
 -11304491.40606  21869175.98406  -8807100.62146  21869171.34446
 -12982417.14507  19953739.14107 -10102531.53148  19953733.41448
 -19249359.53506  19666125.14106 -14994561.11748  19666120.95348
 08 11 15  1 15 29.9920000  0  9  3  6  7 13 16 19 21 23 25
 -28668839.90607  17438269.85207 -22321441.90748  17438266.77048
 -20666379.71907  18066338.90607 -16084600.53448  18066335.80548
  -6990627.66406  20899758.83606  -5440064.70447  20899754.70747
 -19554490.68406  19849232.65606 -15230608.41247  19849229.23147
  -5251248.07407  19335042.06307  -4086264.31848  19335038.57048
 -23291956.46907  18679048.94507 -18136205.31548  18679043.89848
 -11308981.60906  21868321.14106  -8810599.55447  21868317.60247
 -12959591.49207  19958082.71907 -10084745.35047  19958077.75447
 -19363115.94107  19644477.77307 -15083202.49948  19644473.70748
 08 11 15  1 15 59.9920000  0 10  3  6  7 13 16 19 21 23 25 27
 -28713786.75407  17429716.61707 -22356465.41948  17429713.67248
 -20683066.21107  18063164.04707 -16097603.00348  18063160.68448
  -7132458.78506  20872769.46906  -5550582.44147  20872765.66047
 -19575124.16806  19845306.05506 -15246686.46047  19845302.79747
  -5246165.52707  19336009.66407  -4082303.91448  19336005.66048
 -23398523.69906  18658770.64806 -18219244.71348  18658765.22748
 -11313023.41006  21867553.18806  -8813749.02347  21867548.85947
 -12936367.21507  19962502.24207 -10066648.54647  19962497.50447
 -19476559.85507  19622889.88307 -15171600.37548  19622886.15248
   -252857.50415  22358549.58605   -185872.42457  22358547.53547
 08 11 15  1 16 29.9920000  0 10  3  6  7 13 16 19 21 23 25 27
 -28758237.87507  17421258.12507 -22391102.66048  17421254.72348
 -20699354.71507  18060063.82007 -16110295.32048  18060061.19548
  -7274129.22306  20845810.63306  -5660974.96947  20845806.66447
 -19595183.66406  19841489.44506 -15262317.26447  19841486.26647
  -5240941.50407  19337003.54707  -4078233.25348  19336999.75048
 -23504659.43807  18638573.32807 -18301947.86348  18638567.54348
 -11316623.12906  21866867.45306  -8816553.99647  21866863.93047
 -12912753.23006  19966995.40606 -10048248.05847  19966991.12547
 -19589694.64106  19601361.21106 -15259757.31148  19601357.14848
   -392433.24606  22331989.84406   -294632.74246  22331986.42646
 08 11 15  1 16 59.9920000  0 10  3  6  7 13 16 19 21 23 25 27
 -28802195.43807  17412893.41407 -22425355.31048  17412890.80548
 -20715247.47307  18057039.91407 -16122679.30648  18057036.49248
  -7415637.37106  20818881.87506  -5771241.07847  20818877.83647
 -19614671.87506  19837780.92206 -15277502.90947  19837776.26647
  -5235577.34407  19338024.38307  -4074053.41048  19338020.74248
 -23610363.84406  18618458.57806 -18384314.94448  18618452.98448
 -11319782.46106  21866266.00006  -8819015.83647  21866262.32447
 -12888753.15607  19971562.53907 -10029546.71847  19971558.18447
 -19702518.69507  19579892.03907 -15347672.17848  19579887.36348
   -531964.33605  22305437.71905   -403358.23746  22305433.86346
 08 11 15  1 17 29.9920000  0 10  3  6  7 13 16 19 21 23 25 27
 -28845660.43807  17404622.18807 -22459224.13748  17404619.19548
 -20730746.52707  18054090.71907 -16134756.49248  18054087.64848
  -7556980.82806  20791985.41406  -5881378.81547  20791981.66047
 -19633590.28906  19834180.68806 -15292244.55447  19834176.63747
  -5230072.93807  19339071.94507  -4069764.28748  19339068.59048
 -23715636.24206  18598425.79706 -18466345.37348  18598420.60648
 -11322503.00806  21865747.84406  -8821135.80147  21865745.05147
 -12864369.76206  19976202.10206 -10010546.70347  19976197.01647
 -19815030.00407  19558481.31307 -15435343.34248  19558477.90248
   -671449.22305  22278894.57005   -512047.75246  22278890.26246
 08 11 15  1 17 59.9920000  0 10  3  6  7 13 16 19 21 23 25 27
 -28888629.29707  17396445.64107 -22492706.37248  17396442.60948
 -20745848.95707  18051216.89107 -16146524.63348  18051213.53948
  -7698153.09406  20765121.00806  -5991383.13647  20765117.50847
 -19651936.16007  19830689.93007 -15306540.05247  19830686.11347
  -5224424.02307  19340147.21107  -4065362.54948  19340143.02748
 -23820471.50806  18578476.14806 -18548035.18548  18578471.47348
 -11324781.01606  21865315.48406  -8822910.85547  21865311.54347
 -12839602.35507  19980916.40607  -9991247.43847  19980911.32047
 -19927222.02007  19537131.71907 -15522765.67848  19537128.32048
   -810881.54705  22252361.73405   -620696.34946  22252357.59446
 08 11 15  1 18 29.9920000  0 10  3  6  7 13 16 19 21 23 25 27
 -28931102.05907  17388363.06307 -22525802.02548  17388360.62948
 -20760554.75407  18048418.17207 -16157983.67948  18048415.00448
  -7839149.73806  20738290.43006  -6101250.64147  20738286.37947
 -19669709.70706  19827307.24206 -15320389.56747  19827303.41047
  -5218629.39807  19341249.27307  -4060847.27048  19341245.75448
 -23924867.03906  18558610.70306 -18629382.33948  18558605.48148
 -11326616.33206  21864965.38306  -8824341.00047  21864961.94947
 -12814451.93406  19985701.96906  -9971649.74647  19985696.13747
 -20039090.85907  19515843.88307 -15609936.19848  19515840.70748
   -950257.89506  22225839.61706   -729301.29246  22225835.93446
 08 11 15  1 18 59.9920000  0 10  3  6  7 13 16 19 21 23 25 27
 -28973078.88707  17380375.10907 -22558511.23448  17380372.44548
 -20774865.38707  18045694.80507 -16169134.81948  18045691.76648
  -7979968.00806  20711493.49206  -6210979.17847  20711489.66447
 -19686911.98406  19824033.75006 -15333793.97747  19824030.18447
  -5212688.71107  19342380.21107  -4056218.17748  19342376.49648
 -24028821.77307  18538828.15607 -18710386.02848  18538822.84848
 -11328009.60206  21864700.43006  -8825426.69247  21864697.28947
 -12788921.53107  19990560.21907  -9951755.95347  19990554.73147
 -20150633.89107  19494617.74207 -15696852.85548  19494614.86348
  -1089575.80506  22199328.52306   -837860.70347  22199325.06347
 08 11 15  1 19 29.9920000  0 10  3  6  7 13 16 19 21 23 25 27
 -29014561.10907  17372481.48407 -22590835.04048  17372478.34048
 -20788782.47307  18043046.39107 -16179979.30048  18043043.42648
  -8120605.85206  20684730.60906  -6320567.07947  20684727.73847
 -19703544.86306  19820868.68806 -15346754.69147  19820865.81647
  -5206602.03507  19343538.60207  -4051475.33948  19343534.41848
 -24132334.72706  18519130.45306 -18791045.46048  18519125.48848
 -11328962.35506  21864519.37506  -8826169.13547  21864515.23847
 -12763014.25806  19995490.30506  -9931568.49047  19995484.48447
 -20261849.10907  19473454.41407 -15783514.05248  19473451.14148
  -1228833.55505  22172828.59405   -946373.20546  22172825.02046
 08 11 15  1 19 59.9920000  0 10  3  6  7 13 16 19 21 23 25 27
 -29055549.08607  17364681.73407 -22622773.71648  17364678.71548
 -20802307.18407  18040472.76607 -16190518.03648  18040469.68048
  -8261060.11306  20658003.69506  -6430011.93347  20657999.88347
 -19719609.15206  19817811.50806 -15359272.34647  19817808.46147
  -5200369.03507  19344723.84407  -4046618.48448  19344720.71548
 -24235404.81307  18499517.26607 -18871359.81548  18499511.85248
 -11329474.89806  21864422.13306  -8826568.53247  21864417.90247
 -12736732.45306  20000491.21906  -9911089.20247  20000487.32447
 -20372733.58207  19452353.82807 -15869917.54548  19452350.28148
  -1368028.49605  22146340.00805  -1054836.73146  22146337.83246
 08 11 15  1 20 29.9920000  0 10  3  6  7 13 16 19 21 23 25 27
 -29096043.08607  17356975.93807 -22654327.47748  17356972.63348
 -20815440.41007  18037973.82807 -16200751.70948  18037970.91448
  -8401327.42206  20631311.81306  -6539311.14747  20631307.93447
 -19735106.27706  19814862.47706 -15371348.02947  19814858.87147
  -5193989.17207  19345938.68807  -4041647.20348  19345934.44548
 -24338030.42606  18479987.94506 -18951327.79748  18479982.37548
 -11329547.49206  21864408.14806  -8826625.12847  21864403.46547
 -12710078.69907  20005563.30507  -9890320.08347  20005559.40247
 -20483284.38707  19431316.71907 -15956061.02248  19431312.64148
  -1507158.02005  22119864.49205  -1163249.36546  22119861.64546
 08 11 15  1 20 59.9920000  0 10  3  6  7 13 16 19 21 23 25 27
 -29136043.02007  17349364.48407 -22685496.25148  17349360.93848
 -20828182.65207  18035549.25007 -16210680.74348  18035545.99248
  -8541404.12106  20604655.53906  -6648461.82147  20604652.04747
 -19750036.54706  19812021.63306 -15382982.03047  19812018.25447
  -5187461.39507  19347180.38307  -4036560.66948  19347176.70348
 -24440209.85907  18460543.95307 -19030948.14148  18460538.79748
 -11329180.60506  21864477.34406  -8826339.27146  21864473.66446
 -12683054.78507  20010706.05507  -9869262.51747  20010700.57447
 -20593498.13707  19410344.04707 -16041941.87448  19410340.07848
  -1646218.93805  22093401.96905  -1271608.51646  22093399.07046
 08 11 15  1 21 29.9920000  0 10  3  6  7 13 16 19 21 23 25 27
 -29175549.07007  17341846.28107 -22716280.17248  17341843.58648
 -20840534.30506  18033198.44506 -16220305.40248  18033194.99248
  -8681286.62506  20578037.01606  -6757461.15447  20578033.85247
 -19764400.44906  19809288.38306 -15394174.69947  19809285.00047
  -5180784.62907  19348451.58607  -4031358.02848  19348447.72348
 -24541940.97706  18441185.50006 -19110219.12948  18441180.09848
 -11328373.89506  21864631.25006  -8825710.65446  21864627.60946
 -12655662.60906  20015918.64806  -9847918.01347  20015913.38347
 -20703371.39507  19389435.46907 -16127557.39548  19389432.17648
  -1785208.00804  22066952.60204  -1379911.69346  22066950.09446
 08 11 15  1 21 59.9920000  0 10  3  6  7 13 16 19 21 23 25 27
 -29214564.94507  17334422.32807 -22746682.18348  17334419.21948
 -20852499.91807  18030921.64807 -16229629.25948  18030918.44948
  -8820975.60506  20551455.02306  -6866309.68847  20551451.71547
 -19778202.46106  19806661.65606 -15404929.54547  19806658.79347
  -5173961.62907  19349749.47707  -4026041.41048  19349744.82448
 -24643225.89806  18421910.94506 -19189142.44148  18421906.03548
 -11327131.68406  21864867.78106  -8824742.71246  21864863.96146
 -12627908.05907  20021200.46107  -9826291.13547  20021194.67247
 -20812904.65607  19368591.78107 -16212907.98148  19368588.41448
  -1924126.00805  22040518.39105  -1488159.45746  22040515.52746
 08 11 15  1 22 29.9920000  0 10  3  6  7 13 16 19 21 23 25 27
 -29253093.57407  17327090.28907 -22776704.48148  17327087.10648
 -20864082.91007  18028717.29707 -16238654.96848  18028714.25848
  -8960469.82806  20524910.26606  -6975006.46347  20524906.69947
 -19791446.05506  19804141.74206 -15415249.28647  19804138.68447
  -5166993.87907  19351075.13307  -4020611.99748  19351071.85248
 -24744065.46107  18402722.53907 -19267718.71748  18402716.97348
 -11325456.82006  21865186.46106  -8823437.67946  21865182.88746
 -12599796.07407  20026549.89807  -9804385.67047  20026545.03547
 -20922097.34007  19347813.00007 -16297993.18648  19347809.45748
  -2062972.70304  22014096.39804  -1596351.67846  22014093.13346
 08 11 15  1 22 59.9920000  0 10  3  6  7 13 16 19 21 23 25 27
 -29291135.67607  17319851.12507 -22806347.66448  17319847.75048
 -20875284.65607  18026585.56307 -16247383.59348  18026582.21148
  -9099766.46906  20498403.18006  -7083549.33347  20498399.15247
 -19804132.95306  19801727.68006 -15425135.17647  19801724.02747
  -5159881.66407  19352429.14107  -4015070.05548  19352424.73848
 -24844459.00807  18383618.00807 -19345947.45748  18383612.72348
 -11323350.26606  21865587.68006  -8821796.25646  21865583.62146
 -12571329.49607  20031966.85207  -9782203.96147  20031961.14547
 -21030947.13307  19327099.72707 -16382811.20848  19327095.94548
  -2201746.10204  21987687.60904  -1704486.76047  21987685.64547
 08 11 15  1 23 29.9920000  0 10  3  6  7 13 16 19 21 23 25 27
 -29328688.06307  17312704.87507 -22835609.27848  17312701.79748
 -20886102.53107  18024527.63307 -16255813.12048  18024524.43448
  -9238858.86706  20471934.46106  -7191932.98547  20471931.32847
 -19816260.63706  19799419.67206 -15434585.34647  19799416.05547
  -5152620.55507  19353811.03107  -4009412.05348  19353807.39548
 -24944401.23006  18364599.41406 -19423824.48248  18364594.07448
 -11320808.91805  21866071.25005  -8819816.02146  21866066.73146
 -12542506.89807  20037451.98407  -9759744.81347  20037446.39847
 -21139447.35207  19306453.28907 -16467356.83748  19306449.23148
  -2340439.46104  21961296.39104  -1812559.43547  21961293.68847
 08 11 15  1 23 59.9920000  0 10  3  6  7 13 16 19 21 23 25 27
 -29365753.59007  17305651.60907 -22864491.49848  17305648.56648
 -20896539.57807  18022540.93807 -16263945.88648  18022538.09048
  -9377745.87505  20445505.39805  -7300156.60647  20445502.07047
 -19827832.06306  19797217.74206 -15443602.05747  19797213.72747
  -5145211.95307  19355220.44507  -4003639.13048  19355216.73448
 -25043892.87507  18345666.54707 -19501350.45048  18345661.41048
 -11317835.27305  21866636.75805  -8817498.93046  21866632.94146
 -12513332.88707  20043002.78907  -9737011.82347  20042998.33247
 -21247597.28907  19285872.66407 -16551629.51848  19285869.63748
  -2479052.27005  21934918.37505  -1920569.40547  21934916.58647
 08 11 15  1 24 29.9920000  0 10  3  6  7 13 16 19 21 23 25 27
 -29402335.03507  17298690.56307 -22892996.52948  17298687.37548
 -20906599.19907  18020626.93807 -16271784.55548  18020623.27348
  -9516426.67206  20419115.03106  -7408219.55747  20419111.41847
 -19838851.09406  19795121.00006 -15452188.35247  19795117.74247
  -5137657.82407  19356658.19507  -3997752.80948  19356653.70348
 -25142935.07807  18326819.96907 -19578526.18848  18326815.05548
 -11314432.32005  21867284.72705  -8814847.29346  21867280.84846
 -12483812.38306  20048620.67206  -9714008.87647  20048616.16047
 -21355396.25807  19265359.25007 -16635628.69548  19265356.09448
  -2617584.24605  21908556.89105  -2028516.33247  21908554.69547
 08 11 15  1 24 59.9920000  0 10  3  6  7 13 16 19 21 23 25 27
 -29438432.49607  17291821.21907 -22921124.42848  17291818.00848
 -20916282.43407  18018784.14107 -16279329.93548  18018781.01648
  -9654898.18006  20392764.93806  -7516119.44247  20392761.23447
 -19849318.75006  19793128.66406 -15460345.00147  19793125.11747
  -5129957.32407  19358123.75807  -3991752.42848  19358119.51648
 -25241526.66407  18308057.93807 -19655350.77348  18308053.64148
 -11310600.72705  21868013.00005  -8811861.60246  21868009.16846
 -12453947.77007  20054304.01607  -9690737.77147  20054298.63347
 -21462841.35506  19244913.22706 -16719352.15548  19244909.51648
  -2756032.59404  21882211.15604  -2136398.14547  21882209.11747
 08 11 15  1 25 29.9920000  0 10  3  6  7 13 16 19 21 23 25 27
 -29474047.37107  17285044.13307 -22948876.29348  17285040.90248
 -20925590.74207  18017012.64107 -16286583.17048  18017010.18448
  -9793157.26606  20366455.00006  -7623853.76947  20366451.41047
 -19859236.97706  19791241.60206 -15468073.49147  19791238.69547
  -5122110.48807  19359616.98407  -3985638.02348  19359613.17648
 -25339666.56307  18289383.69507 -19731823.43248  18289377.63348
 -11306341.94105  21868824.04705  -8808543.07846  21868819.95746
 -12423742.35506  20060051.77306  -9667201.11047  20060045.77347
 -21569930.39507  19224535.03907 -16802798.15648  19224530.94548
  -2894394.86805  21855881.61705  -2244212.85847  21855878.23447
 08 11 15  1 25 59.9920000  0 10  3  6  7 13 16 19 21 23 25 27
 -29509180.06607  17278358.46107 -22976252.41948  17278355.05148
 -20934525.34807  18015312.84407 -16293545.21548  18015309.64548
  -9931200.98806  20340185.45306  -7731420.29847  20340182.89147
 -19868606.86306  19789458.89106 -15475374.73147  19789455.76647
  -5114116.72707  19361138.15607  -3979409.14448  19361133.75448
 -25437353.47307  18270794.00807 -19807943.08548  18270788.38348
 -11301656.41405  21869716.18005  -8804892.09446  21869711.63746
 -12393198.57406  20065863.73406  -9643400.77647  20065858.94147
 -21676660.29707  19204225.22707 -16885964.31048  19204220.58648
  -3032668.60505  21829569.22705  -2351958.67046  21829566.50046
 08 11 15  1 26 29.9910000  0 10  3  6  7 13 16 19 21 23 25 27
 -29543835.42607  17271764.12807 -23003256.61148  17271760.84348
 -20943091.97707  18013682.30807 -16300220.51748  18013679.27348
 -10069026.66405  20313958.08105  -7838816.89947  20313955.23347
 -19877434.50006  19787778.98706 -15482253.42247  19787775.12847
  -5105980.71107  19362686.51107  -3973069.39548  19362682.45648
 -25534588.13307  18252290.81507 -19883710.34448  18252285.17148
 -11296550.04305  21870688.05005  -8800913.09145  21870683.02345
 -12362324.58607  20071738.94007  -9619343.13447  20071733.60147
 -21783029.81607  19183983.39407 -16968849.65348  19183979.48348
  -3170851.53505  21803274.35505  -2459633.67747  21803271.05047
 08 11 15  1 26 59.9910000  0 10  3  6  7 13 16 19 21 23 25 27
 -29578012.87907  17265260.13607 -23029888.40248  17265256.81948
 -20951289.12107  18012122.50307 -16306607.90948  18012119.37048
 -10206637.15206  20287772.52606  -7946045.85247  20287768.41747
 -19885718.72706  19786202.55806 -15488708.67047  19786198.69447
  -5097698.13307  19364262.23707  -3966615.44648  19364258.33548
 -25631372.82806  18233873.64406 -19959126.99148  18233867.67148
 -11291020.06604  21871740.44804  -8796604.09645  21871735.06945
 -12331117.97307  20077677.65907  -9595026.33447  20077673.11647
 -21889040.10207  19163810.45607 -17051455.07148  19163806.46848
  -3308947.06305  21776995.89405  -2567240.54647  21776992.20247
 08 11 15  1 27 29.9910000  0 10  3  6  7 13 16 19 21 23 25 27
 -29611710.55107  17258847.72207 -23056146.32848  17258844.64048
 -20959116.34007  18010633.11207 -16312707.05048  18010630.16748
 -10344023.60906  20261628.50306  -8053100.20847  20261624.89047
 -19893459.57406  19784729.82306 -15494740.53547  19784725.57347
  -5089267.63307  19365866.45607  -3960046.23348  19365862.92548
 -25727701.71906  18215542.39406 -20034188.44248  18215537.10848
 -11285066.31304  21872872.51904  -8791964.78945  21872868.48045
 -12299581.18806  20083678.87006  -9570452.24247  20083673.23747
 -21994683.44507  19143706.88607 -17133774.56848  19143703.69848
  -3446946.63305  21750734.73005  -2674772.66447  21750731.94047
 08 11 15  1 27 59.9910000  0 10  3  6  7 13 16 19 21 23 25 27
 -29644932.08607  17252525.92507 -23082033.25248  17252522.97648
 -20966577.70307  18009213.40907 -16318521.09848  18009210.12048
 -10481185.43806  20235527.12006  -8159979.53447  20235523.68747
 -19900661.01206  19783359.08906 -15500352.05147  19783355.63247
  -5080691.25807  19367498.86207  -3953363.34548  19367495.14048
 -25823576.47707  18197298.24507 -20108896.05948  18197292.49148
 -11278691.84802  21874085.70602  -8786997.67845  21874082.61245
 -12267719.58606  20089742.80006  -9545625.05847  20089736.17147
 -22099959.96507  19123673.19807 -17215808.20248  19123670.14848
  -3584850.10905  21724492.57305  -2782229.89546  21724489.26146
 08 11 15  1 28 29.9910000  0  9  3  6  7 13 16 19 23 25 27
 -29677678.68007  17246294.46407 -23107550.08248  17246291.52648
 -20973674.66807  18007862.91707 -16324051.19448  18007859.78848
 -10618119.59406  20209469.31506  -8266681.44047  20209466.36647
 -19907324.68406  19782091.20606 -15505544.55547  19782087.24547
  -5071968.80907  19369158.20607  -3946566.66247  19369154.41347
 -25918996.32007  18179140.48707 -20183249.16548  18179134.66748
 -12235536.07006  20095866.33106  -9520546.99747  20095860.89447
 -22204867.20307  19103710.28407 -17297554.10048  19103706.31248
  -3722655.57005  21698269.12005  -2889610.77546  21698265.62846
 08 11 15  1 28 59.9910000  0  9  3  6  7 13 16 19 23 25 27
 -29709951.50007  17240153.08907 -23132697.74348  17240149.59348
 -20980409.25007  18006581.01107 -16329298.92148  18006578.30048
 -10754824.07806  20183455.78406  -8373204.41347  20183452.50347
 -19913453.08206  19780925.01906 -15510319.96647  19780920.79647
  -5063100.74207  19370845.92507  -3939656.48948  19370841.92948
 -26013961.27007  18161069.04207 -20257247.82348  18161063.64448
 -12203034.25406  20102050.47206  -9495220.94047  20102046.55847
 -22309403.16007  19083817.77607 -17379010.70148  19083814.43748
  -3860361.04705  21672064.10505  -2996913.72346  21672061.51146
 08 11 15  1 29 29.9910000  0  9  3  6  7 13 16 19 23 25 27
 -29741745.80907  17234103.08107 -23157472.54748  17234099.57748
 -20986776.83607  18005369.52607 -16334260.70448  18005365.98048
 -10891290.29306  20157487.11206  -8479541.73647  20157483.20647
 -19919042.27306  19779861.37006 -15514675.20247  19779858.40947
  -5054080.74207  19372562.15107  -3932627.93048  19372558.75348
 -26108464.13707  18143085.74507 -20330886.44048  18143079.91748
 -12170210.92606  20108297.65906  -9469644.33247  20108292.21047
 -22413559.56307  19063997.45607 -17460171.54148  19063993.76948
  -3997958.13705  21645880.13605  -3104132.21146  21645878.51546
 08 11 15  1 29 59.9910000  0  9  3  6  7 13 16 19 23 25 27
 -29773060.54307  17228144.12807 -23181873.65348  17228140.77648
 -20992776.95707  18004227.70607 -16338936.12148  18004224.70248
 -11027513.03506  20131564.98006  -8585689.31147  20131561.49547
 -19924091.76206  19778900.39406 -15518609.86347  19778896.93747
  -5044906.62507  19374308.65907  -3925479.28748  19374303.83548
 -26202502.44507  18125190.98707 -20404163.01348  18125185.36648
 -12137066.97707  20114605.50307  -9443817.95647  20114599.56547
 -22517331.80107  19044250.29207 -17541033.02248  19044247.19848
  -4135442.48005  21619718.23005  -3211262.81646  21619716.45646
 08 11 15  1 30 29.9910000  0  9  3  6  7 13 16 19 23 25 27
 -29803899.06307  17222275.48707 -23205903.66548  17222272.17148
 -20998413.53907  18003155.11207 -16343328.27548  18003151.99948
 -11163492.03906  20105688.94006  -8691646.95547  20105685.24147
 -19928606.01206  19778041.49506 -15522127.48647  19778038.06547
  -5035580.34007  19376082.80807  -3918212.06748  19376079.06248
 -26296077.58207  18107384.13607 -20477078.70848  18107378.89048
 -12103607.85506  20120972.05006  -9417745.92147  20120966.21447
 -22620719.89507  19024575.99507 -17621595.18248  19024572.78048
  -4272814.09806  21593577.41706  -3318305.64447  21593574.78847
 08 11 15  1 30 59.9910000  0  9  3  6  7 13 16 19 23 25 27
 -29834266.66807  17216496.88607 -23229566.74748  17216493.31948
 -21003691.58207  18002150.76907 -16347441.05448  18002147.75348
 -11299227.93806  20079859.10506  -8797415.17447  20079855.53847
 -19932590.43406  19777283.35506 -15525232.25047  19777279.95247
  -5026105.46907  19377885.61207  -3910829.08348  19377882.33148
 -26389192.71907  18089664.98007 -20549635.95548  18089659.31548
 -12069840.26206  20127397.70606  -9391433.56547  20127393.10147
 -22723725.00007  19004975.02607 -17701858.88348  19004971.48748
  -4410074.25006  21567457.44006  -3425261.62947  21567454.71447
 08 11 15  1 31 29.9910000  0  9  3  6  7 13 16 19 23 25 27
 -29864166.38307  17210806.96407 -23252865.23948  17210803.78048
 -21008615.10907  18001213.71407 -16351277.56648  18001210.26548
 -11434720.21107  20054075.97207  -8902993.57248  20054072.03448
 -19936049.44906  19776625.84706 -15527927.63847  19776621.47247
  -5016484.10207  19379716.87807  -3903331.94048  19379712.78848
 -26481849.67207  18072032.76107 -20621836.19148  18072027.03048
 -12035769.27306  20133880.37006  -9364884.74747  20133875.74147
 -22826347.21107  18985446.73707 -17781824.25048  18985442.90948
  -4547222.96906  21541359.44006  -3532130.77847  21541356.37447
 08 11 15  1 31 59.9910000  0  9  3  6  7 13 16 19 23 25 27
 -29893599.41407  17205206.08107 -23275800.06948  17205202.66748
 -21013185.96107  18000344.15107 -16354839.27948  18000340.78048
 -11569966.54306  20028339.65906  -9008380.31647  20028336.00747
 -19938985.37506  19776065.81506 -15530215.42247  19776063.12447
  -5006716.35507  19381575.62007  -3895720.73048  19381571.99548
 -26574047.80507  18054488.21407 -20693678.87048  18054482.55848
 -12001398.45307  20140421.87007  -9338102.30147  20140416.11247
 -22928584.40207  18965991.82307 -17861489.59948  18965987.83148
  -4684258.16806  21515281.69006  -3638911.39647  21515279.77347
 08 11 15  1 32 29.9910000  0  9  3  6  7 13 16 19 23 25 27
 -29922569.51607  17199693.37007 -23298374.17248  17199689.70248
 -21017407.80506  17999540.90906 -16358129.04248  17999537.50348
 -11704966.22706  20002649.65906  -9113574.86647  20002646.02647
 -19941402.32005  19775606.36205 -15532098.75647  19775602.83947
  -4996804.37107  19383462.04207  -3887997.13848  19383458.30848
 -26665789.01207  18037030.30807 -20765165.52248  18037024.71448
 -11966733.17207  20147018.20607  -9311090.43147  20147012.92547
 -23030436.43807  18946609.64407 -17940854.82148  18946605.83148
  -4821179.66006  21489227.05806  -3745603.46747  21489224.46447
 08 11 15  1 32 59.9910000  0  9  3  6  7 13 16 19 23 25 27
 -29951076.31307  17194269.09707 -23320587.26248  17194265.55448
 -21021280.93007  17998803.76107 -16361147.06148  17998800.31948
 -11839715.13306  19977007.58906  -9218573.99547  19977004.17147
 -19943300.67606  19775244.85506 -15533578.00847  19775241.78847
  -4986746.65607  19385375.85507  -3880160.00748  19385372.19048
 -26757071.03907  18019660.01907 -20836294.38548  18019654.87048
 -11931774.83206  20153669.62806  -9283850.18747  20153664.88247
 -23131899.59807  18927301.76907 -18019917.02348  18927298.56548
  -4957983.64106  21463194.12806  -3852203.95447  21463191.64447
 08 11 15  1 33 29.9910000  0  9  3  6  7 13 16 19 23 25 27
 -29979123.12507  17188931.40107 -23342441.91648  17188928.39848
 -21024808.97707  17998132.48007 -16363896.18348  17998129.56248
 -11974212.47306  19951413.50306  -9323377.12747  19951410.08947
 -19944684.88706  19774981.55006 -15534656.66147  19774978.32347
  -4976544.90607  19387316.84707  -3872210.61648  19387313.16748
 -26847895.56607  18002376.91707 -20907066.73448  18002371.51948
 -11896528.79306  20160376.98006  -9256385.76147  20160372.83947
 -23232973.71907  18908068.24507 -18098676.07648  18908064.80048
  -5094669.86306  21437183.48006  -3958712.67247  21437180.92147
 08 11 15  1 33 59.9910000  0  9  3  6  7 13 16 19 23 25 27
 -30006710.64507  17183682.15107 -23363938.69848  17183678.56948
 -21027992.69907  17997526.18307 -16366377.00148  17997523.38248
 -12108454.83206  19925868.40906  -9427981.56147  19925864.35847
 -19945556.21906  19774815.71406 -15535335.64347  19774812.89047
  -4966198.02707  19389285.97207  -3864148.13748  19389282.07348
 -26938261.27307  17985180.66707 -20977481.57548  17985175.37448
 -11860997.03907  20167139.51907  -9228698.72047  20167133.95647
 -23333655.49607  18888909.22207 -18177129.43348  18888905.66348
  -5231235.34006  21411195.99506  -4065127.32047  21411192.83147
 08 11 15  1 34 29.9910000  0  9  3  6  7 13 16 19 23 25 27
 -30033838.97307  17178519.46407 -23385077.65848  17178516.40948
 -21030833.06307  17996985.76107 -16368590.26948  17996983.05448
 -12242438.62906  19900372.06506  -9532384.52747  19900367.72647
 -19945916.32406  19774747.89406 -15535616.25847  19774744.40147
  -4955705.26207  19391282.94807  -3855971.98048  19391278.47648
 -27028167.12107  17968071.75307 -21047538.06748  17968066.64048
 -11825182.10906  20173954.27606  -9200791.00947  20173949.85847
 -23433942.19107  18869825.29207 -18255274.89948  18869822.08148
  -5367677.13306  21385231.66706  -4171445.54747  21385228.77647
 08 11 15  1 34 59.9910000  0  9  3  6  7 13 16 19 23 25 27
 -30060510.06607  17173444.23707 -23405860.31348  17173441.01948
 -21033332.37107  17996510.69807 -16370537.78548  17996507.28448
 -12376161.38706  19874926.23006  -9636584.06247  19874921.68747
 -19945767.52706  19774775.33106 -15535500.36247  19774772.74947
  -4945067.02707  19393307.11207  -3847682.48948  19393303.58948
 -27117612.97307  17951051.05807 -21117236.12948  17951045.52348
 -11789087.67606  20180823.29206  -9172665.52247  20180818.49947
 -23533832.07807  18850816.75307 -18333111.17048  18850813.82348
  -5503993.61706  21359291.24506  -4277666.22046  21359289.02346
 08 11 15  1 35 29.9910000  0  9  3  6  7 13 16 19 23 25 27
 -30086725.25007  17168455.33107 -23426287.72048  17168452.16748
 -21035492.00407  17996099.55807 -16372220.61448  17996096.12848
 -12509620.46106  19849529.18306  -9740578.14048  19849525.79648
 -19945112.04306  19774900.52606 -15534989.63747  19774897.46447
  -4934283.28507  19395359.26107  -3839279.61448  19395355.82748
 -27206598.30907  17934117.48007 -21186575.35048  17934112.47248
 -11752716.79706  20187743.98006  -9144324.58647  20187739.31547
 -23633322.69907  18831884.14407 -18410636.32248  18831880.79248
  -5640181.92606  21333375.65106  -4383786.94747  21333372.84347
 08 11 15  1 35 59.9910000  0  9  3  6  7 13 16 19 23 25 27
 -30112484.58207  17163553.58907 -23446359.92948  17163550.67548
 -21037312.87907  17995752.93307 -16373639.46848  17995749.99148
 -12642812.48006  19824183.32306  -9844364.10847  19824179.91347
 -19943951.44906  19775122.44006 -15534085.33347  19775117.99147
  -4923353.00807  19397439.47207  -3830762.54448  19397435.53848
 -27295122.00807  17917272.05807 -21255554.85248  17917267.54648
 -11716071.71906  20194717.65106  -9115770.02047  20194712.42547
 -23732411.11707  18813028.64407 -18487848.09248  18813024.89048
  -5776239.14806  21307484.69006  -4489805.56747  21307482.84747
 08 11 15  1 36 29.9910000  0  9  3  6  7 13 16 19 23 25 27
 -30137793.93807  17158737.31507 -23466081.50748  17158733.99948
 -21038800.96907  17995469.74507 -16374799.03348  17995466.81948
 -12775738.88306  19798888.18306  -9947943.09947  19798884.57347
 -19942292.23806  19775437.44006 -15532792.46247  19775434.14047
  -4912280.38306  19399545.63606  -3822134.54048  19399542.39448
 -27383188.29307  17900513.76907 -21324177.91748  17900508.82348
 -11679160.24606  20201740.94806  -9087007.86647  20201736.47647
 -23831099.37907  18794248.67507 -18564748.03648  18794245.46848
  -5912167.19906  21281618.44806  -4595723.49047  21281616.05847
 08 11 15  1 36 59.9910000  0  9  3  6  7 13 16 19 23 25 27
 -30162651.75407  17154007.26907 -23485451.23748  17154003.92148
 -21039954.71507  17995250.01907 -16375698.05548  17995247.03448
 -12908393.62906  19773645.13606 -10051310.43748  19773640.92948
 -19940133.27306  19775847.61206 -15531110.19447  19775845.20247
  -4901061.91007  19401681.05807  -3813392.90848  19401677.90548
 -27470793.06607  17883843.28407 -21392441.37148  17883838.14048
 -11641981.88306  20208816.88606  -9058037.71247  20208811.73347
 -23929381.93807  18775546.37807 -18641331.85048  18775542.31548
  -6047960.55106  21255778.19806  -4701536.45547  21255776.27647
 08 11 15  1 37 29.9910000  0  9  3  6  7 13 16 19 23 25 27
 -30187060.48007  17149362.55807 -23504471.02748  17149359.13648
 -21040777.12507  17995093.65107 -16376338.90948  17995090.52648
 -13040775.60207  19748453.13607 -10154465.23447  19748449.60547
 -19937478.26606  19776352.88606 -15529041.42147  19776350.34747
  -4889698.76606  19403843.07306  -3804538.54048  19403839.81948
 -27557937.50407  17867259.87007 -21460346.13348  17867255.08148
 -11604541.02306  20215941.07306  -9028863.09247  20215935.86647
 -24027258.11307  18756921.06507 -18717599.01648  18756917.34348
  -6183618.37506  21229963.67506  -4807243.85347  21229960.78447
 08 11 15  1 37 59.9910000  0  9  3  6  7 13 16 19 23 25 27
 -30211018.06307  17144803.45607 -23523139.27848  17144800.16348
 -21041266.17607  17995000.83107 -16376719.98448  17994997.37448
 -13172877.91406  19723315.55806 -10257402.10147  19723311.76547
 -19934325.89506  19776953.29206 -15526585.05147  19776950.62047
  -4878187.07406  19406034.65906  -3795568.41747  19406030.31547
 -27644617.47307  17850765.50307 -21527888.94248  17850760.27648
 -11566837.61706  20223116.74506  -8999483.85947  20223110.54647
 -24124722.01207  18738374.44007 -18793544.90748  18738370.51148
  -6319134.59806  21204175.67506  -4912840.88647  21204172.30847
 08 11 15  1 38 29.9910000  0  9  3  6  7 13 16 19 23 25 27
 -30234526.20707  17140329.77607 -23541457.32048  17140326.81248
 -21041423.72307  17994970.63607 -16376842.75348  17994967.69048
 -13304698.04707  19698230.86207 -10360119.07448  19698227.58548
 -19930678.48806  19777647.73006 -15523742.91847  19777644.49547
  -4866526.80107  19408252.97207  -3786482.52048  19408249.07348
 -27730832.78907  17834358.90107 -21595069.71948  17834354.27648
 -11528874.69106  20230339.70606  -8969902.37347  20230335.73747
 -24221771.51607  18719906.30007 -18869167.89348  18719902.73348
  -6454507.03106  21178414.40906  -5018325.91947  21178411.30047
 08 11 15  1 38 59.9910000  0  9  3  6  7 13 16 19 23 25 27
 -30257590.56607  17135940.90107 -23559429.55948  17135937.76148
 -21041256.53907  17995002.21407 -16376712.50048  17994999.91348
 -13436238.56306  19673199.72206 -10462618.17248  19673195.75748
 -19926543.62106  19778434.05806 -15520521.01947  19778430.96847
  -4854723.57807  19410498.48707  -3777285.22747  19410495.26947
 -27816588.43007  17818040.37807 -21661892.29348  17818034.80448
 -11490660.57006  20237611.41706  -8940125.15047  20237607.36247
 -24318409.73007  18701516.77607 -18944470.39448  18701513.44448
  -6589738.46906  21152680.68306  -5123701.08247  21152677.90147
 08 11 15  1 39 29.9910000  0  9  3  6  7 13 16 19 23 25 27
 -30280208.59407  17131636.63607 -23577053.99148  17131633.67548
 -21040761.91407  17995096.48007 -16376327.08648  17995093.55448
 -13567492.18406  19648222.89406 -10564893.71447  19648218.84347
 -19921919.25406  19779314.50306 -15516917.62047  19779311.42547
  -4842772.31307  19412773.31507  -3767972.58248  19412769.81248
 -27901879.58207  17801810.01107 -21728352.93348  17801804.85848
 -11452194.14506  20244931.91706  -8910151.36547  20244926.53447
 -24414629.91407  18683206.59707 -19019447.16548  18683203.14848
  -6724822.02306  21126975.84706  -5228960.96547  21126972.41347
 08 11 15  1 39 59.9910000  0  9  3  6  7 13 16 19 23 25 27
 -30302386.41407  17127416.57307 -23594335.39348  17127413.49148
 -21039946.11307  17995251.80807 -16375691.38748  17995249.15948
 -13698460.90206  19623300.14406 -10666947.21247  19623296.79247
 -19916812.44906  19780285.64406 -15512938.32247  19780283.14847
  -4830677.47306  19415075.02606  -3758548.05047  19415071.03447
 -27986710.51607  17785667.36207 -21794454.92548  17785661.97248
 -11413482.85206  20252298.17506  -8879986.72347  20252293.01147
 -24510434.51207  18664975.25307 -19094100.08448  18664971.75348
  -6859759.98006  21101297.60506  -5334107.42047  21101295.32747
 08 11 15  1 40 29.9910000  0  9  3  6  7 13 16 19 23 25 27
 -30324123.18407  17123280.29207 -23611273.16448  17123277.12448
 -21038809.19107  17995468.10507 -16374805.49348  17995465.49148
 -13829140.05506  19598432.44006 -10768775.11048  19598429.16748
 -19911223.73806  19781350.08906 -15508583.50047  19781346.44047
  -4818437.41006  19417404.23006  -3749010.36447  19417400.17947
 -28071079.49607  17769612.15907 -21860196.98549  17769607.37849
 -11374528.32406  20259711.89406  -8849632.63647  20259706.35847
 -24605819.82007  18646824.56507 -19168426.31448  18646821.14048
  -6994548.30506  21075648.54206  -5439137.29747  21075645.23047
 08 11 15  1 40 59.9910000  0  9  3  6  7 13 16 19 23 25 27
 -30345420.50807  17119227.72207 -23627868.49648  17119224.28048
 -21037352.31607  17995745.11207 -16373670.27948  17995742.65948
 -13959526.40607  19573621.36207 -10870374.86647  19573616.81947
 -19905155.17206  19782504.12006 -15503854.79247  19782500.98047
  -4806051.50007  19419761.38607  -3739359.02348  19419757.59348
 -28154985.85907  17753645.40907 -21925578.57048  17753640.19848
 -11335333.45306  20267170.42506  -8819091.16447  20267165.00747
 -24700783.29307  18628753.33907 -19242423.83848  18628750.24548
  -7129184.29306  21050027.58906  -5544048.46747  21050024.67147
 08 11 15  1 41 29.9910000  0  9  3  6  7 13 16 19 23 25 27
 -30366275.25007  17115258.81507 -23644118.95348  17115255.74548
 -21035572.84407  17996083.94807 -16372283.68848  17996081.24548
 -14089612.80106  19548866.65106 -10971740.87647  19548862.64047
 -19898604.75006  19783750.48706 -15498750.61247  19783747.51147
  -4793515.18807  19422146.97207  -3729590.48848  19422143.06948
 -28238424.84007  17737767.58107 -21990595.95549  17737762.33549
 -11295897.12506  20274674.67506  -8788361.61747  20274669.67947
 -24795318.32407  18610763.88607 -19316087.50348  18610760.76548
  -7263661.17206  21024437.59706  -5648835.60747  21024434.91347
 08 11 15  1 41 59.9910000  0  9  3  6  7 13 16 19 23 25 27
 -30386692.53507  17111373.50307 -23660028.53248  17111370.33548
 -21033476.04307  17996483.40907 -16370649.83748  17996480.61648
 -14219400.21506  19524168.65106 -11072873.93148  19524165.29248
 -19891578.47706  19785088.71406 -15493275.64947  19785084.91747
  -4780831.87906  19424560.54206  -3719707.40647  19424556.69047
 -28321399.88307  17721978.23707 -22055251.82848  17721972.63248
 -11256225.89106  20282223.64406  -8757449.02047  20282218.61247
 -24889426.42207  18592855.46407 -19389418.47948  18592852.64048
  -7397980.23006  20998877.37806  -5753499.77347  20998874.19047
 08 11 15  1 42 29.9910000  0  9  3  6  7 13 16 19 23 25 27
 -30406672.93407  17107571.55007 -23675597.70248  17107568.79248
 -21031063.02307  17996942.26107 -16368769.58248  17996939.69048
 -14348885.33206  19499528.62006 -11173771.42048  19499524.74548
 -19884078.23406  19786515.01106 -15487431.31647  19786512.11647
  -4768000.77307  19427002.08907  -3709709.17648  19426998.51948
 -28403910.16007  17706276.80007 -22119545.54449  17706271.60149
 -11216322.23805  20289816.06505  -8726355.31547  20289812.25347
 -24983104.77707  18575029.48007 -19462414.62448  18575025.69448
  -7532138.51206  20973348.15906  -5858038.69447  20973344.73047
 08 11 15  1 42 59.9910000  0  9  3  6  7 13 16 19 23 25 27
 -30426219.53907  17103851.76907 -23690828.83548  17103848.65148
 -21028337.00807  17997460.71407 -16366645.42548  17997457.98048
 -14478066.78506  19474945.64406 -11274432.26548  19474942.69448
 -19876108.30106  19788031.40906 -15481220.97647  19788028.58547
  -4755023.50407  19429471.69007  -3699597.03347  19429467.84747
 -28485957.07407  17690663.59707 -22183478.20149  17690658.66749
 -11176190.47705  20297453.62805  -8695083.84746  20297447.98346
 -25076353.07807  18557284.94007 -19535075.62648  18557280.87848
  -7666135.10506  20947849.60506  -5962451.60147  20947846.19047
 08 11 15  1 43 29.9910000  0  9  3  6  7 13 16 19 23 25 27
 -30445336.98807  17100214.02607 -23705725.56748  17100210.57748
 -21025302.73807  17998038.56507 -16364281.08348  17998035.76948
 -14606944.99607  19450421.31507 -11374856.84648  19450417.21048
 -19867674.06306  19789636.55006 -15474648.85547  19789633.19847
  -4741902.71506  19431968.62806  -3689373.06047  19431964.75747
 -28567543.42207  17675138.48007 -22247051.96849  17675133.01149
 -11135837.66806  20305132.32306  -8663640.12946  20305126.49946
 -25169172.13307  18539622.14407 -19607402.16748  18539617.64848
  -7799970.63706  20922381.62806  -6066739.02547  20922377.57747
 08 11 15  1 43 59.9900000  0  9  3  6  7 13 16 19 23 25 27
 -30464021.89107  17096658.72507 -23720285.22648  17096655.41648
 -21021957.89107  17998675.26407 -16361674.70548  17998671.77948
 -14735508.78907  19425956.92807 -11475036.44548  19425953.23648
 -19858773.87906  19791330.51406 -15467713.69147  19791327.46347
  -4728634.46106  19434493.63906  -3679034.18947  19434490.21347
 -28648662.46507  17659701.95907 -22310261.60548  17659696.60048
 -11095264.16805  20312854.10005  -8632024.47347  20312848.06547
 -25261552.67607  18522042.63107 -19679387.00648  18522038.35448
  -7933634.09806  20896946.24806  -6170892.37647  20896942.26447
 08 11 15  1 44 29.9900000  0  9  3  6  7 13 16 19 23 25 27
 -30482281.91807  17093183.77207 -23734513.84148  17093180.49848
 -21018308.45707  17999369.44307 -16358831.00448  17999366.24848
 -14863768.19107  19401549.27907 -11574978.83448  19401546.35448
 -19849414.44906  19793111.92806 -15460420.66647  19793108.19747
  -4715222.43806  19437045.83406  -3668583.28448  19437042.30348
 -28729323.59407  17644352.77207 -22373114.44149  17644347.22949
 -11054474.77305  20320615.16205  -8600240.56447  20320610.64347
 -25353503.36307  18504544.77907 -19751036.90548  18504541.51048
  -8067136.55106  20871541.49806  -6274920.25447  20871537.36147
 08 11 15  1 44 59.9900000  0  9  3  6  7 13 16 19 23 25 27
 -30500114.46907  17089790.20907 -23748409.34348  17089787.26048
 -21014353.44107  18000121.80307 -16355749.17848  18000119.27248
 -14991713.83207  19377201.97507 -11674676.70048  19377198.70148
 -19839595.98006  19794980.53706 -15452769.90747  19794976.62347
  -4701664.10206  19439625.67006  -3658018.36847  19439622.40047
 -28809521.50007  17629091.40407 -22435606.30348  17629086.26848
 -11013471.30505  20328418.98305  -8568289.84447  20328413.60847
 -25445016.28507  18487130.34207 -19822345.66648  18487127.38548
  -8200468.56606  20846169.10806  -6378815.31347  20846165.65447
 08 11 15  1 45 29.9900000  0  9  3  6  7 13 16 19 23 25 27
 -30517522.21107  17086477.88107 -23761973.84048  17086474.60848
 -21010095.47707  18000932.06807 -16352431.30248  18000929.63948
 -15119343.50007  19352915.06807 -11774128.39448  19352912.00248
 -19829321.68406  19796934.49806 -15444763.98647  19796931.83847
  -4687960.12106  19442233.38106  -3647339.97547  19442229.98347
 -28889257.06607  17613918.65407 -22497737.92649  17613912.73349
 -10972257.57805  20336260.58405  -8536175.28647  20336255.88547
 -25536090.25807  18469799.66207 -19893312.39648  18469796.19748
  -8333628.30506  20820830.04506  -6482576.14847  20820826.34247
 08 11 15  1 45 59.9900000  0  9  3  6  7 13 16 19 23 25 27
 -30534506.91407  17083245.81107 -23775208.68048  17083242.31848
 -21005536.38307  18001799.74807 -16348878.77948  18001797.02548
 -15246654.64507  19328688.90407 -11873331.88948  19328685.51848
 -19818594.59006  19798976.49806 -15436405.27047  19798973.02947
  -4674110.73006  19444868.56106  -3636548.25147  19444865.00647
 -28968530.30107  17598833.24007 -22559509.28248  17598827.77948
 -10930836.87906  20344143.81806  -8503899.45047  20344137.63547
 -25626723.45707  18452553.06807 -19963935.67348  18452549.26048
  -8466613.91406  20795523.38106  -6586201.31347  20795520.48647
 08 11 15  1 46 29.9900000  0  9  3  6  7 13 16 19 23 25 27
 -30551066.46507  17080094.59207 -23788112.22248  17080091.27248
 -21000674.51607  18002725.21707 -16345090.31448  18002722.19048
 -15373641.06607  19304524.32607 -11972282.33748  19304520.53348
 -19807413.71906  19801104.56106 -15427692.90947  19801100.52547
  -4660112.19906  19447532.51406  -3625640.34647  19447529.86147
 -29047337.75807  17583836.42007 -22620917.67049  17583831.17049
 -10889209.51606  20352065.54506  -8471462.60847  20352060.09247
 -25716910.42207  18435391.06107 -20034211.24248  18435387.09648
  -8599419.57006  20770251.17806  -6689686.22747  20770248.68247
 08 11 15  1 46 59.9900000  0  9  3  6  7 13 16 19 23 25 27
 -30567205.14807  17077023.31107 -23800687.83648  17077020.27948
 -20995514.27707  18003707.02207 -16341069.35148  18003704.29148
 -15500302.82407  19280420.93607 -12070979.79448  19280417.56548
 -19795784.52706  19803317.23306 -15418631.23247  19803313.69047
  -4645967.03506  19450224.79506  -3614618.16847  19450220.85847
 -29125682.07007  17568928.32607 -22681965.19548  17568922.49848
 -10847381.13306  20360024.66206  -8438869.13347  20360019.76447
 -25806651.89507  18418313.51407 -20104139.66348  18418309.75248
  -8732045.44906  20745013.89706  -6793031.04247  20745011.34247
 08 11 15  1 47 29.9900000  0  9  3  6  7 13 16 19 23 25 27
 -30582925.99607  17074031.97507 -23812937.84048  17074028.99448
 -20990058.54307  18004744.99007 -16336818.14748  18004742.31148
 -15626638.62507  19256380.28707 -12169423.29247  19256375.47547
 -19783710.73406  19805614.74806 -15409223.09547  19805612.17847
  -4631676.43006  19452943.77906  -3603482.67448  19452940.29948
 -29203564.77007  17554107.32607 -22742653.00248  17554101.71348
 -10805356.15606  20368021.83406  -8406122.44047  20368017.15047
 -25895947.10507  18401321.20907 -20173720.35048  18401318.12748
  -8864490.50406  20719810.33406  -6896234.97747  20719807.71347
 08 11 15  1 47 59.9900000  0  9  3  6  7 13 16 19 23 25 27
 -30598230.07007  17071119.64707 -23824863.09848  17071116.49448
 -20984308.94107  18005839.26407 -16332337.93948  18005836.26448
 -15752645.17206  19232401.45106 -12267610.21648  19232397.72548
 -19771194.54706  19807996.85806 -15399470.26947  19807993.83447
  -4617239.93006  19455691.57606  -3592233.47447  19455687.18647
 -29280985.17206  17539374.84206 -22802980.59448  17539369.80348
 -10763137.43406  20376055.17006  -8373224.76147  20376051.33447
 -25984793.79707  18384414.56807 -20242951.53448  18384411.32248
  -8996751.96906  20694641.63106  -6999295.83447  20694638.54947
 08 11 15  1 48 29.9900000  0  9  3  6  7 13 16 19 23 25 27
 -30613121.51207  17068285.72507 -23836466.82648  17068282.85448
 -20978269.49207  18006988.62307 -16327631.89348  18006985.38548
 -15878322.16407  19208486.02907 -12365540.31148  19208482.01448
 -19758241.60505  19810461.30305 -15389377.07647  19810458.60447
  -4602660.11305  19458465.10005  -3580872.61247  19458461.90847
 -29357945.81607  17524729.76407 -22862949.93048  17524723.72948
 -10720730.48806  20384125.81806  -8340180.40347  20384120.74847
 -26073192.63307  18367592.37307 -20311833.75148  18367589.19748
  -9128829.99206  20669507.82606  -7102213.75847  20669504.72547
 08 11 15  1 48 59.9900000  0  9  3  6  7 13 16 19 23 25 27
 -30627601.66007  17065530.31107 -23847750.05248  17065526.98648
 -20971942.10507  18008192.66207 -16322701.47948  18008190.04948
 -16003667.12107  19184633.94307 -12463211.70048  19184630.18248
 -19744854.41405  19813009.10805 -15378945.53947  19813005.18247
  -4587936.77306  19461267.36506  -3569399.89747  19461262.84647
 -29434446.97707  17510171.92007 -22922561.21948  17510166.40048
 -10678139.12106  20392230.24006  -8306992.40647  20392225.49447
 -26161141.71907  18350856.44307 -20380365.50348  18350852.70948
  -9260722.31606  20644409.51406  -7204987.00547  20644406.63147
 08 11 15  1 49 29.9900000  0  9  3  6  7 13 16 19 23 25 27
 -30641666.61307  17062854.31107 -23858709.75248  17062850.70148
 -20965322.84407  18009452.23307 -16317543.60548  18009449.32648
 -16128671.69107  19160846.38107 -12560617.86248  19160842.24448
 -19731030.04706  19815640.10806 -15368173.33947  19815636.36547
  -4573063.61306  19464097.42806  -3557810.42047  19464093.91247
 -29510483.04307  17495702.88907 -22981810.10649  17495697.65449
 -10635360.84805  20400370.10805  -8273658.71047  20400366.29947
 -26248633.37107  18334207.37307 -20448540.83748  18334203.90848
  -9392420.77006  20619348.41206  -7307609.14547  20619345.28347
 08 11 15  1 49 59.9900000  0  9  3  6  7 13 16 19 23 25 27
 -30655322.28907  17060255.09207 -23869350.52948  17060252.21348
 -20958417.46907  18010766.52907 -16312162.80848  18010763.19048
 -16253337.04307  19137123.45107 -12657759.68148  19137119.65048
 -19716775.06306  19818352.20106 -15357065.56447  19818349.04147
  -4558045.32806  19466955.95906  -3546107.90347  19466951.90047
 -29586058.24607  17481321.42807 -23040699.85548  17481315.28748
 -10592402.43005  20408545.27905  -8240184.65647  20408540.60847
 -26335669.78907  18317644.44307 -20516361.40848  18317641.29948
  -9523927.08606  20594323.55306  -7410081.55647  20594320.10047
 08 11 15  1 50 29.9900000  0  9  3  6  7 13 16 19 23 25 27
 -30668570.59407  17057734.34207 -23879673.90148  17057730.88948
 -20951228.11707  18012134.46707 -16306560.72748  18012131.25248
 -16377660.77307  19113465.18607 -12754635.31648  19113461.65448
 -19702092.88305  19821146.15405 -15345624.94847  19821143.06547
  -4542881.96106  19469841.17006  -3534292.30047  19469837.80747
 -29661172.92606  17467027.45106 -23099230.78348  17467022.16248
 -10549267.80505  20416753.63105  -8206573.32647  20416749.76447
 -26422249.40607  18301169.39707 -20583826.05148  18301165.98348
  -9655239.31306  20569335.35006  -7512402.78347  20569332.08447
 08 11 15  1 50 59.9900000  0  9  3  6  7 13 16 19 23 25 27
 -30681411.57407  17055290.97507 -23889679.85848  17055287.51048
 -20943755.03507  18013556.81807 -16300737.53648  18013553.42848
 -16501638.89107  19089873.13107 -12851241.64248  19089868.65848
 -19686984.73005  19824021.15405 -15333852.38247  19824018.38947
  -4527571.74606  19472754.85006  -3522362.29547  19472751.97947
 -29735826.08607  17452821.47507 -23157402.07148  17452816.11148
 -10505958.69106  20424995.21706  -8172825.96647  20424991.10047
 -26508369.12107  18284781.44307 -20650932.31448  18284777.74048
  -9786353.46105  20544385.44305  -7614569.62947  20544382.14347
 08 11 15  1 51 29.9900000  0  9  3  6  7 13 16 19 23 25 27
 -30693848.34007  17052924.22507 -23899370.84048  17052920.91248
 -20936001.23407  18015032.40407 -16294695.63948  18015029.02948
 -16625269.98407  19066347.02207 -12947577.55648  19066343.04948
 -19671454.94906  19826976.52906 -15321751.27447  19826974.18647
  -4512116.02306  19475695.28706  -3510318.90847  19475691.96347
 -29810018.89807  17438703.29507 -23215214.66049  17438697.65449
 -10462479.86706  20433269.10006  -8138946.38947  20433264.63547
 -26594028.36707  18268481.02207 -20717679.79248  18268477.77948
  -9917268.56605  20519472.50605  -7716581.39747  20519469.83447
 08 11 15  1 51 59.9900000  0  9  3  6  7 13 16 19 23 25 27
 -30705884.79307  17050633.49007 -23908749.89548  17050630.31548
 -20927970.91007  18016560.27207 -16288438.25548  18016557.13948
 -16748553.64807  19042887.06107 -13043642.74748  19042883.45548
 -19655508.43005  19830011.40405 -15309325.46547  19830008.14747
  -4496516.90606  19478664.33406  -3498163.78948  19478661.09248
 -29883753.71507  17424671.57607 -23272670.35148  17424666.33448
 -10418836.72306  20441574.08406  -8104938.82447  20441569.68247
 -26679227.45307  18252268.39707 -20784068.68948  18252264.35048
 -10047984.43406  20494598.24806  -7818437.92247  20494595.51047
 08 11 15  1 52 29.9900000  0  9  3  6  7 13 16 19 23 25 27
 -30717519.19107  17048419.49007 -23917815.66648  17048416.62348
 -20919662.65607  18018141.02907 -16281964.29048  18018137.93648
 -16871484.05107  19019493.88107 -13139432.63748  19019490.12748
 -19639144.71106  19833124.31106 -15296574.53247  19833121.88947
  -4480771.03906  19481659.95906  -3485894.30647  19481656.72147
 -29957027.96906  17410728.42006 -23329767.17148  17410722.52248
 -10375029.40606  20449910.42006  -8070803.27847  20449905.45147
 -26763961.51607  18236143.95107 -20850095.24148  18236140.23648
 -10178495.58205  20469762.99805  -7920134.91647  20469760.77947
 08 11 15  1 52 59.9900000  0  9  3  6  7 13 16 19 23 25 27
 -30728753.54307  17046281.86507 -23926569.72348  17046278.82648
 -20911078.08607  18019774.42007 -16275275.03548  18019772.33848
 -16994058.30907  18996168.99007 -13234945.05048  18996164.99448
 -19622366.78905  19836317.45105 -15283500.84447  19836314.60047
  -4464878.31306  19484684.93606  -3473510.39747  19484680.36947
 -30029841.48807  17396872.06107 -23386504.97048  17396866.88548
 -10331060.84806  20458276.47506  -8036542.08447  20458273.21347
 -26848228.58607  18220107.88107 -20915757.89948  18220104.36148
 -10308799.68405  20444966.55305  -8021670.53847  20444963.73347
 08 11 15  1 53 29.9900000  0  9  3  6  7 13 16 19 23 25 27
 -30739589.89507  17044219.66207 -23935013.63348  17044216.53348
 -20902219.99607  18021460.33407 -16268372.63848  18021457.45948
 -17116275.06307  18972911.93607 -13330178.89048  18972907.74048
 -19605178.32005  19839588.28705 -15270107.29047  19839584.98647
  -4448839.50006  19487736.81806  -3461012.62947  19487733.36947
 -30102195.33207  17383103.95907 -23442884.58649  17383098.39749
 -10286935.46506  20466673.85806  -8002158.72047  20466670.02947
 -26932028.04707  18204161.80307 -20981056.18648  18204158.11948
 -10438895.29706  20420210.51406  -8123043.74247  20420207.16247
 08 11 15  1 53 59.9900000  0  9  3  6  7 13 16 19 23 25 27
 -30750031.15607  17042233.00607 -23943149.68448  17042229.45948
 -20893091.13307  18023197.64707 -16261259.23248  18023194.94048
 -17238132.48807  18949722.77207 -13425132.70948  18949719.63148
 -19587583.18405  19842936.77905 -15256396.83647  19842932.76447
  -4432655.92206  19490816.54506  -3448402.08847  19490813.28347
 -30174091.23007  17369422.34207 -23498907.35249  17369416.52549
 -10242657.47306  20475099.56106  -7967656.43947  20475094.85047
 -27015359.03907  18188304.38907 -21045989.43248  18188300.77548
 -10568780.98806  20395494.14706  -8224253.41147  20395490.57647
 08 11 15  1 54 29.9900000  0  9  3  6  7 13 16 19 23 25 27
 -30760077.24607  17040321.08407 -23950977.80848  17040318.00248
 -20883691.33607  18024986.29507 -16253934.73548  18024983.56848
 -17359625.62107  18926603.63107 -13519802.68248  18926600.23348
 -19569582.71505  19846362.68605 -15242370.52647  19846359.31847
  -4416325.35206  19493924.28706  -3435677.01547  19493920.87347
 -30245527.36706  17355828.52906 -23554571.88749  17355823.47149
 -10198228.32006  20483554.53706  -7933036.37247  20483549.88147
 -27098217.84407  18172536.57607 -21110554.73048  18172532.83848
 -10698452.69906  20370819.04506  -8325296.30147  20370815.20547
 08 11 15  1 54 59.9900000  0  9  3  6  7 13 16 19 23 25 27
 -30769729.95307  17038484.12307 -23958499.41348  17038480.56148
 -20874022.10207  18026826.61507 -16246400.28648  18026823.58048
 -17480752.14107  18903554.33407 -13614186.99148  18903550.11548
 -19551179.42605  19849864.20905 -15228030.30447  19849861.56547
  -4399847.39106  19497059.52906  -3422837.06147  19497055.69747
 -30316503.78506  17342322.21706 -23609878.19349  17342317.14749
 -10153650.79306  20492037.96706  -7898300.64747  20492033.18647
 -27180602.56307  18156859.60807 -21174750.61748  18156856.01448
 -10827907.71505  20346184.41205  -8426170.32347  20346181.36547
 08 11 15  1 55 29.9900000  0  9  3  6  7 13 16 19 23 25 27
 -30778988.80907  17036722.38107 -23965714.11448  17036718.96348
 -20864083.75407  18028717.26407 -16238656.11448  18028714.17848
 -17601507.59407  18880575.12307 -13708282.14748  18880571.24448
 -19532374.60205  19853442.99805 -15213377.23147  19853439.42047
  -4383220.37506  19500224.00606  -3409880.97647  19500220.35047
 -30387019.20306  17328903.54506 -23664825.26049  17328898.58449
 -10108926.71905  20500548.10805  -7863450.80346  20500544.10846
 -27262510.06307  18141273.40407 -21238574.65048  18141270.25248
 -10957141.91406  20321591.69306  -8526872.30047  20321588.25247
 08 11 15  1 55 59.9900000  0  9  3  6  7 13 16 19 23 25 27
 -30787861.50407  17035034.27207 -23972627.91748  17035030.79948
 -20853883.61706  18030658.86506 -16230707.98348  18030655.39748
 -17721895.19507  18857665.48307 -13802090.65748  18857661.91648
 -19513176.75806  19857096.07606 -15198417.88447  19857093.03347
  -4366450.01606  19503415.35006  -3396813.18747  19503410.77547
 -30457079.57006  17315571.66206 -23719417.75549  17315566.11949
 -10064065.17206  20509085.10006  -7828493.78346  20509080.67046
 -27343944.20307  18125776.71707 -21302029.81948  18125773.27248
 -11086158.73405  20297040.67805  -8627404.88047  20297037.41647
 08 11 15  1 56 29.9900000  0  9  3  6  7 13 16 19 23 25 27
 -30796346.59407  17033419.20107 -23979239.67848  17033416.25248
 -20843420.48007  18032649.67007 -16222554.89848  18032646.33848
 -17841909.06607  18834827.53707 -13895607.94448  18834824.06148
 -19493585.69106  19860824.52206 -15183152.20247  19860821.67047
  -4349532.84806  19506633.80306  -3383630.99147  19506630.81547
 -30526682.24607  17302326.87307 -23773653.59449  17302321.22949
 -10019066.16806  20517648.80306  -7793429.67046  20517643.77546
 -27424900.27007  18110371.52207 -21365112.48548  18110368.17848
 -11214952.83205  20272531.96705  -8727763.92747  20272529.03747
 08 11 15  1 56 59.9900000  0  9  3  6  7 13 16 19 23 25 27
 -30804445.32007  17031878.20907 -23985550.39548  17031874.94748
 -20832695.51607  18034690.46707 -16214197.80148  18034687.18248
 -17961545.94907  18812062.01407 -13988831.49748  18812058.52948
 -19473604.00006  19864627.02906 -15167582.09747  19864623.57647
  -4332468.62906  19509881.68606  -3370334.23647  19509878.16647
 -30595826.84806  17289168.73306 -23827532.50349  17289163.90449
  -9973932.57406  20526236.99006  -7758260.64246  20526231.24046
 -27505375.95706  18095057.22506 -21427820.80648  18095054.00648
 -11343521.03905  20248065.96705  -8827946.93147  20248063.68647
 08 11 15  1 57 29.9900000  0  9  3  6  7 13 16 19 23 25 27
 -30812160.77006  17030410.04506 -23991562.43448  17030406.94048
 -20821711.77307  18036780.62307 -16205639.05948  18036777.76048
 -18080804.42607  18789367.61507 -14081760.16248  18789363.95548
 -19453235.88305  19868502.81805 -15151710.85847  19868500.26047
  -4315258.68007  19513156.96707  -3356923.91447  19513152.75247
 -30664515.28906  17276097.83406 -23881055.96649  17276092.52549
  -9928668.88706  20534850.82606  -7722990.28246  20534844.58046
 -27585371.04707  18079834.57607 -21490154.63748  18079830.42448
 -11471862.57405  20223643.56805  -8927953.30547  20223640.92447
 08 11 15  1 57 59.9900000  0  9  3  6  7 13 16 19 23 25 27
 -30819492.97307  17029014.89707 -23997275.86348  17029011.75648
 -20810469.53907  18038920.11507 -16196878.88748  18038916.87348
 -18199680.70307  18766746.50607 -14174391.02448  18766742.06548
 -19432483.02705  19872451.71705 -15135539.83647  19872449.03347
  -4297900.93406  19516459.59206  -3343398.42547  19516456.45547
 -30732746.41007  17263113.83407 -23934223.07649  17263108.57249
  -9883276.64506  20543487.95906  -7687619.70846  20543481.55346
 -27664882.28107  18064704.19307 -21552111.45848  18064700.24048
 -11599973.43805  20199264.47505  -9027779.94647  20199262.53747
 08 11 15  1 58 29.9900000  0  9  3  6  7 13 16 19 23 25 27
 -30826445.24207  17027691.72507 -24002693.22548  17027688.38148
 -20798972.02307  18041107.77907 -16187919.79748  18041105.08848
 -18318173.37107  18744198.21707 -14266722.99348  18744193.80748
 -19411349.58206  19876474.28706 -15119072.22747  19876470.32647
  -4280396.95306  19519790.40406  -3329758.94847  19519787.45947
 -30800522.23807  17250216.70907 -23987035.40749  17250210.77949
  -9837760.61706  20552150.64706  -7652152.72547  20552143.05347
 -27743909.56607  18049665.76407 -21613691.16448  18049662.23348
 -11727852.68805  20174930.23305  -9127426.11647  20174927.22147
 08 11 15  1 58 59.9900000  0  9  3  6  7 13 16 19 23 25 27
 -30833019.34807  17026440.88107 -24007815.92548  17026437.44348
 -20787220.95707  18043344.24007 -16178763.14548  18043340.78348
 -18436280.05107  18721722.47507 -14358754.15248  18721718.87748
 -19389838.63706  19880566.51406 -15102310.50747  19880563.91647
  -4262746.49206  19523149.70106  -3316005.40747  19523145.79947
 -30867842.93007  17237406.34207 -24039493.08949  17237400.75649
  -9792124.07406  20560834.58406  -7616591.81747  20560828.72947
 -27822451.34407  18034720.11507 -21674892.56548  18034716.80748
 -11855497.86305  20150640.17805  -9226889.90047  20150637.12347
 08 11 15  1 59 29.9900000  0  9  3  6  7 13 16 19 23 25 27
 -30839217.66807  17025261.38107 -24012645.77948  17025258.08848
 -20775218.83607  18045627.67007 -16169410.86148  18045624.82648
 -18553998.72707  18699322.02907 -14450483.00148  18699317.93648
 -19367953.99606  19884732.16206 -15085257.55247  19884728.14347
  -4244950.46106  19526536.40406  -3302138.39747  19526532.58447
 -30934709.98807  17224681.52207 -24091597.28849  17224676.04949
  -9746371.02006  20569540.56806  -7580940.14347  20569535.82247
 -27900506.65607  18019866.72507 -21735714.87648  18019863.97548
 -11982907.45706  20126394.61506  -9326170.07247  20126392.14747
 08 11 15  1 59 59.9900000  0  9  3  6  7 13 16 19 23 25 27
 -30845041.23007  17024153.04507 -24017183.63748  17024150.04548
 -20762967.05107  18047959.20907 -16159864.04048  18047956.26048
 -18671326.42207  18676994.98307 -14541907.17448  18676991.02548
 -19345698.14506  19888966.65406 -15067915.33347  19888962.76047
  -4227008.44106  19529949.83406  -3288157.61647  19529946.50247
 -31001122.79707  17212043.60007 -24143347.52949  17212037.92049
  -9700504.17206  20578268.92806  -7545199.76247  20578263.77947
 -27978073.64107  18005106.23307 -21796156.69948  18005102.96348
 -12110078.72706  20102194.95106  -9425264.58047  20102192.63947
 08 11 15  2  0 29.9900000  0  9  3  6  7 13 16 19 23 25 27
 -30850490.85207  17023116.16207 -24021430.11448  17023113.17048
 -20750465.84807  18050338.64707 -16150122.86048  18050335.15848
 -18788259.00007  18654743.81107 -14633023.45248  18654739.44748
 -19323072.95706  19893272.02906 -15050285.36847  19893268.74447
  -4208918.71506  19533392.66206  -3274061.74947  19533388.86947
 -31067080.72307  17199492.38107 -24194743.31049  17199487.06849
  -9654525.43406  20587018.72506  -7509372.26847  20587013.62747
 -28055149.22307  17990439.04507 -21856215.59948  17990435.47548
 -12237007.64806  20078041.50606  -9524170.20547  20078038.79947
 08 11 15  2  0 59.9900000  0  9  3  6  7 13 16 19 23 25 27
 -30855573.36307  17022149.01407 -24025390.53148  17022145.69348
 -20737722.28107  18052763.42807 -16140192.82248  18052759.85448
 -18904799.11307  18632566.54507 -14723833.94048  18632563.01448
 -19300086.32806  19897646.23306 -15032373.71747  19897642.55747
  -4190686.49606  19536862.24806  -3259854.86247  19536859.05347
 -31132589.61707  17187026.24807 -24245789.20049  17187020.74049
  -9608443.14805  20595786.45905  -7473464.01147  20595782.38547
 -28131737.13307  17975864.81807 -21915894.50848  17975860.61948
 -12363697.04306  20053933.12306  -9622889.23647  20053930.08847
 08 11 15  2  1 29.9890000  0  9  3  6  7 13 16 19 23 25 27
 -30860286.97707  17021251.89207 -24029063.47148  17021248.40748
 -20724734.85206  18055234.89206 -16130072.78048  18055232.13448
 -19020936.87107  18610466.15007 -14814330.87448  18610462.53248
 -19276738.64506  19902088.22806 -15014180.72447  19902085.81047
  -4172308.73006  19540359.07906  -3245534.55847  19540355.56447
 -31197644.41007  17174646.93107 -24296481.24649  17174641.52549
  -9562258.59004  20604574.15004  -7437476.13946  20604571.20846
 -28207829.76607  17961384.67307 -21975187.45948  17961380.97848
 -12490136.87506  20029872.43906  -9721413.78547  20029869.57547
 08 11 15  2  1 59.9890000  0  9  3  6  7 13 16 19 23 25 27
 -30864631.34407  17020425.15707 -24032448.69748  17020421.61448
 -20711502.44107  18057753.10307 -16119761.83148  18057750.66548
 -19136675.31607  18588442.04007 -14904516.66348  18588438.53248
 -19253029.50806  19906601.22806 -14995706.10547  19906598.42347
  -4153782.13706  19543885.20406  -3231098.26747  19543880.77847
 -31262247.31307  17162353.14207 -24346821.18049  17162347.59949
  -9515969.95705  20613383.98505  -7401407.19947  20613380.50947
 -28283428.56607  17946998.61807 -22034095.61448  17946995.62648
 -12616331.26206  20005858.14206  -9819747.05647  20005855.39647
 08 11 15  2  2 29.9890000  0  9  3  6  7 13 16 19 23 25 27
 -30868613.01207  17019667.52507 -24035551.29948  17019664.22448
 -20698032.22707  18060316.07107 -16109265.57348  18060313.93148
 -19252012.69107  18566494.15707 -14994389.96148  18566490.57548
 -19228967.36306  19911179.36806 -14976956.41347  19911177.43147
  -4135111.63306  19547437.16506  -3216549.88447  19547434.40347
 -31326401.73407  17150145.18107 -24396811.63149  17150139.87649
  -9469586.60205  20622211.17305  -7365264.38247  20622206.93947
 -28358534.27007  17932706.75907 -22092619.55648  17932703.27848
 -12742278.03106  19981891.01706  -9917887.37547  19981888.50947
 08 11 15  2  2 59.9890000  0  9  3  6  7 13 16 19 23 25 27
 -30872229.53907  17018979.11807 -24038369.38548  17018976.15048
 -20684321.60506  18062925.48506 -16098581.99448  18062922.82948
 -19366942.59407  18544624.18907 -15083945.73748  18544619.90748
 -19204551.54706  19915824.93906 -14957931.12247  19915822.97447
  -4116293.55906  19551018.68906  -3201886.50647  19551014.62247
 -31390104.29307  17138022.97807 -24446449.99949  17138018.05249
  -9423108.04305  20631055.97805  -7329047.36347  20631051.47047
 -28433141.53107  17918509.56407 -22150755.09648  17918505.78248
 -12867971.03106  19957972.40006 -10015829.97247  19957969.75547
 08 11 15  2  3 29.9890000  0  9  3  6  7 13 16 19 23 25 27
 -30875484.39807  17018359.74307 -24040905.63148  17018356.75948
 -20670373.98407  18065579.38407 -16087713.71348  18065576.28248
 -19481464.05507  18522830.78207 -15173183.22748  18522827.36448
 -19179786.46106  19920538.51706 -14938633.64046  19920535.77546
  -4097329.39806  19554627.62606  -3187109.24347  19554623.24347
 -31453357.39107  17125986.13407 -24495738.11849  17125981.02849
  -9376538.80104  20639916.40004  -7292759.70147  20639913.53647
 -28507250.45707  17904407.07107 -22208502.31048  17904403.45448
 -12993409.61306  19934102.77506 -10113574.29047  19934099.85747
 08 11 15  2  3 59.9890000  0  9  3  6  7 13 16 19 23 25 27
 -30878375.34807  17017809.90007 -24043158.33948  17017806.66148
 -20656186.78507  18068279.26707 -16076658.78448  18068276.17748
 -19595569.73007  18501117.74307 -15262096.74548  18501113.90348
 -19154670.86305  19925317.79005 -14919063.14347  19925314.62247
  -4078214.43406  19558265.60306  -3172214.51747  19558261.69247
 -31516156.68407  17114035.89207 -24544672.66049  17114030.85749
  -9329877.58605  20648796.98505  -7256400.40247  20648791.97447
 -28580855.07007  17890400.60307 -22265856.56048  17890397.14248
 -13118586.85506  19910281.79006 -10211115.03447  19910279.89247
 08 11 15  2  4 29.9890000  0  9  3  6  7 13 16 19 23 25 27
 -30880908.18807  17017327.79007 -24045131.97848  17017324.65748
 -20641766.04307  18071023.25907 -16065421.85748  18071020.43948
 -19709262.16007  18479482.17307 -15350688.24248  18479478.78248
 -19129212.32805  19930162.72805 -14899225.33247  19930160.11847
  -4058953.24206  19561930.72806  -3157205.80547  19561926.97447
 -31578507.35507  17102170.98507 -24593257.60349  17102166.02549
  -9283132.13705  20657691.37605  -7219975.41047  20657687.73947
 -28653958.34807  17876489.27507 -22322820.14848  17876486.15748
 -13243504.71106  19886511.86806 -10308453.59847  19886508.46247
 08 11 15  2  4 59.9890000  0  9  3  6  7 13 16 19 23 25 27
 -30883084.15607  17016913.98507 -24046827.54848  17016910.78648
 -20627113.04307  18073811.69607 -16054003.95748  18073808.64648
 -19822537.64507  18457926.90707 -15438954.85048  18457924.05648
 -19103413.38306  19935071.79806 -14879122.30347  19935069.57147
  -4039544.89806  19565623.47806  -3142082.45747  19565620.84547
 -31640409.69507  17090391.18907 -24641493.19449  17090386.12249
  -9236305.14506  20666603.36806  -7183486.90947  20666600.77547
 -28726558.46507  17862673.72807 -22379391.68548  17862670.41948
 -13368160.20706  19862789.93906 -10405587.73947  19862786.78247
 08 11 15  2  5 29.9890000  0  9  3  6  7 13 16 19 23 25 27
 -30884905.98807  17016567.16507 -24048247.16348  17016563.46648
 -20612230.08607  18076643.68907 -16042406.86548  18076640.70448
 -19935394.32007  18436450.95407 -15526895.11248  18436447.75548
 -19077277.97706  19940044.90006 -14858757.04247  19940041.59547
  -4019990.25006  19569344.39206  -3126845.09447  19569341.98247
 -31701864.34007  17078696.80607 -24689379.92149  17078691.60349
  -9189400.52306  20675530.11006  -7146937.92346  20675525.15046
 -28798654.63307  17848954.21207 -22435570.51148  17848950.92348
 -13492551.85906  19839118.85306 -10502516.28747  19839116.35347
 08 11 15  2  5 59.9890000  0  9  3  6  7 13 16 19 23 25 27
 -30886373.60507  17016287.57907 -24049390.77048  17016284.78248
 -20597117.34007  18079519.82107 -16030630.71648  18079516.68548
 -20047828.42207  18415055.23507 -15614506.10248  18415051.59548
 -19050807.23006  19945082.50106 -14838130.57047  19945079.34147
  -4000287.57406  19573093.71206  -3111492.40147  19573090.72847
 -31762870.74607  17067087.93107 -24736917.38249  17067082.31049
  -9142419.84405  20684469.84505  -7110329.57346  20684464.13446
 -28870243.94107  17835331.29807 -22491354.39148  17835328.11048
 -13616675.55106  19815499.02506 -10599236.02547  19815495.93947
 08 11 15  2  6 29.9890000  0  9  3  6  7 13 16 19 23 25 27
 -30887489.73407  17016075.37607 -24050260.50648  17016072.67348
 -20581777.43407  18082438.72807 -16018677.55348  18082436.19648
 -20159838.10207  18393740.85307 -15701786.36548  18393737.04048
 -19024005.61706  19950182.95406 -14817246.23547  19950179.06747
  -3980437.68006  19576871.09506  -3096024.98347  19576868.99747
 -31823430.48807  17055563.52507 -24784106.78549  17055558.81049
  -9095367.04706  20693423.20406  -7073665.05147  20693419.54447
 -28941325.94107  17821805.15007 -22546742.97548  17821801.11448
 -13740529.82406  19791930.84506 -10695745.85047  19791927.86847
 08 11 15  2  6 59.9890000  0  8  3  6  7 13 16 19 25 27
 -30888256.22707  17015929.48507 -24050857.77748  17015926.45448
 -20566212.12507  18085400.68107 -16006548.74248  18085397.46648
 -20271420.96107  18372507.35307 -15788734.06048  18372503.75148
 -18996876.16006  19955345.34506 -14796106.45247  19955341.88447
  -3960440.55506  19580676.86806  -3080442.83947  19580673.80247
 -31883544.22307  17044124.56407 -24830948.66049  17044118.89249
 -29011899.23807  17808375.58707 -22601735.15148  17808372.05248
 -13864112.41806  19768413.53206 -10792043.96647  19768410.72447
 08 11 15  2  7 29.9890000  0  8  3  6  7 13 16 19 25 27
 -30888671.94906  17015850.44606 -24051181.72348  17015847.20448
 -20550420.19107  18088405.87607 -15994243.34348  18088402.54848
 -20382571.78907  18351356.20407 -15875345.10248  18351352.97048
 -18969419.10906  19960570.31406 -14774711.33046  19960566.89246
  -3940293.30506  19584510.93906  -3064743.72147  19584507.26747
 -31943209.59807  17032770.59507 -24877441.15749  17032764.96249
 -29081959.85907  17795043.36807 -22656327.83948  17795039.48948
 -13987418.12506  19744948.84506 -10888126.33547  19744946.20047
 08 11 15  2  7 59.9890000  0  8  3  6  7 13 16 19 25 27
 -30888732.75007  17015838.79007 -24051229.09948  17015836.08748
 -20534397.37107  18091454.89207 -15981758.06048  18091451.90348
 -20493281.86707  18330288.22007 -15961612.69248  18330285.09548
 -18941631.82006  19965857.36806 -14753058.95547  19965854.90747
  -3919989.49206  19588374.43906  -3048922.57647  19588371.13047
 -32002421.39507  17021502.86807 -24923580.22549  17021497.91949
 -29151500.27307  17781810.21207 -22710515.18948  17781806.98948
 -14110438.41806  19721539.11806 -10983986.29247  19721536.11047
 08 11 15  2  8 29.9890000  0  8  3  6  7 13 16 19 25 27
 -30888442.84807  17015894.02507 -24051003.19948  17015890.63848
 -20518148.12107  18094547.15007 -15969096.32148  18094544.18548
 -20603551.39507  18309304.98507 -16047536.99648  18309301.14248
 -18913519.72306  19971208.57106 -14731153.47647  19971204.47447
  -3899532.24206  19592267.35306  -3032981.90147  19592263.65747
 -32061183.03107  17010321.04007 -24969368.50749  17010315.74749
 -29220521.88707  17768676.07107 -22764298.26748  17768672.52848
 -14233173.39106  19698183.54006 -11079623.92547  19698180.48947
 08 11 15  2  8 59.9890000  0  8  3  6  7 13 16 19 25 27
 -30887806.50407  17016015.36007 -24050507.36448  17016012.25948
 -20501675.89107  18097681.61807 -15956260.81748  18097678.32548
 -20713379.78107  18288405.14207 -16133117.54348  18288401.86848
 -18885088.07406  19976617.66506 -14708999.00047  19976614.71647
  -3878923.25006  19596189.65706  -3016922.99747  19596184.72847
 -32119497.20307  16999224.07907 -25014808.11549  16999218.64249
 -29289025.43007  17755640.11007 -22817677.64848  17755636.49748
 -14355622.70306  19674882.51706 -11175038.96347  19674879.36047
 08 11 15  2  9 29.9890000  0  8  3  6  7 13 16 19 25 27
 -30886828.37906  17016201.21206 -24049745.19448  17016197.94248
 -20484985.72307  18100857.99307 -15943255.49148  18100854.43948
 -20822767.82807  18267589.31407 -16218354.99748  18267585.93948
 -18856343.45305  19982087.79805 -14686600.63346  19982084.77146
  -3858165.39106  19600139.43906  -3000748.05347  19600135.84947
 -32177367.60507  16988211.77507 -25059901.94149  16988206.37249
 -29357012.89507  17742702.47007 -22870654.90148  17742699.63448
 -14477787.18806  19651635.01706 -11270232.06247  19651632.21247
 08 11 15  2  9 59.9890000  0  8  3  6  7 13 16 19 25 27
 -30885512.98006  17016451.61806 -24048720.21648  17016448.61848
 -20468081.66807  18104074.32107 -15930083.51948  18104071.68148
 -20931715.54307  18246857.27507 -16303249.32248  18246854.43148
 -18827291.31606  19987617.46206 -14663962.67946  19987613.59546
  -3837261.17606  19604117.49306  -2984459.12147  19604113.81047
 -32234797.41407  16977283.34507 -25104652.43349  16977277.82549
 -29424485.36707  17729862.86007 -22923230.87048  17729860.27148
 -14599667.03906  19628441.44606 -11365203.37047  19628439.32147
 08 11 15  2 10 29.9890000  0  9  3  6  7 11 13 16 19 25 27
 -30883863.84406  17016765.60306 -24047435.18348  17016762.29448
 -20450967.71107  18107331.39207 -15916747.98448  18107328.02548
 -21040222.88307  18226209.53207 -16387800.49848  18226205.22848
   -287642.66016  20702168.72006   -211734.39457  20702166.09947
 -18797937.36706  19993202.64206 -14641089.48447  19993199.41147
  -3816213.01206  19608122.90706  -2968057.96247  19608119.13447
 -32291789.88306  16966437.88406 -25149062.14249  16966432.53249
 -29491444.13707  17717121.00107 -22975406.52348  17717118.09548
 -14721262.29306  19605303.07906 -11459952.90747  19605300.55247
 08 11 15  2 10 59.9890000  0  9  3  6  7 11 13 16 19 25 27
 -30881885.44107  17017141.79807 -24045893.57548  17017139.00948
 -20433648.04307  18110627.45407 -15903252.16948  18110624.74748
 -21148289.73007  18205644.90707 -16472008.41948  18205640.68148
   -446215.80506  20671993.07906   -335297.77246  20671990.25146
 -18768286.94506  19998844.44606 -14617985.28046  19998841.69646
  -3795023.10906  19612154.75906  -2951546.39347  19612151.10347
 -32348348.02307  16955675.04007 -25193133.43349  16955669.58749
 -29557890.26607  17704476.79807 -23027182.73248  17704473.87648
 -14842573.00806  19582218.75106 -11554480.73547  19582215.49747
 08 11 15  2 11 29.9890000  0  9  3  6  7 11 13 16 19 25 27
 -30879581.48407  17017580.21207 -24044098.30048  17017577.64248
 -20416125.98406  18113961.49306 -15889598.63748  18113958.47848
 -21255915.35907  18185164.60307 -16555872.54748  18185160.32148
   -604733.29306  20641827.36006   -458817.81046  20641825.22046
 -18738345.05906  20004542.66506 -14594653.98146  20004539.87246
  -3773693.22306  19616214.00106  -2934925.75347  19616209.71647
 -32404474.60507  16944994.60307 -25236868.41949  16944989.40049
 -29623824.32407  17691930.07107 -23078559.93248  17691927.14248
 -14963598.44106  19559187.69606 -11648786.25447  19559185.08347
 08 11 15  2 11 59.9890000  0  9  3  6  7 11 13 16 19 25 27
 -30876949.69907  17018081.30607 -24042047.55648  17018078.47048
 -20398399.21107  18117334.74307 -15875785.57348  18117331.76348
 -21363093.28107  18164768.77507 -16639387.81748  18164764.60348
   -763188.93806  20611675.87606   -582289.66147  20611671.41147
 -18708110.95706  20010295.39206 -14571094.96447  20010293.71247
  -3752219.30106  19620300.58706  -2918192.85647  19620296.94647
 -32460166.19507  16934396.75107 -25280264.46349  16934391.80249
 -29689241.31307  17679481.65707 -23129534.20848  17679478.38448
 -15084332.16806  19536212.98506 -11742864.49447  19536209.85747
 08 11 15  2 12 29.9890000  0  9  3  6  7 11 13 16 19 25 27
 -30873988.29707  17018644.62607 -24039739.98648  17018641.68948
 -20380466.14507  18120747.50107 -15861811.77448  18120744.07148
 -21469817.69907  18144460.25907 -16722549.69148  18144456.07548
   -921576.73406  20581534.28206   -705708.60046  20581531.97446
 -18677584.43806  20016104.08706 -14547308.11147  20016102.15347
  -3730597.78906  19624414.91506  -2901344.93047  19624411.27547
 -32515420.32807  16923882.22007 -25323319.64149  16923877.05249
 -29754136.55107  17667132.71207 -23180101.93748  17667128.62648
 -15204768.28106  19513294.64206 -11836710.80547  19513291.64247
 08 11 15  2 12 59.9890000  0  9  3  6  7 11 13 16 19 25 27
 -30870702.16807  17019270.18907 -24037179.38748  17019267.28248
 -20362331.12507  18124198.54807 -15847680.62048  18124195.27848
 -21576089.25007  18124237.16507 -16805358.69948  18124233.20848
  -1079897.32806  20551406.93106   -829075.19146  20551403.91946
 -18646771.78105  20021967.57905 -14523298.30746  20021966.14246
  -3708831.64806  19628556.40006  -2884384.32047  19628553.53247
 -32570240.53107  16913450.44607 -25366036.67849  16913445.43149
 -29818511.95307  17654882.06407 -23230264.59248  17654878.02848
 -15324907.69106  19490433.41506 -11930325.91647  19490430.05647
 08 11 15  2 13 29.9890000  0  9  3  6  7 11 13 16 19 25 27
 -30867093.08207  17019956.64207 -24034367.12248  17019954.02148
 -20343996.12906  18127686.95406 -15833393.62248  18127683.77848
 -21681905.39107  18104101.22007 -16887812.82348  18104097.52848
  -1238147.90606  20521293.73506   -952387.24446  20521289.72846
 -18615675.94905  20027884.86005 -14499067.81346  20027884.29846
  -3686920.50406  19632726.64206  -2867310.73547  19632722.88047
 -32624627.87907  16903101.05607 -25408416.44249  16903095.11449
 -29882366.30107  17642731.01707 -23280021.23148  17642727.13448
 -15444747.79706  19467628.76706 -12023707.82847  19467625.19647
 08 11 15  2 13 59.9890000  0  9  3  6  7 11 13 16 19 25 27
 -30863161.73407  17020705.07907 -24031303.74848  17020702.14648
 -20325461.48807  18131214.37607 -15818951.08048  18131211.28248
 -21787262.77007  18084052.17307 -16969909.48248  18084048.16548
  -1396324.94905  20491191.68905  -1075641.97146  20491189.47046
 -18584299.25406  20033856.08706 -14474618.56746  20033853.71246
  -3664863.37106  19636923.36006  -2850123.38447  19636920.22447
 -32678581.66807  16892833.79807 -25450458.36449  16892827.79049
 -29945697.49607  17630679.40707 -23329370.22248  17630676.48248
 -15564285.16006  19444881.29806 -12116853.84247  19444877.89247
 08 11 15  2 14 29.9890000  0  9  3  6  7 11 13 16 19 25 27
 -30858907.88707  17021514.35307 -24027989.08348  17021511.76748
 -20306726.97707  18134779.86007 -15804352.77748  18134776.75148
 -21892157.44507  18064091.45407 -17051645.59648  18064088.06748
  -1554423.80106  20461106.87606  -1198835.78247  20461104.10347
 -18552642.90205  20039880.22005 -14449951.29646  20039877.09146
  -3642658.63706  19641149.40706  -2832821.00847  19641146.06447
 -32732101.05107  16882649.44607 -25492161.77849  16882643.49349
 -30008502.55107  17618728.09507 -23378309.23548  17618725.24348
 -15683515.33206  19422192.75106 -12209760.48547  19422189.31447
 08 11 15  2 14 59.9890000  0  9  3  6  7 11 13 16 19 25 27
 -30854334.08207  17022384.91507 -24024425.09448  17022382.12248
 -20287794.85906  18138382.17306 -15789600.48848  18138379.98548
 -21996587.03107  18044218.48507 -17133019.28548  18044215.61848
  -1712442.96506  20431037.97006  -1321967.51946  20431033.66146
 -18520710.94906  20045957.57906 -14425069.27347  20045954.69247
  -3620306.54306  19645402.42306  -2815403.81647  19645399.06047
 -32785187.52307  16872547.43907 -25533527.87649  16872541.76349
 -30070780.92207  17606876.78207 -23426837.84948  17606874.19248
 -15802436.72306  19399562.97806 -12302426.48847  19399560.65347
 08 11 15  2 15 29.9890000  0  9  3  6  7 11 13 16 19 25 27
 -30849442.15607  17023315.85307 -24020613.22048  17023312.94248
 -20268666.84407  18142022.08707 -15774695.57648  18142019.27148
 -22100549.58607  18024435.70407 -17214029.07048  18024431.50548
  -1870379.93806  20400982.55606  -1445035.16346  20400978.98546
 -18488506.61306  20052085.92306 -14399975.00047  20052082.94647
  -3597807.17206  19649684.25906  -2797871.88547  19649680.31747
 -32837842.21507  16862527.64207 -25574557.49349  16862522.28649
 -30132531.95707  17595125.92307 -23474955.53248  17595122.84548
 -15921047.26206  19376991.10306 -12394850.26147  19376989.50947
 08 11 15  2 15 59.9890000  0  9  3  6  7 11 13 16 19 25 27
 -30844232.64507  17024307.28207 -24016553.87648  17024304.54848
 -20249343.34407  18145699.32107 -15759638.29548  18145696.47048
 -22204041.02307  18004742.00907 -17294671.76048  18004738.01348
  -2028230.90606  20370944.07106  -1568035.80247  20370940.70447
 -18456031.72706  20058265.77506 -14374669.93847  20058262.59947
  -3575159.15206  19653993.75906  -2780224.07547  19653990.57147
 -32890064.54707  16852589.86807 -25615250.23149  16852584.48549
 -30193753.17607  17583476.52507 -23522660.39548  17583473.32948
 -16039343.26606  19354480.43906 -12487028.93947  19354478.06047
 08 11 15  2 16 29.9890000  0  9  3  6  7 11 13 16 19 25 27
 -30838708.28907  17025358.28207 -24012249.20648  17025355.28248
 -20229826.63707  18149412.86807 -15744430.51848  18149410.53248
 -22307060.30107  17985137.93907 -17374946.51148  17985134.18948
  -2185993.93006  20340924.33706  -1690967.95747  20340920.34147
 -18423290.34006  20064496.05606 -14349157.22347  20064493.08347
  -3552363.19506  19658331.26706  -2762461.02547  19658327.99347
 -32941856.03907  16842734.54007 -25655607.24249  16842728.77549
 -30254444.37907  17571926.92307 -23569952.23848  17571923.98948
 -16157322.85506  19332029.91506 -12578961.10047  19332027.21647
 08 11 15  2 16 59.9890000  0  9  3  6  7 11 13 16 19 25 27
 -30832870.01207  17026469.15707 -24007699.91748  17026466.40348
 -20210117.89107  18153163.78207 -15729073.05148  18153160.64648
 -22409604.53107  17965624.36007 -17454851.09348  17965621.15348
  -2343666.31606  20310919.60306  -1813829.48147  20310916.41147
 -18390285.49206  20070776.21206 -14323439.22647  20070773.35747
  -3529418.78506  19662697.84506  -2744582.29747  19662694.78647
 -32993217.44107  16832960.67307 -25695629.11549  16832955.24349
 -30314604.12107  17560479.20407 -23616829.97248  17560475.92748
 -16274983.26206  19309639.94606 -12670644.52147  19309636.81047
 08 11 15  2 17 29.9890000  0  9  3  6  7 11 13 16 19 25 27
 -30826720.84407  17027639.44607 -24002908.35948  17027636.58748
 -20190219.67607  18156950.18907 -15713567.96048  18156947.02848
 -22511672.26207  17946201.69607 -17534384.41248  17946197.55648
  -2501246.25806  20280932.57106  -1936618.91246  20280929.45846
 -18357021.10906  20077107.32106 -14297518.95747  20077104.14247
  -3506327.14106  19667092.25906  -2726588.83147  19667089.76347
 -33044150.48008  16823268.43908 -25735317.21049  16823262.85349
 -30374232.46107  17549131.99307 -23663293.62448  17549129.06448
 -16392323.41006  19287310.47006 -12762078.39647  19287307.71247
 08 11 15  2 17 59.9890000  0  9  3  6  7 11 13 16 19 25 27
 -30820260.56607  17028868.86807 -23997874.39248  17028865.88848
 -20170131.79706  18160772.88406 -15697915.09348  18160769.95448
 -22613259.38306  17926870.30606 -17613543.20448  17926866.78648
  -2658729.32006  20250964.41506  -2059332.85446  20250961.48546
 -18323498.52306  20083485.96206 -14271397.51046  20083482.64646
  -3483085.67206  19671514.97806  -2708478.63747  19671511.32547
 -33094653.98407  16813657.97007 -25774670.58349  16813652.02149
 -30433326.44907  17537886.89207 -23709340.89348  17537883.38448
 -16509338.75406  19265043.63406 -12853259.16547  19265040.46247
 08 11 15  2 18 29.9890000  0  9  3  6  7 11 13 16 19 25 27
 -30813492.90207  17030156.55607 -23992600.89048  17030153.64648
 -20149857.60206  18164630.35306 -15682117.01748  18164628.47048
 -22714365.46507  17907630.75907 -17692327.16748  17907626.32548
  -2816114.87906  20221015.72006  -2181970.95546  20221011.23246
 -18289722.80906  20089913.40006 -14245078.81046  20089910.79846
  -3459696.77006  19675965.75906  -2690253.53247  19675962.77847
 -33144730.77007  16804128.56407 -25813691.46449  16804122.72449
 -30491887.06607  17526743.09507 -23754972.54248  17526739.72848
 -16626028.95706  19242837.90706 -12944186.60247  19242835.03647
 08 11 15  2 18 59.9880000  0  9  3  6  7 11 13 16 19 25 27
 -30806420.18407  17031502.85607 -23987089.69748  17031499.64548
 -20129400.05907  18168523.59807 -15666176.09348  18168520.88748
 -22814985.36706  17888482.95706 -17770732.28148  17888479.29348
  -2973395.92606  20191087.09806  -2304527.56146  20191081.72346
 -18255699.41006  20096388.26206 -14218567.10547  20096385.12547
  -3436161.40606  19680444.10606  -2671914.32347  19680441.29747
 -33194381.12107  16794680.19907 -25852380.03749  16794674.70749
 -30549912.27707  17515701.33207 -23800187.00148  17515698.23848
 -16742388.28906  19220695.79306 -13034856.20648  19220692.87948
 08 11 15  2 19 29.9880000  0  9  3  6  7 11 13 16 19 25 27
 -30799044.36307  17032906.29307 -23981342.30448  17032903.48448
 -20108759.53106  18172451.59006 -15650092.57448  18172449.07048
 -22915123.84007  17869427.29307 -17848762.24848  17869423.53548
  -3130580.46506  20161173.05906  -2427008.90747  20161170.95347
 -18221429.12906  20102908.29306 -14191863.00747  20102906.32847
  -3412478.32006  19684950.98806  -2653460.01947  19684947.47747
 -33243609.25407  16785312.58207 -25890739.63549  16785306.89549
 -30607405.13307  17504761.07407 -23844986.63748  17504757.84848
 -16858422.43406  19198615.13706 -13125272.42747  19198611.71547
 08 11 15  2 19 59.9880000  0  9  3  6  7 11 13 16 19 25 27
 -30791365.68407  17034367.18407 -23975358.93348  17034364.91448
 -20087936.51607  18176413.84807 -15633866.87248  18176411.96148
 -23014773.53507  17850464.94907 -17926411.37648  17850461.28148
  -3287658.80106  20131282.05106  -2549407.57447  20131279.14547
 -18186914.77006  20109476.91006 -14164968.76047  20109475.38747
  -3388646.57006  19689485.84806  -2634889.85747  19689483.04347
 -33292412.75807  16776025.77707 -25928768.32649  16776019.79349
 -30664361.16007  17493922.62107 -23889367.96348  17493919.68848
 -16974123.55506  19176597.34806 -13215429.12247  19176594.58247
 08 11 15  2 20 29.9880000  0  9  3  6  7 11 13 16 19 25 27
 -30783386.66407  17035885.73107 -23969141.51848  17035883.35648
 -20066933.91007  18180410.31707 -15617501.20848  18180407.70748
 -23113933.16807  17831595.14507 -18003678.61748  17831591.86748
  -3444629.84006  20101414.07406  -2671722.65947  20101408.21547
 -18152160.51205  20116090.75405 -14137887.56446  20116087.73846
  -3364667.24606  19694048.59006  -2616204.69347  19694046.03547
 -33340793.64807  16766819.19207 -25966467.72249  16766813.53949
 -30720780.55907  17483186.40207 -23933331.13248  17483183.40248
 -17089490.41406  19154643.73106 -13305325.37948  19154641.77048
 08 11 15  2 20 59.9880000  0  9  3  6  7 11 13 16 19 25 27
 -30775110.99607  17037460.90207 -23962692.95648  17037457.71948
 -20045754.83207  18184441.16007 -15600998.04448  18184439.32448
 -23212602.50007  17812818.92607 -18080563.83248  17812815.54348
  -3601492.84006  20071563.25406  -2793953.51647  20071559.78947
 -18117171.71505  20122748.58205 -14110623.61046  20122744.69546
  -3340541.79706  19698640.47306  -2597405.68047  19698636.73847
 -33388754.52707  16757692.56707 -26003839.84049  16757686.84049
 -30776664.45307  17472552.10607 -23976877.02748  17472549.39948
 -17204522.39506  19132754.66006 -13394960.68447  19132751.40247
 08 11 15  2 21 29.9880000  0  9  3  6  7 11 13 16 19 25 27
 -30766535.62507  17039092.50407 -23956010.86948  17039089.43848
 -20024396.23807  18188505.41807 -15584355.00148  18188502.87948
 -23310774.73007  17794137.59007 -18157061.66948  17794133.70348
  -3758240.35205  20041733.18405  -2916094.36247  20041730.86747
 -18081946.91805  20129452.00405 -14083175.72446  20129447.78546
  -3316265.57806  19703260.16806  -2578489.16147  19703256.76647
 -33436292.01207  16748646.36307 -26040882.05049  16748641.03549
 -30832007.31607  17462020.73807 -24020001.34648  17462017.48848
 -17319212.61706  19110929.70706 -13484329.67248  19110926.44248
 08 11 15  2 21 59.9880000  0  9  3  6  7 11 13 16 19 25 27
 -30757663.91407  17040780.52007 -23949097.85248  17040777.61748
 -20002860.77306  18192603.53506 -15567574.13648  18192600.52448
 -23408448.37106  17775551.07406 -18233171.00048  17775547.06348
  -3914870.89106  20011928.04306  -3038144.09947  20011924.85947
 -18046490.17205  20136198.53505 -14055547.18246  20136195.01646
  -3291839.86306  19707908.80106  -2559456.17247  19707905.13347
 -33483408.04707  16739680.73807 -26077595.83849  16739675.34049
 -30886809.34807  17451592.41007 -24062704.23848  17451589.03948
 -17433559.66806  19089169.80906 -13573431.26047  19089166.99247
 08 11 15  2 22 29.9880000  0  9  3  6  7 11 13 16 19 25 27
 -30748499.37907  17042524.37107 -23941956.66948  17042521.54748
 -19981151.97306  18196734.38706 -15550658.18848  18196731.63748
 -23505623.27307  17757058.94907 -18308891.69748  17757055.22748
  -4071384.03106  19982146.27706  -3160102.34947  19982141.91447
 -18010806.94905  20142989.55105 -14027742.14046  20142986.18846
  -3267266.50406  19712584.51206  -2540308.13047  19712580.62547
 -33530105.54307  16730794.12907 -26113983.49449  16730788.79749
 -30941071.95707  17441266.11307 -24104986.79148  17441263.07048
 -17547563.40206  19067475.89506 -13662265.34847  19067472.82447
 08 11 15  2 22 59.9880000  0  9  3  6  7 11 13 16 19 25 27
 -30739040.12907  17044324.34007 -23934585.83148  17044322.05948
 -19959267.82406  18200898.85606 -15533605.60348  18200896.24248
 -23602293.97707  17738663.37107 -18384219.50848  17738659.75848
  -4227773.81305  19952385.14505  -3281964.50447  19952381.90647
 -17974896.83205  20149822.54305 -13999760.28546  20149819.61746
  -3242542.03506  19717288.69206  -2521042.33647  19717285.17247
 -33576382.12507  16721988.14507 -26150043.16949  16721982.93449
 -30994790.78907  17431043.95707 -24146845.61548  17431040.70748
 -17661217.72306  19045848.09006 -13750827.15847  19045845.18447
 08 11 15  2 23 29.9880000  0  9  3  6  7 11 13 16 19 25 27
 -30729292.39107  17046179.62107 -23926990.19948  17046177.22348
 -19937214.48407  18205095.65207 -15516421.21348  18205093.08248
 -23698462.86707  17720362.87907 -18459156.30648  17720358.96948
  -4384042.07005  19922648.74605  -3403731.92947  19922644.35947
 -17938767.81305  20156697.76205 -13971607.84946  20156694.68046
  -3217671.18806  19722022.25406  -2501662.45447  19722017.78147
 -33622243.58607  16713260.77707 -26185779.37949  16713255.80149
 -31047969.74207  17420923.99607 -24188283.77348  17420920.84048
 -17774525.08606  19024286.36306 -13839118.60547  19024283.89147
 08 11 15  2 23 59.9880000  0  9  3  6  7 11 13 16 19 25 27
 -30719259.38707  17048088.64507 -23919172.29148  17048086.10248
 -19914994.88707  18209323.15207 -15499107.25748  18209320.67648
 -23794129.09407  17702158.41807 -18533701.41748  17702154.46148
  -4540187.44106  19892933.75406  -3525403.62847  19892930.87947
 -17902424.34005  20163614.02705 -13943288.29746  20163611.61346
  -3192654.76206  19726782.12106  -2482169.18047  19726778.21547
 -33667692.00007  16704612.40207 -26221193.74049  16704607.18449
 -31100609.51607  17410907.01207 -24229301.79048  17410903.69548
 -17887484.44506  19002790.84006 -13927138.85547  19002788.33647
 08 11 15  2 24 29.9880000  0  9  3  6  7 11 13 16 19 25 27
 -30708939.33607  17050052.73807 -23911130.70948  17050049.84448
 -19892606.59406  18213583.74606 -15481661.85948  18213581.50848
 -23889286.39807  17684050.42607 -18607849.97748  17684046.68848
  -4696203.69506  19863247.29306  -3646974.72747  19863242.16047
 -17865866.07806  20170570.59006 -13914801.32146  20170568.83246
  -3167489.08606  19731571.00406  -2462559.62347  19731567.95347
 -33712724.87107  16696042.66807 -26256284.29549  16696037.71149
 -31152705.51607  17400993.52007 -24269896.08848  17400990.42648
 -18000089.57806  18981363.34806 -14014883.12648  18981360.20748
 08 11 15  2 24 59.9880000  0 10  3  6  7  8 11 13 16 19 25 27
 -30698336.96107  17052070.65207 -23902869.13348  17052067.85948
 -19870054.30106  18217875.63706 -15464088.68848  18217872.91448
 -23983935.96907  17666039.43407 -18681602.88648  17666035.39948
   -277153.64113  20631297.16003   -203788.01156  20631294.44546
  -4852091.47706  19833581.31706  -3768445.68047  19833577.32447
 -17829099.21906  20177567.48106 -13886151.87946  20177564.35946
  -3142177.24606  19736388.04306  -2442836.15047  19736384.86747
 -33757345.93007  16687551.84807 -26291053.95049  16687546.48449
 -31204260.23007  17391183.19207 -24310068.59648  17391179.85648
 -18112341.48806  18960002.22306 -14102352.15247  18959999.04347
 08 11 15  2 25 29.9880000  0 10  3  6  7  8 11 13 16 19 25 27
 -30687458.89507  17054140.48107 -23894392.72948  17054137.49648
 -19847344.23407  18222196.97307 -15446392.54648  18222195.29348
 -24078080.44907  17648123.73107 -18754962.22448  17648120.37948
   -429942.39505  20602222.43405   -322844.13046  20602220.23146
  -5007852.88305  19803940.41805  -3889818.17546  19803936.97746
 -17792131.95705  20184601.43405 -13857346.30046  20184599.23146
  -3116724.00406  19741232.00406  -2423002.48747  19741227.55547
 -33801561.11307  16679137.84007 -26325507.33749  16679132.51649
 -31255277.84807  17381474.85607 -24349822.59948  17381471.59048
 -18224242.55906  18938707.91806 -14189547.78348  18938705.50848
 08 11 15  2 25 59.9880000  0 10  3  6  7  8 11 13 16 19 25 27
 -30676306.98807  17056262.21507 -23885702.94348  17056260.12548
 -19824478.39806  18226548.99606 -15428575.03248  18226546.32048
 -24171718.32407  17630305.27007 -18827926.79748  17630301.57048
   -582566.19505  20573179.19205   -441771.72347  20573177.12147
  -5163485.86306  19774324.33206  -4011090.56247  19774321.49247
 -17754967.99205  20191674.08205 -13828387.46446  20191671.04346
  -3091129.73006  19746101.37906  -2403058.89047  19746098.87147
 -33845372.02307  16670800.89507 -26359645.71149  16670796.11749
 -31305758.12107  17371868.69207 -24389157.89148  17371865.19948
 -18335790.87106  18917480.93406 -14276468.52147  18917478.57447
 08 11 15  2 26 29.9880000  0 10  3  6  7  8 11 13 16 19 25 27
 -30664882.67607  17058436.48807 -23876800.90148  17058434.08648
 -19801458.16807  18230929.21507 -15410637.20048  18230926.71548
 -24264847.38707  17612583.77707 -18900494.87648  17612579.92648
   -735022.62505  20544167.91005   -560568.93746  20544165.11346
  -5318987.80106  19744733.02706  -4132260.89146  19744729.61346
 -17717610.59806  20198783.66006 -13799277.82346  20198780.21146
  -3065394.34806  19750999.49606  -2383005.43247  19750996.30147
 -33888779.91407  16662540.70707 -26393470.05649  16662535.62549
 -31355700.45306  17362364.97306 -24428073.99148  17362361.40248
 -18446984.16006  18896321.81706 -14363112.65048  18896318.21548
 08 11 15  2 26 59.9880000  0 10  3  6  7  8 11 13 16 19 25 27
 -30653186.02007  17060662.34807 -23867686.63648  17060659.34848
 -19778283.03907  18235339.60607 -15392578.68248  18235337.12148
 -24357463.50007  17594959.15207 -18972663.27348  17594955.26648
   -887306.38704  20515188.75404   -679231.61047  20515186.47747
  -5474354.29306  19715167.90206  -4253325.67346  19715164.04346
 -17680060.75806  20205928.67606 -13770018.26846  20205924.78946
  -3039516.10506  19755923.91806  -2362840.58247  19755921.11347
 -33931783.77007  16654357.41007 -26426979.53949  16654351.98149
 -31405102.27307  17352964.14507 -24466568.93648  17352960.94948
 -18557818.45706  18875230.37906 -14449477.03647  18875227.43047
 08 11 15  2 27 29.9880000  0 10  3  6  7  8 11 13 16 19 25 27
 -30641214.62907  17062940.44907 -23858358.30548  17062937.59848
 -19754950.56606  18239779.48106 -15374397.57448  18239776.73848
 -24449560.74207  17577434.27007 -19044427.37148  17577429.95748
  -1039410.59805  20486244.74605   -797754.29946  20486241.79346
  -5629578.47706  19685630.73106  -4374279.58247  19685627.17647
 -17642317.91805  20213109.89505 -13740608.29046  20213107.27046
  -3013490.41805  19760875.95705  -2342560.87547  19760873.69547
 -33974380.56607  16646251.48107 -26460171.84949  16646246.13349
 -31453959.04307  17343667.21507 -24504639.15048  17343663.80548
 -18668287.12906  18854209.32406 -14535556.51048  18854206.23148
 08 11 15  2 27 59.9880000  0 10  3  6  7  8 11 13 16 19 25 27
 -30628967.47707  17065270.91007 -23848815.07648  17065267.55948
 -19731459.08206  18244249.88706 -15356092.53148  18244247.56348
 -24541133.77307  17560008.27007 -19115782.96948  17560004.47348
  -1191329.44505  20457335.58205   -916132.62346  20457331.98846
  -5784654.64506  19656120.17606  -4495118.11347  19656116.83647
 -17604382.24206  20220330.62106 -13711048.06646  20220326.21146
  -2987314.54305  19765857.26205  -2322164.11447  19765854.52447
 -34016568.15607  16638223.56707 -26493045.30249  16638217.94249
 -31502267.14107  17334474.03507 -24542281.82848  17334470.89948
 -18778384.59406  18833258.23106 -14621346.73648  18833254.96948
 08 11 15  2 28 29.9880000  0 10  3  6  7  8 11 13 16 19 25 27
 -30616450.25407  17067652.97307 -23839061.41348  17067650.19948
 -19707813.96107  18248749.40207 -15337667.78548  18248746.89948
 -24632184.53907  17542681.44207 -19186731.62148  17542678.08248
  -1343064.09405  20428461.66005  -1034367.40646  20428458.37146
  -5939584.65206  19626637.70706  -4615842.77747  19626633.77447
 -17566260.89506  20227584.11306 -13681343.15646  20227579.41446
  -2960992.77706  19770866.46506  -2301653.68447  19770863.89547
 -34058352.03907  16630272.43407 -26525604.17549  16630266.54349
 -31550030.03507  17325385.63707 -24579499.67748  17325382.34848
 -18888112.96106  18812377.83206 -14706849.35548  18812374.64148
 08 11 15  2 28 59.9880000  0 10  3  6  7  8 11 13 16 19 25 27
 -30603661.52707  17070086.46507 -23829096.18148  17070083.75448
 -19684013.84406  18253277.80906 -15319122.26348  18253275.69548
 -24722708.41407  17525455.44907 -19257269.69148  17525451.97748
  -1494608.46906  20399624.02006  -1152453.90847  20399620.77747
  -6094362.62506  19597184.41806  -4736448.96447  19597181.04747
 -17527954.49606  20234873.98806 -13651494.07746  20234870.78946
  -2934521.75006  19775903.59806  -2281026.94147  19775900.52047
 -34099730.19507  16622398.24607 -26557846.88149  16622392.57049
 -31597244.38707  17316401.14507 -24616290.09748  17316397.82048
 -18997467.05506  18791568.14506 -14792060.32147  18791565.68447
 08 11 15  2 29 29.9880000  0 10  3  6  7  8 11 13 16 19 25 27
 -30590604.08207  17072571.23807 -23818921.58248  17072568.43048
 -19660061.20706  18257836.23806 -15300457.90648  18257833.76248
 -24812704.33207  17508329.27707 -19327396.38848  17508326.35248
  -1645960.85206  20370822.31706  -1270390.83746  20370819.46546
  -6248987.21506  19567759.85606  -4856935.58947  19567756.44947
 -17489467.17206  20242197.73806 -13621504.01346  20242196.14546
  -2907902.56306  19780969.09806  -2260284.76047  19780965.68047
 -34140705.00407  16614601.12907 -26589775.32149  16614595.19549
 -31643910.84807  17307520.70707 -24652653.58148  17307517.03548
 -19106445.86706  18770830.52706 -14876978.86748  18770827.04748
 08 11 15  2 29 59.9880000  0 10  3  6  7  8 11 13 16 19 25 27
 -30577279.88707  17075106.84807 -23808539.11648  17075103.71148
 -19635957.74206  18262423.64506 -15281675.98948  18262420.78148
 -24902170.53907  17491304.87907 -19397110.32248  17491301.73148
  -1797118.67606  20342057.55106  -1388176.10547  20342055.49247
  -6403455.76206  19538366.17606  -4977300.68047  19538361.31747
 -17450802.49606  20249556.16006 -13591375.69947  20249553.16047
  -2881135.28106  19786063.17606  -2239427.20147  19786059.08247
 -34181277.49207  16606880.27707 -26621390.24149  16606874.87949
 -31690029.06606  17298744.73106 -24688589.85448  17298741.34848
 -19215047.06306  18750164.34806 -14961603.17647  18750160.68047
 08 11 15  2 30 29.9880000  0 10  3  6  7  8 11 13 16 19 25 27
 -30563691.59407  17077692.67607 -23797950.84648  17077689.68848
 -19611706.09407  18267037.68407 -15262778.62948  18267036.23848
 -24991106.02307  17474381.35607 -19466410.69948  17474377.44948
  -1948080.22306  20313330.65206  -1505808.50447  20313328.16047
  -6557767.68006  19509001.07406  -5097543.70947  19508996.87147
 -17411964.94906  20256945.16806 -13561112.67646  20256943.33246
  -2854221.15606  19791184.33206  -2218455.16847  19791180.02047
 -34221450.38307  16599235.75407 -26652693.79649  16599230.12949
 -31735599.87907  17290073.11307 -24724099.59948  17290069.64948
 -19323269.62506  18729569.86306 -15045932.43747  18729566.70347
 08 11 15  2 30 59.9880000  0 10  3  6  7  8 11 13 16 19 25 27
 -30549837.62906  17080328.98806 -23787155.55848  17080326.18848
 -19587304.03106  18271681.52006 -15243764.05648  18271679.60248
 -25079505.58207  17457559.06707 -19535293.47848  17457555.32848
  -2098838.78106  20284642.54306  -1623282.64147  20284640.15647
  -6711916.40606  19479668.04306  -5217659.61647  19479663.71947
 -17372953.89506  20264369.71506 -13530714.46746  20264367.21146
  -2827156.80106  19796334.74606  -2197366.11247  19796330.30947
 -34261220.91407  16591667.57407 -26683683.81249  16591661.93449
 -31780619.44506  17281505.74606 -24759179.78248  17281502.39948
 -19431107.56306  18709049.19206 -15129962.00648  18709045.69548
 08 11 15  2 31 29.9880000  0 10  3  6  7  8 11 13 16 19 25 27
 -30535720.78506  17083015.19206 -23776155.43148  17083013.09848
 -19562754.10207  18276353.39507 -15224634.24948  18276350.94948
 -25167368.24607  17440839.11307 -19603757.88248  17440835.83648
  -2249392.72306  20255992.60606  -1740597.40347  20255990.35947
  -6865900.35506  19450365.93406  -5337647.07047  19450362.12147
 -17333773.92605  20271824.27705 -13500184.70546  20271822.25846
  -2799943.15606  19801513.28506  -2176160.69447  19801509.74647
 -34300591.54307  16584175.34807 -26714362.22049  16584169.90249
 -31825088.22707  17273043.65207 -24793830.78548  17273040.49648
 -19538559.76206  18688602.05106 -15213690.99647  18688599.02447
 08 11 15  2 31 59.9880000  0 10  3  6  7  8 11 13 16 19 25 27
 -30521342.82807  17085751.41007 -23764951.85548  17085748.00848
 -19538057.32406  18281052.92606 -15205390.00848  18281050.21548
 -25254692.07007  17424222.62907 -19671802.42248  17424219.06348
  -2399739.05505  20227382.15205  -1857750.32646  20227380.44246
  -7019716.41006  19421095.80106  -5457503.72947  19421092.72347
 -17294428.14105  20279312.87905 -13469525.75346  20279309.28946
  -2772580.15606  19806720.71506  -2154838.92847  19806718.04747
 -34339563.05107  16576759.37107 -26744729.63549  16576753.75849
 -31869005.77707  17264686.50407 -24828052.25448  17264682.98448
 -19645624.05906  18668227.94906 -15297117.70247  18668225.41047
 08 11 15  2 32 29.9880000  0 10  3  6  7  8 11 13 16 19 25 27
 -30506708.51607  17088536.15207 -23753548.49848  17088533.23448
 -19513218.70307  18285779.82407 -15186035.27648  18285777.48148
 -25341478.21907  17407707.40207 -19739427.98948  17407703.48448
  -2549877.75006  20198811.55106  -1974741.47446  20198809.84046
  -7173365.92206  19391857.16006  -5577230.60047  19391854.69247
 -17254923.09805  20286829.62105 -13438742.66246  20286827.42246
  -2745071.03906  19811955.77706  -2133403.28447  19811952.81747
 -34378140.18407  16569418.57407 -26774789.73649  16569413.00849
 -31912375.11707  17256433.36307 -24861846.56448  17256430.65648
 -19752301.59006  18647927.86306 -15380243.03948  18647924.93448
 08 11 15  2 32 59.9880000  0 10  3  6  7  8 11 13 16 19 25 27
 -30491819.50807  17091369.23807 -23741946.68248  17091366.73148
 -19488239.93407  18290533.24607 -15166571.30548  18290530.23848
 -25427725.09407  17391295.00407 -19806633.33448  17391291.19948
  -2699806.27006  20170281.61306  -2091568.91246  20170279.25446
  -7326846.60206  19362649.66806  -5696825.90147  19362646.96547
 -17215262.35204  20294376.18404 -13407838.21446  20294374.91846
  -2717416.21106  19817218.29306  -2111854.09947  19817214.29347
 -34416324.30507  16562152.50407 -26804543.61249  16562146.62549
 -31955196.14807  17248284.70707 -24895213.60148  17248281.69948
 -19858590.44906  18627701.94906 -15463065.51647  18627698.63347
 08 11 15  2 33 29.9880000  0 10  3  6  7  8 11 13 16 19 25 27
 -30476676.91407  17094250.80107 -23730147.27948  17094248.06348
 -19463121.18006  18295313.36306 -15146998.26048  18295310.40648
 -25513429.99207  17374986.46507 -19873416.38048  17374981.99648
  -2849520.77006  20141791.90206  -2208229.52946  20141788.82446
  -7480154.72306  19333476.73106  -5816286.71547  19333473.53947
 -17175448.14505  20301953.58205 -13376814.26546  20301951.74246
  -2689614.44106  19822508.29306  -2090190.42247  19822505.05147
 -34454115.58207  16554960.85607 -26833991.37149  16554955.32049
 -31997467.64807  17240240.89507 -24928152.43648  17240237.75448
 -19964487.53506  18607551.12106 -15545582.73948  18607547.46948
 08 11 15  2 33 59.9880000  0 10  3  6  7  8 11 13 16 19 25 27
 -30461281.54307  17097180.70707 -23718150.89948  17097177.73448
 -19437863.50806  18300119.02706 -15127316.97048  18300116.55148
 -25598590.66007  17358780.80107 -19939775.35348  17358776.70348
  -2999017.41806  20113344.06706  -2324720.42647  20113341.01647
  -7633287.07006  19304335.78506  -5935610.60047  19304333.87547
 -17135482.81306  20309559.68406 -13345672.54346  20309557.04746
  -2661665.20706  19827827.19906  -2068411.82946  19827823.79746
 -34491514.45707  16547844.33207 -26863133.35849  16547838.67249
 -32039188.77307  17232301.66007 -24960662.41748  17232299.09448
 -20069989.86706  18587474.03506 -15627792.33548  18587470.44248
 08 11 15  2 34 29.9880000  0 10  3  6  7  8 11 13 16 19 25 27
 -30445637.00807  17100157.70707 -23705960.36948  17100154.97748
 -19412470.28106  18304951.30906 -15107530.07648  18304949.54748
 -25683207.45707  17342678.82407 -20005710.52548  17342674.98148
  -3148295.66006  20084937.05906  -2441041.16146  20084934.55546
  -7786243.17606  19275230.42606  -6054797.15547  19275225.98847
 -17095372.10905  20317191.46505 -13314417.55546  20317189.59846
  -2633570.64806  19833173.19206  -2046520.01047  19833169.93847
 -34528524.54707  16540801.37907 -26891972.37949  16540795.72749
 -32080361.38307  17224466.66807 -24992744.97248  17224463.31348
 -20175097.28906  18567472.72306 -15709694.23448  18567469.27448
 08 11 15  2 34 59.9880000  0 10  3  6  7  8 11 13 16 19 25 27
 -30429743.96907  17103182.12907 -23693576.18848  17103178.86348
 -19386941.59406  18309809.46506 -15087637.61848  18309806.84448
 -25767276.38307  17326680.63707 -20071218.76248  17326677.04348
  -3297350.98806  20056572.92606  -2557188.10947  20056570.19247
  -7939019.30906  19246158.04306  -6173843.48547  19246154.32047
 -17055117.81306  20324853.63706 -13283050.63846  20324850.25446
  -2605329.08206  19838547.45706  -2024513.62147  19838543.96947
 -34565145.47707  16533832.55107 -26920508.16849  16533827.33249
 -32120983.96907  17216736.51207 -25024398.95148  17216733.12548
 -20279806.13706  18547546.96506 -15791285.53648  18547544.31348
 08 11 15  2 35 29.9880000  0 10  3  6  7  8 11 13 16 19 25 27
 -30413604.30507  17106253.43407 -23680999.83348  17106250.21148
 -19361278.69906  18314692.75406 -15067640.57748  18314689.71548
 -25850796.37907  17310787.10607 -20136299.28648  17310783.63348
  -3446180.74206  20028251.06706  -2673159.32047  20028249.23847
  -8091612.75406  19217119.84006  -6292747.46347  19217116.20347
 -17014723.31306  20332539.17606 -13251574.40746  20332535.99246
  -2576941.37106  19843949.36306  -2002393.36247  19843945.64947
 -34601378.78907  16526937.82407 -26948741.93049  16526931.98849
 -32161056.34807  17209111.07407 -25055624.18548  17209107.90248
 -20384114.54706  18527697.98806 -15872564.80148  18527694.77748
 08 11 15  2 35 59.9880000  0 10  3  6  7  8 11 13 16 19 25 27
 -30397217.66407  17109371.47307 -23668231.04348  17109368.82448
 -19335481.38306  18319601.72306 -15047538.77348  18319599.36748
 -25933763.95707  17294999.16007 -20200949.34548  17294996.03548
  -3594779.88706  19999974.16006  -2788950.82847  19999971.83647
  -8244019.30906  19188118.79306  -6411505.83447  19188114.13347
 -16974190.09806  20340251.35606 -13219990.14046  20340250.27046
  -2548405.38306  19849379.85606  -1980157.56847  19849376.68447
 -34637223.82007  16520116.81707 -26976673.13649  16520110.94549
 -32200576.55107  17201590.36307 -25086419.16148  17201587.76648
 -20488018.83206  18507925.46506 -15953529.18548  18507922.51648
 08 11 15  2 36 29.9880000  0 10  3  6  7  8 11 13 16 19 25 27
 -30380589.91007  17112535.77707 -23655274.36248  17112532.71548
 -19309554.96506  18324535.55106 -15027336.41448  18324533.18448
 -26016181.43007  17279315.61307 -20265170.73948  17279312.40648
  -3743149.39106  19971740.24606  -2904563.41047  19971736.89947
  -8396240.64106  19159150.93406  -6530119.80647  19159147.87947
 -16933525.57806  20347989.29306 -13188303.49946  20347988.03946
  -2519725.25406  19854837.76206  -1957809.47947  19854834.10647
 -34672685.73007  16513368.49607 -27004305.80249  16513362.84449
 -32239548.53507  17194174.58207 -25116786.95348  17194171.22348
 -20591520.68006  18488229.85606 -16034179.98348  18488227.48848
 08 11 15  2 36 59.9870000  0 10  3  6  7  8 11 13 16 19 25 27
 -30363722.59407  17115745.10107 -23642131.01848  17115742.80848
 -19283501.05906  18329493.01506 -15007034.68748  18329490.65548
 -26098043.49207  17263737.64007 -20328959.36048  17263734.26948
  -3891281.12906  19943552.08506  -3019990.73447  19943548.88247
  -8548268.46506  19130221.77306  -6648583.02647  19130218.11247
 -16892733.43406  20355753.17106 -13156517.46246  20355749.55046
  -2490901.18806  19860322.35906  -1935349.19847  19860319.25347
 -34707763.91407  16506693.60907 -27031639.44349  16506688.13249
 -32277970.28907  17186863.27307 -25146726.00848  17186859.95648
 -20694614.05906  18468612.13206 -16114512.49048  18468609.61248
 08 11 15  2 37 29.9870000  0  9  3  6  7  8 11 16 19 25 27
 -30346613.36707  17119001.53007 -23628799.18148  17118998.66348
 -19257316.27706  18334476.36606 -14986630.99148  18334473.58548
 -26179351.03907  17248265.39007 -20392315.88848  17248261.47648
  -4039179.14106  19915408.23406  -3135235.92247  19915404.28047
  -8700107.22306  19101327.76506  -6766898.92247  19101324.75747
  -2461928.44506  19865836.10106  -1912773.07347  19865832.88647
 -34742459.41407  16500091.23407 -27058674.90349  16500085.53849
 -32315841.25007  17179656.76507 -25176235.84548  17179653.94848
 -20797300.58606  18449071.17906 -16194527.97148  18449068.62848
 08 11 15  2 37 59.9870000  0  9  3  6  7  8 11 16 19 25 27
 -30329264.72307  17122302.83507 -23615280.76848  17122299.68348
 -19231003.39806  18339483.87406 -14966127.48148  18339481.15548
 -26260100.28107  17232899.53007 -20455237.38048  17232895.78048
  -4186835.66406  19887308.99106  -3250292.90847  19887306.28047
  -8851749.82806  19072470.82706  -6885061.98847  19072467.92147
  -2432808.49206  19871377.04606  -1890082.25247  19871373.65947
 -34776772.68807  16493561.28807 -27085412.53049  16493555.74949
 -32353160.56307  17172554.91307 -25205315.84148  17172552.24148
 -20899575.22707  18429609.25707 -16274222.50248  18429605.85948
 08 11 15  2 38 29.9870000  0  9  3  6  7  8 11 16 19 25 27
 -30311673.80107  17125650.09307 -23601573.56948  17125646.98048
 -19204559.01206  18344515.25706 -14945521.49648  18344512.90948
 -26340284.77707  17217641.03007 -20517718.80748  17217637.10148
  -4334242.48406  19859258.99906  -3365155.33447  19859255.46447
  -9003189.09406  19043652.87406  -7003066.60547  19043649.30847
  -2403536.86306  19876947.24106  -1867273.25147  19876943.80447
 -34810700.25807  16487104.92107 -27111849.58949  16487099.43349
 -32389923.57007  17165558.94407 -25233962.34848  17165555.84348
 -21001431.19106  18410226.58506 -16353590.77848  18410223.43748
 08 11 15  2 38 59.9870000  0  9  3  6  7  8 11 16 19 25 27
 -30293841.05507  17129043.49907 -23587677.94648  17129041.06948
 -19177983.53906  18349573.10106 -14924813.36348  18349569.81248
 -26419901.93407  17202490.51507 -20579758.15448  17202486.69448
  -4481396.55106  19831256.49106  -3479820.82747  19831253.31647
  -9154421.55106  19014874.72606  -7120910.06147  19014871.45247
  -2374112.70706  19882546.42106  -1844345.37247  19882543.12447
 -34844242.46507  16480722.66307 -27137986.37049  16480717.36249
 -32426129.38707  17158669.35107 -25262174.69348  17158665.78448
 -21102865.66406  18390923.60906 -16432630.61348  18390921.09348
 08 11 15  2 39 29.9870000  0  9  3  6  7  8 11 16 19 25 27
 -30275771.82007  17132481.97607 -23573598.02248  17132479.22248
 -19151281.59006  18354653.69406 -14904006.66348  18354651.58148
 -26498953.41007  17187447.29607 -20641356.70348  17187443.49948
  -4628297.91806  19803302.09306  -3594289.42747  19803299.41347
  -9305447.94106  18986135.49906  -7238592.96447  18986131.10147
  -2344539.12106  19888174.58506  -1821301.05447  19888171.15947
 -34877403.80107  16474412.13207 -27163826.37449  16474406.41349
 -32461781.27307  17151885.07707 -25289955.38848  17151881.96848
 -21203879.86706  18371701.92106 -16511342.95748  18371699.13248
 08 11 15  2 39 59.9870000  0  9  3  6  7  8 11 16 19 25 27
 -30257470.17207  17135964.49107 -23559337.01948  17135962.29248
 -19124457.35206  18359758.96806 -14883104.67348  18359756.27348
 -26577440.55507  17172511.78007 -20702515.53548  17172507.60148
  -4774946.45706  19775395.85106  -3708560.99247  19775393.28047
  -9456268.85206  18957435.07706  -7356115.73247  18957431.04647
  -2314819.02706  19893830.08506  -1798142.61547  19893826.81647
 -34910188.61707  16468173.18707 -27189372.99249  16468167.39049
 -32496881.98807  17145205.43707 -25317306.59248  17145202.62048
 -21304474.36306  18352559.17906 -16589728.28748  18352556.60948
 08 11 15  2 40 29.9870000  0  9  3  6  7  8 11 16 19 25 27
 -30238934.72707  17139491.90507 -23544893.82148  17139489.60148
 -19097509.11306  18364886.71006 -14862106.10048  18364884.72248
 -26655358.65607  17157684.30407 -20763230.92448  17157680.56248
  -4921336.07406  19747538.34306  -3822630.77847  19747536.24947
  -9606878.44906  18928774.46806  -7473473.86547  18928770.81247
  -2284949.64506  19899514.64806  -1774867.84447  19899511.21847
 -34942595.00807  16462006.24907 -27214624.72149  16462001.20649
 -32531428.55106  17138631.65506 -25344226.00348  17138628.22648
 -21404644.22307  18333497.67907 -16667782.72648  18333495.07348
 08 11 15  2 40 59.9870000  0  9  3  6  7  8 11 16 19 25 27
 -30220172.43807  17143062.92907 -23530273.87748  17143059.61648
 -19070442.96506  18370037.24906 -14841015.63147  18370034.98447
 -26732711.13707  17142964.78807 -20823505.58848  17142961.08148
  -5067468.49206  19719730.23406  -3936500.15047  19719728.17147
  -9757279.06306  18900153.94406  -7590669.12447  18900150.34747
  -2254935.84006  19905225.56206  -1751480.48547  19905222.08947
 -34974629.23807  16455910.33507 -27239586.46649  16455905.01549
 -32565426.07807  17132161.99907 -25370717.59948  17132158.88248
 -21504392.23006  18314516.24906 -16745508.43248  18314513.56948
 08 11 15  2 41 29.9870000  0  9  3  6  7  8 11 16 19 25 27
 -30201184.74607  17146675.54607 -23515478.30048  17146672.59748
 -19043260.55906  18375210.28006 -14819834.56148  18375207.66348
 -26809496.74607  17128352.76507 -20883338.52648  17128349.41348
  -5213341.09006  19691971.45206  -4050167.09447  19691969.12047
  -9907468.55506  18871574.10906  -7707699.90547  18871570.97247
  -2224778.03906  19910963.65506  -1727980.95347  19910961.57347
 -35006292.88307  16449885.24907 -27264259.42149  16449879.83949
 -32598874.76607  17125796.99107 -25396781.52348  17125793.99948
 -21603716.53506  18295615.40506 -16822903.99348  18295612.60948
 08 11 15  2 41 59.9870000  0  9  3  6  7  8 11 16 19 25 27
 -30181968.48807  17150332.41307 -23500504.58448  17150329.85548
 -19015958.10506  18380404.89806 -14798559.94247  18380402.32347
 -26885708.73807  17113850.10107 -20942724.49448  17113846.74948
  -5358945.78506  19664264.50706  -4163625.30347  19664261.29247
 -10057439.36706  18843036.14806  -7824560.28147  18843032.02647
  -2194471.12106  19916731.60906  -1704365.22447  19916728.56647
 -35037582.11307  16443931.36607 -27288640.63549  16443925.80849
 -32631769.72707  17119537.66307 -25422413.96448  17119534.39848
 -21702610.12906  18276796.56206 -16899963.93748  18276793.53848
 08 11 15  2 42 29.9870000  0  9  3  6  7  8 11 16 19 25 27
 -30162528.73407  17154031.55407 -23485356.76648  17154028.84348
 -18988540.47706  18385623.44406 -14777195.58848  18385620.39848
 -26961349.36307  17099456.19407 -21001665.23448  17099452.71048
  -5504283.25806  19636607.89806  -4276875.25947  19636604.37847
 -10207192.59006  18814539.16306  -7941251.10647  18814535.85147
  -2164018.95306  19922526.06906  -1680636.27947  19922523.56947
 -35068502.06607  16438047.23407 -27312734.10549  16438041.38249
 -32664114.78907  17113382.31207 -25447617.92848  17113378.96448
 -21801074.77707  18258059.25707 -16976689.63148  18258056.11648
 08 11 15  2 42 59.9870000  0  9  3  6  7  8 11 16 19 25 27
 -30142868.40607  17157772.86607 -23470037.02248  17157769.90148
 -18961010.35906  18390861.31906 -14755743.58048  18390859.05448
 -27036418.60907  17085171.02307 -21060160.75348  17085168.10948
  -5649351.84806  19609001.47606  -4389915.71247  19608999.21047
 -10356727.05106  18786083.25706  -8057771.46047  18786079.76947
  -2133422.95305  19928348.72605  -1656795.27847  19928346.22247
 -35099055.50007  16432232.85107 -27336541.97849  16432227.22649
 -32695911.38707  17107331.62407 -25472394.49148  17107328.14848
 -21899109.65607  18239404.03007 -17053080.44348  18239401.03048
 08 11 15  2 43 29.9870000  0  9  3  6  7  8 11 16 19 25 27
 -30122990.51607  17161555.74907 -23454547.77748  17161552.71848
 -18933370.22706  18396121.32706 -14734205.83047  18396119.03047
 -27110916.36707  17070994.61607 -21118210.96648  17070991.18348
  -5794149.84406  19581447.75706  -4502745.26547  19581444.81647
 -10506041.29706  18757670.08506  -8174120.21747  18757666.36647
  -2102684.31305  19934197.37405  -1632843.13947  19934195.48447
 -35129244.74207  16426488.34307 -27360066.07049  16426482.55849
 -32727161.02707  17101385.11607 -25496744.86248  17101382.13648
 -21996714.09007  18220830.28807 -17129135.85748  18220827.65548
 08 11 15  2 43 59.9870000  0  9  3  6  7  8 11 16 19 25 27
 -30102896.30907  17165379.28807 -23438889.96148  17165376.10948
 -18905620.90606  18401401.81906 -14712583.00847  18401399.58547
 -27184840.49607  17056927.04607 -21175814.17148  17056923.39048
  -5938673.50406  19553945.62406  -4615361.06747  19553942.33547
 -10655132.74206  18729298.47606  -8290295.33747  18729294.94847
  -2071802.87105  19940075.39805  -1608779.72346  19940071.60946
 -35159070.87107  16420812.39807 -27383307.20649  16420807.39449
 -32757863.46107  17095542.68707 -25520668.84448  17095539.25348
 -22093885.54707  18202339.06907 -17204853.86648  18202337.01148
 08 11 15  2 44 29.9870000  0  9  3  6  7  8 11 16 19 25 27
 -30082586.02307  17169244.67107 -23423063.77848  17169241.77648
 -18877762.21906  18406703.74106 -14690874.96647  18406700.28447
 -27258188.29707  17042970.19407 -21232968.31248  17042966.08948
  -6082918.71906  19526496.46806  -4727759.93047  19526493.73747
 -10803997.34806  18700969.99906  -8406293.70947  18700967.27347
  -2040777.18005  19945977.94405  -1584603.88446  19945975.88246
 -35188533.59007  16415205.79607 -27406265.15749  16415200.61249
 -32788017.46107  17089804.35107 -25544165.46948  17089801.21448
 -22190620.54707  18183931.13207 -17280231.79248  18183928.72248
 08 11 15  2 44 59.9870000  0  9  3  6  7  8 11 16 19 25 27
 -30062060.70307  17173149.96807 -23407070.05948  17173146.68348
 -18849795.12506  18412025.46806 -14669082.44047  18412022.43747
 -27330958.00807  17029122.30407 -21289671.98648  17029118.37848
  -6226881.91806  19499101.03806  -4839938.99747  19499099.10147
 -10952632.12906  18672686.41306  -8522113.02747  18672682.50347
  -2009606.99605  19951909.36605  -1560315.54947  19951907.26947
 -35217633.98407  16409668.08507 -27428940.80349  16409662.84749
 -32817622.87107  17084170.64007 -25567234.63148  17084167.56648
 -22286917.00007  18165607.15507 -17355267.98848  18165604.14848
 08 11 15  2 45 29.9870000  0  9  3  6  7  8 11 16 19 25 27
 -30041319.19107  17177097.49907 -23390907.86348  17177093.57348
 -18821718.17206  18417367.50706 -14647204.32047  18417365.93747
 -27403145.82407  17015385.08507 -21345922.23048  17015380.96048
  -6370557.52006  19471761.07706  -4951894.02347  19471758.21847
 -11101032.07406  18644447.50706  -8637749.32847  18644442.90547
  -1978290.08204  19957869.62404  -1535912.79446  19957865.96446
 -35246371.04707  16404199.78007 -27451333.31449  16404194.42949
 -32846677.55507  17078641.47607 -25589874.63948  17078639.00748
 -22382770.64507  18147366.49907 -17429959.13248  18147362.86248
 08 11 15  2 45 59.9870000  0  9  3  6  7  8 11 16 19 25 27
 -30020368.14107  17181083.56907 -23374582.37048  17181080.84348
 -18793537.50806  18422730.92906 -14625245.39448  18422728.54648
 -27474755.29707  17001758.41307 -21401721.83448  17001754.52648
  -6513947.36306  19444474.64806  -5063626.32847  19444471.63247
 -11249199.56606  18616251.46006  -8753204.49047  18616247.12447
  -1946831.03505  19963855.40505  -1511399.26247  19963853.49947
 -35274751.00407  16398799.25707 -27473447.57449  16398793.83149
 -32875186.52707  17073216.66307 -25612089.43448  17073213.51948
 -22478184.09807  18129209.98407 -17504307.27448  18129206.19148
 08 11 15  2 46 29.9870000  0  9  3  6  7  8 11 16 19 25 27
 -29999207.77307  17185109.96807 -23358093.77848  17185107.07748
 -18765253.27706  18428112.99906 -14603205.78047  18428110.84347
 -27545783.96107  16988242.08507 -21457068.85048  16988238.18348
  -6657047.38706  19417243.26506  -5175132.83847  19417240.79247
 -11397131.15206  18588100.64806  -8868475.84247  18588096.86247
  -1915228.75405  19969869.18705  -1486774.13146  19969866.84346
 -35302773.83607  16393466.70207 -27495283.54749  16393461.29649
 -32903149.18407  17067895.46807 -25633878.54148  17067892.97248
 -22573154.35207  18111137.37407 -17578310.08148  18111134.80048
 08 11 15  2 46 59.9870000  0  9  3  6  7  8 11 16 19 25 27
 -29977838.68407  17189176.97607 -23341442.57448  17189174.28048
 -18736865.45306  18433515.58506 -14581085.40747  18433512.21447
 -27616228.99207  16974836.81207 -21511961.07048  16974833.05848
  -6799853.34006  19390068.38206  -5286410.16447  19390065.96447
 -11544822.77006  18559995.76506  -8983560.18147  18559992.41747
  -1883482.90605  19975910.94405  -1462037.15846  19975908.41746
 -35330439.71907  16388201.92107 -27516841.37649  16388196.78849
 -32930564.57407  17062678.96007 -25655241.17648  17062675.40548
 -22667678.32007  18093149.96807 -17651965.09948  18093147.56248
 08 11 15  2 47 29.9870000  0  9  3  6  7  8 11 16 19 25 27
 -29956262.25807  17193283.01507 -23324629.77548  17193280.02348
 -18708374.92206  18438937.02306 -14558885.02347  18438933.74947
 -27686089.17207  16961542.74907 -21566397.59248  16961538.62048
  -6942361.91806  19362949.50706  -5397455.80247  19362947.69147
 -11692272.00006  18531938.07706  -9098455.66247  18531933.93747
  -1851593.08605  19981979.60105  -1437187.98447  19981975.98747
 -35357750.07807  16383005.06907 -27538122.18549  16382999.94149
 -32957432.76607  17057565.87407 -25676177.43948  17057562.28448
 -22761753.88707  18075248.03807 -17725270.74548  18075245.91348
 08 11 15  2 47 59.9870000  0  9  3  6  7  8 11 16 19 25 27
 -29934479.59406  17197427.74106 -23307656.29848  17197424.97648
 -18679782.59406  18444377.27306 -14536605.32047  18444374.98447
 -27755362.88307  16948360.49107 -21620377.10348  16948356.95648
  -7084569.64806  19335888.64806  -5508267.00547  19335885.76947
 -11839476.06306  18503925.10106  -9213160.07647  18503920.80447
  -1819558.91405  19988075.62405  -1412226.37346  19988072.44846
 -35384705.75007  16377875.71007 -27559126.61249  16377870.81949
 -32983753.90207  17052556.88207 -25696687.42048  17052554.06948
 -22855378.82007  18057431.85907 -17798225.23948  18057429.58948
 08 11 15  2 48 29.9870000  0  9  3  6  7  8 11 16 19 25 27
 -29912496.52707  17201611.31907 -23290526.64448  17201608.62048
 -18651094.20706  18449837.42906 -14514250.74147  18449834.24547
 -27824053.23007  16935289.27307 -21673902.06748  16935285.62048
  -7226477.90206  19308884.31906  -5618844.82547  19308881.92947
 -11986436.72306  18475959.89006  -9327674.89747  18475956.48047
  -1787384.87505  19994197.47605  -1387155.68446  19994194.76146
 -35411312.53107  16372812.38207 -27579859.16249  16372807.23449
 -33009532.73007  17047651.35907 -25716774.81148  17047648.58548
 -22948555.62107  18039700.85907 -17870830.53248  18039698.06948
 08 11 15  2 48 59.9870000  0  9  3  6  7  8 11 16 19 25 27
 -29890309.60907  17205833.28007 -23273238.16048  17205830.30048
 -18622305.78906  18455315.06206 -14491818.23348  18455313.10948
 -27892153.91807  16922330.32707 -21726967.53548  16922326.39448
  -7368078.78106  19281938.24106  -5729183.15347  19281935.75347
 -12133146.77006  18448041.31206  -9441994.34447  18448038.04247
  -1755065.93105  20000348.21005  -1361972.08946  20000344.60146
 -35437567.17207  16367816.46007 -27600317.33349  16367810.83149
 -33034764.71107  17042849.85107 -25736436.10348  17042846.85148
 -23041277.52706  18022056.39806 -17943081.38148  18022053.48048
 08 11 15  2 49 29.9870000  0  9  3  6  7  8 11 16 19 25 27
 -29867921.17207  17210093.68707 -23255792.62648  17210090.93748
 -18593419.71106  18460812.34306 -14469309.63547  18460810.16747
 -27959665.32007  16909483.14007 -21779573.83348  16909479.59348
  -7509370.55106  19255051.03806  -5839280.58547  19255049.26147
 -12279604.12506  18420171.19406  -9556116.93047  18420167.51547
  -1722603.66805  20006525.64005  -1336676.87546  20006522.83546
 -35463471.69107  16362886.95207 -27620502.67549  16362881.60549
 -33059451.43807  17038152.06907 -25755672.51748  17038148.94848
 -23133543.80907  18004499.53807 -18014977.18248  18004496.75748
 08 11 15  2 49 59.9870000  0  9  3  6  7  8 11 16 19 25 27
 -29845335.73007  17214391.89807 -23238193.58648  17214388.61248
 -18564439.31606  18466327.10906 -14446727.53947  18466324.74147
 -28026588.13707  16896748.14807 -21831721.48448  16896744.33548
  -7650351.98406  19228223.49106  -5949136.23947  19228221.40947
 -12425809.16406  18392349.52306  -9670042.89447  18392345.79247
  -1690000.48005  20012729.18705  -1311271.86447  20012727.17147
 -35489029.63707  16358023.56907 -27640417.96449  16358018.60149
 -33083595.59807  17033557.78007 -25774486.15548  17033554.53848
 -23225355.04306  17987027.39806 -18086518.38548  17987025.19148
 08 11 15  2 50 29.9870000  0  9  3  6  7  8 11 16 19 25 27
 -29822553.73406  17218726.99906 -23220441.39448  17218724.39848
 -18535364.71106  18471859.78006 -14424072.00747  18471857.40147
 -28092920.21107  16884125.45207 -21883408.84648  16884121.92948
  -7791019.33606  19201454.81206  -6058747.14047  19201452.87047
 -12571758.45306  18364576.37406  -9783769.59147  18364572.43747
  -1657255.33606  20018960.52306  -1285756.19747  20018957.80447
 -35514241.53507  16353225.64807 -27660063.60549  16353220.42949
 -33107196.76607  17029066.42107 -25792876.66748  17029062.66748
 -23316708.30507  17969644.02307 -18157702.75848  17969641.20648
 08 11 15  2 50 59.9870000  0  9  3  6  7  8 11 16 19 25 27
 -29799577.98007  17223098.93707 -23202538.21648  17223096.25748
 -18506198.57406  18477409.87406 -14401345.16747  18477407.81647
 -28158662.03107  16871615.28007 -21934636.24348  16871611.74948
  -7931370.85506  19174747.07706  -6168111.95347  19174743.26947
 -12717450.84806  18336852.50706  -9897296.10548  18336849.00748
  -1624369.79306  20025218.85906  -1260131.17647  20025215.43347
 -35539110.47707  16348493.31907 -27679442.00949  16348487.80849
 -33130256.76207  17024678.91307 -25810845.51648  17024675.71048
 -23407602.94907  17952346.93707 -18228529.74148  17952344.90948
 08 11 15  2 51 29.9870000  0  9  3  6  7  8 11 16 19 25 27
 -29776407.93806  17227508.60906 -23184483.64648  17227505.10548
 -18476940.49606  18482977.12406 -14378546.71047  18482975.26547
 -28223811.15207  16859218.16307 -21985401.76248  16859214.36248
  -8071402.05106  19148100.56206  -6277227.19947  19148097.03447
 -12862882.25806  18309176.90506 -10010619.23047  18309173.86647
  -1591342.63306  20031503.38206  -1234395.77147  20031500.51947
 -35563636.39507  16343826.57707 -27698553.12449  16343820.94849
 -33152774.78507  17020393.56207 -25828392.02848  17020390.08548
 -23498035.89807  17935138.27307 -18298996.98248  17935135.14048
 08 11 15  2 51 59.9870000  0  9  3  6  7  8 11 16 19 25 27
 -29753043.41807  17231954.37407 -23166277.55948  17231951.98048
 -18447589.35906  18488563.06906 -14355675.71647  18488560.16347
 -28288364.09007  16846933.91307 -22035702.77948  16846930.06248
  -8211107.79706  19121515.60906  -6386088.80547  19121512.14847
 -13008048.03106  18281553.17906 -10123735.37647  18281550.14447
  -1558171.65606  20037816.60906  -1208548.32047  20037812.60547
 -35587818.25407  16339224.81907 -27717396.14349  16339219.58949
 -33174749.16807  17016211.46007 -25845514.95548  17016208.52348
 -23588003.14506  17918017.89006 -18369101.34148  17918014.85948
 08 11 15  2 52 29.9870000  0  9  3  6  7  8 11 16 19 25 27
 -29729487.94107  17236437.11607 -23147922.65148  17236434.39848
 -18418148.57406  18494165.11606 -14332734.83647  18494162.60947
 -28352321.84807  16834763.04607 -22085540.00948  16834759.38248
  -8350487.23406  19094991.99106  -6494696.15947  19094989.28447
 -13152948.26206  18253979.60106 -10236644.60547  18253975.67947
  -1524859.66006  20044155.12406  -1182590.97647  20044151.88647
 -35611659.61707  16334687.76507 -27735973.83549  16334682.64449
 -33196182.73007  17012133.31907 -25862216.43248  17012130.68748
 -23677505.28506  17900986.54606 -18438843.25548  17900983.87848
 08 11 15  2 52 59.9870000  0  9  3  6  7  8 11 16 19 25 27
 -29705744.34807  17240955.02307 -23129421.17248  17240952.06648
 -18388620.57406  18499784.28806 -14309726.03447  18499782.15547
 -28415685.07407  16822705.34307 -22134913.96648  16822701.80448
  -8489538.62506  19068532.05406  -6603047.85847  19068528.64047
 -13297581.68406  18226456.89006 -10349345.96747  18226452.91747
  -1491407.83606  20050520.81906  -1156524.67647  20050517.95647
 -35635163.15207  16330215.31907 -27754288.28549  16330209.63649
 -33217077.32007  17008156.85907 -25878497.94848  17008154.11248
 -23766541.57007  17884043.17107 -18508222.18748  17884040.76948
 08 11 15  2 53 29.9870000  0  9  3  6  7  8 11 16 19 25 27
 -29681812.69107  17245509.08507 -23110773.13548  17245506.26948
 -18359005.04706  18505419.90506 -14286649.01847  18505417.89047
 -28478451.10207  16810761.33507 -22183822.55048  16810757.62448
  -8628257.18406  19042134.64806  -6711140.22347  19042131.59747
 -13441944.22306  18198985.71006 -10461836.20548  18198981.98048
  -1457814.70306  20056913.62406  -1130348.23447  20056910.91747
 -35658328.98007  16325806.91307 -27772339.57949  16325801.84749
 -33237432.19107  17004283.81207 -25894358.89648  17004281.14848
 -23855108.96507  17867189.89007 -18577235.74448  17867186.48448
 08 11 15  2 53 59.9870000  0  9  3  6  7  8 11 16 19 25 27
 -29657694.74607  17250098.77307 -23091979.95548  17250095.86248
 -18329303.33206  18511071.58506 -14263504.86147  18511069.85947
 -28540619.34407  16798930.96007 -22232265.34048  16798927.68348
  -8766639.97706  19015801.18706  -6818970.95447  19015798.10947
 -13586033.86706  18171566.00706 -10574113.83748  18171562.69848
  -1424080.95306  20063333.14006  -1104062.24847  20063330.49547
 -35681158.97707  16321462.72607 -27790129.19649  16321457.66349
 -33257248.23407  17000513.14807 -25909799.97848  17000509.69848
 -23943206.10507  17850425.36607 -18645882.87048  17850421.71448
 08 11 15  2 54 29.9860000  0  9  3  6  7  8 11 16 19 25 27
 -29633392.88707  17254723.35407 -23073043.44148  17254720.51048
 -18299517.62106  18516739.72906 -14240295.24747  18516737.83847
 -28602186.95707  16787214.98607 -22280240.10948  16787211.47148
  -8904680.01206  18989532.90806  -6926534.60347  18989530.07647
 -13729843.36706  18144200.55706 -10686173.12747  18144196.35847
  -1390207.98006  20069778.58006  -1077667.76847  20069776.67847
 -35703653.64807  16317181.82207 -27807657.51149  16317176.68249
 -33276525.64807  16996844.73607 -25924821.35348  16996841.08448
 -24030828.32807  17833751.40107 -18714159.94448  17833747.94748
 08 11 15  2 54 59.9860000  0  9  3  6  7  8 11 16 19 25 27
 -29608906.75007  17259382.57207 -23053963.37448  17259380.11148
 -18269646.64106  18522424.24406 -14217019.21047  18522422.27247
 -28663156.71907  16775612.97907 -22327749.00448  16775609.47148
  -9042382.95306  18963329.03306  -7033835.58347  18963326.32647
 -13873379.59807  18116886.08807 -10798019.49748  18116882.50648
  -1356193.33205  20076251.37705  -1051162.88947  20076248.28747
 -35725815.72307  16312964.64307 -27824926.67549  16312959.57249
 -33295266.06607  16993278.46307 -25939424.27448  16993274.86548
 -24117979.44507  17817167.12707 -18782069.90248  17817164.11548
 08 11 15  2 55 29.9860000  0  9  3  6  7  8 11 16 19 25 27
 -29584237.76207  17264076.79107 -23034740.79448  17264074.70948
 -18239691.80906  18528124.26806 -14193677.79847  18528122.06547
 -28723524.90207  16764125.45507 -22374789.15448  16764121.73648
  -9179740.48406  18937191.03306  -7140867.41247  18937188.61547
 -14016634.85506  18089625.33006 -10909646.95047  18089621.45947
  -1322037.51205  20082751.03305  -1024547.97946  20082747.84246
 -35747645.20307  16308810.76807 -27841936.65949  16308805.71749
 -33313468.90207  16989814.54907 -25953608.31848  16989811.31548
 -24204654.31607  17800673.34607 -18849608.76848  17800670.74448
 08 11 15  2 55 59.9860000  0  9  3  6  7  8 11 16 19 25 27
 -29559386.75407  17268805.90107 -23015376.39448  17268803.21748
 -18209653.56306  18533840.65106 -14170271.41047  18533837.98647
 -28783289.94907  16752752.48607 -22421359.33048  16752748.77648
  -9316748.57806  18911118.96306  -7247626.96247  18911116.22147
 -14159605.60906  18062418.81506 -11021052.71347  18062415.62347
  -1287739.95305  20089277.52605   -997822.65746  20089274.06846
 -35769142.55907  16304719.80707 -27858687.85149  16304714.26049
 -33331134.08207  16986452.75207 -25967373.41248  16986449.71348
 -24290850.54707  17784271.07207 -18916774.67848  17784268.45148
 08 11 15  2 56 29.9860000  0  9  3  6  7  8 11 16 19 25 27
 -29534356.82807  17273569.19707 -22995872.58248  17273566.81148
 -18179534.88306  18539572.44706 -14146802.33047  18539570.14747
 -28842453.31607  16741494.08007 -22467460.63248  16741490.27248
  -9453406.73806  18885113.73606  -7354113.80447  18885111.09647
 -14302291.91006  18035266.55706 -11132236.80348  18035263.56548
  -1253303.62904  20095831.07204   -970989.29145  20095826.84245
 -35790311.54707  16300691.39307 -27875183.17149  16300685.84649
 -33348264.60507  16983193.12707 -25980721.89148  16983189.87748
 -24376568.59007  17767959.17407 -18983567.96048  17767955.90848
 08 11 15  2 56 59.9860000  0  9  3  6  7  8 11 16 19 25 27
 -29509146.34807  17278366.22907 -22976228.07148  17278363.83848
 -18149333.44506  18545319.28306 -14123268.78347  18545317.08047
 -28901010.67207  16730350.69707 -22513089.75748  16730346.97548
  -9589708.26606  18859176.97106  -7460322.77647  18859173.70147
 -14444687.77006  18008169.86106 -11243194.61748  18008166.51448
  -1218724.59403  20102411.21303   -944044.54745  20102406.83445
 -35811150.07007  16296726.07207 -27891420.98949  16296720.45549
 -33364857.71507  16980035.98607 -25993651.58248  16980032.51848
 -24461803.11307  17751739.33007 -19049984.47848  17751736.40148
 08 11 15  2 57 29.9860000  0  9  3  6  7  8 11 16 19 25 27
 -29483758.93407  17283197.62707 -22956445.69448  17283195.06848
 -18119052.71906  18551081.54906 -14099673.44947  18551079.05347
 -28958963.18407  16719322.88507 -22558247.55348  16719319.29948
  -9725652.27706  18833307.54906  -7566253.13247  18833304.53747
 -14586793.33206  17981127.96306 -11353926.18248  17981124.54148
  -1184005.67602  20109016.99402   -916990.92645  20109014.10845
 -35831662.02007  16292822.80707 -27907404.32249  16292817.59649
 -33380916.64107  16976979.99407 -26006165.04348  16976976.92448
 -24546555.16007  17735612.16607 -19116025.03448  17735608.74448
 08 11 15  2 57 59.9860000  0  9  3  6  7  8 11 16 19 25 27
 -29458195.21507  17288062.26007 -22936525.94148  17288059.42848
 -18088692.71906  18556858.52606 -14076016.33747  18556856.62747
 -29016309.73807  16708409.97907 -22602933.19348  16708406.77948
  -9861234.95706  18807506.66606  -7671901.95347  18807503.47547
 -14728605.14506  17954141.81506 -11464428.85748  17954138.36548
  -1149145.99202  20115651.15102   -889827.66045  20115647.11545
 -35851847.85507  16288981.33007 -27923133.55449  16288975.80349
 -33396441.33607  16974025.25207 -26018262.22648  16974022.65448
 -24630822.09407  17719576.15107 -19181687.57148  17719573.14348
 08 11 15  2 58 29.9860000  0  9  3  6  7  8 11 16 19 25 27
 -29432456.79707  17292959.67407 -22916470.06548  17292957.35848
 -18058254.58606  18562650.90106 -14052298.37547  18562649.19047
 -29073049.47307  16697613.57207 -22647145.97048  16697609.68248
  -9996453.66406  18781775.11906  -7777267.17247  18781771.94347
 -14870120.75806  17927212.32206 -11574700.75448  17927208.75648
  -1114145.87501  20122311.90101         0.00000         0.00000
 -35871708.90207  16285202.19007 -27938609.70049  16285196.87349
 -33411432.73007  16971172.86907 -26029943.83348  16971169.70548
 -24714602.34407  17703633.34607 -19246970.87948  17703630.67048
 08 11 15  2 58 59.9860000  0  9  3  6  7  8 11 16 19 25 27
 -29406546.87507  17297890.79907 -22896280.55248  17297887.35448
 -18027741.71106  18568457.34606 -14028522.16747  18568455.54147
 -29129183.68007  16686931.61907 -22690886.91548  16686927.53748
 -10131307.30106  18756113.64306  -7882347.94747  18756110.05347
 -15011340.28906  17900339.09606 -11684741.93648  17900335.90148
         0.00000  20128995.51801         0.00000         0.00000
 -35891248.91407  16281483.79907 -27953835.68549  16281478.41649
 -33425893.85907  16968420.94707 -26041212.26648  16968417.47948
 -24797896.75007  17687782.69707 -19311875.62548  17687780.60848
 08 11 15  2 59 29.9860000  0  9  3  6  7  8 11 16 19 25 27
 -29380468.49607  17302853.26807 -22875959.75248  17302850.10448
 -17997156.07006  18574278.38506 -14004689.26947  18574275.43647
 -29184713.02707  16676364.46307 -22734156.54348  16676360.18648
 -10265793.98406  18730521.25206  -7987142.77747  18730518.58847
 -15152262.21506  17873522.59606 -11794551.21747  17873519.67447
         0.00000  20135709.50201         0.00000         0.00000
 -35910470.60207  16277825.90807 -27968813.63449  16277820.81149
 -33439826.81307  16965769.55707 -26052069.11348  16965765.95948
 -24880704.88707  17672025.54907 -19376401.45548  17672022.42448
 08 11 15  2 59 59.9860000  0  9  3  6  7  8 11 16 19 25 27
 -29354220.44507  17307848.11107 -22855506.75548  17307845.17848
 -17966496.59806  18580112.07206 -13980798.79647  18580109.60447
 -29239634.61707  16665913.04907 -22776952.61148  16665909.49048
 -10399908.72706  18705000.42406  -8091647.75347  18704997.67447
 -15292882.53906  17846763.21306 -11904125.48248  17846759.96348
         0.00000  20142449.56501         0.00000         0.00000
 -35929373.12907  16274228.94707 -27983542.87949  16274223.69749
 -33453230.29307  16963219.16607 -26062513.40148  16963215.28348
 -24963022.83206  17656361.01006 -19440545.32848  17656358.24848
 08 11 15  3  0 29.9860000  0  8  3  6  7  8 11 19 25 27
 -29327799.28107  17312875.97907 -22834918.87248  17312873.69348
 -17935759.22306  18585961.00206 -13956847.61647  18585958.95947
 -29293942.89507  16655578.62707 -22819270.73948  16655574.83848
 -10533643.30906  18679551.26006  -8195856.49547  18679548.11147
 -15433193.34406  17820062.70506 -12013458.55048  17820059.26048
 -35947953.03907  16270693.36107 -27998020.74649  16270688.04949
 -33466100.34407  16960769.65107 -26072542.01148  16960766.29148
 -25044844.32806  17640790.86106 -19504302.33648  17640787.49848
 08 11 15  3  0 59.9860000  0  8  3  6  7  8 11 19 25 27
 -29301207.98407  17317936.47907 -22814198.40248  17317933.33848
 -17904946.39806  18591824.98606 -13932837.68847  18591823.54547
 -29347638.43807  16645360.76807 -22861111.43948  16645357.38548
 -10666996.34406  18654175.31506  -8299767.92447  18654172.11147
 -15573193.60906  17793422.26006 -12122549.65448  17793418.09648
 -35966212.91407  16267218.51007 -28012249.21149  16267213.31549
 -33478439.19107  16958422.04907 -26082156.71848  16958418.52948
 -25126169.03506  17625314.91606 -19567672.25448  17625312.17848
 08 11 15  3  1 29.9860000  0  8  3  6  7  8 11 19 25 27
 -29274443.03907  17323029.33007 -22793342.62648  17323026.04948
 -17874054.55506  18597702.85406 -13908766.18247  18597700.84247
 -29400716.33607  16635260.35407 -22902470.84648  16635256.49448
 -10799960.00806  18628872.94006  -8403375.95847  18628869.62747
 -15712876.66406  17766841.53306 -12231393.60747  17766837.38947
 -35984149.97307  16263805.59607 -28026226.15349  16263799.86149
 -33490243.48807  16956175.95507 -26091354.88448  16956172.61948
 -25206991.07006  17609934.87706 -19630650.47448  17609932.60048
 08 11 15  3  1 59.9860000  0  8  3  6  7  8 11 19 25 27
 -29247505.90207  17328155.28307 -22772352.70048  17328153.05348
 -17843084.51206  18603596.83006 -13884633.69247  18603594.29947
 -29453175.94907  16625277.86107 -22943348.48148  16625274.08448
 -10932531.27706  18603645.25206  -8506678.24047  18603642.42847
 -15852240.23806  17740321.23606 -12339988.58048  17740317.79548
 -36001765.16407  16260453.29107 -28039952.28249  16260447.87349
 -33501514.03507  16954030.75207 -26100137.12748  16954027.88148
 -25287308.81606  17594651.15106 -19693235.73248  17594648.41248
 08 11 15  3  2 29.9860000  0  8  3  6  7  8 11 19 25 27
 -29220403.64107  17333312.76807 -22751234.08448  17333310.48648
 -17812043.22706  18609503.33006 -13860445.69447  18609501.79547
 -29505021.98007  16615411.74407 -22983747.99848  16615407.27248
 -11064712.84406  18578491.53306  -8609676.86847  18578490.12347
 -15991287.70306  17713860.97906 -12448337.23148  17713858.25648
 -36019066.12107  16257161.05707 -28053433.55649  16257155.61149
 -33512257.63707  16951986.51007 -26108508.77148  16951983.44748
 -25367126.67206  17579462.64306 -19755431.46848  17579459.64348
 08 11 15  3  2 59.9860000  0  8  3  6  7  8 11 19 25 27
 -29193138.60907  17338500.75207 -22729988.63648  17338498.20148
 -17780932.52706  18615423.88506 -13836203.63247  18615422.45947
 -29556255.61707  16605662.01807 -23023670.32048  16605658.92848
 -11196503.20306  18553412.90106  -8712370.63647  18553410.70147
 -16130017.66006  17687461.58806 -12556438.49248  17687458.57648
 -36036055.78507  16253928.14307 -28066672.26849  16253922.76049
 -33522476.60507  16950041.88507 -26116471.62348  16950038.78748
 -25446444.29706  17564368.30706 -19817237.41648  17564365.95548
 08 11 15  3  3 29.9860000  0  8  3  6  7  8 11 19 25 27
 -29165710.39507  17343721.15807 -22708616.00848  17343718.49848
 -17749751.66406  18621357.49406 -13811906.88347  18621355.42447
 -29606874.55907  16596029.82207 -23063113.66048  16596026.45948
 -11327896.99206  18528410.28306  -8814755.40547  18528406.91647
 -16268426.13706  17661123.78306 -12664289.22148  17661119.62348
 -36052732.92207  16250754.45507 -28079667.45549  16250749.13949
 -33532170.10507  16948196.70507 -26124025.00248  16948193.82648
 -25525258.38306  17549370.71306 -19878651.00648  17549368.25648
 08 11 15  3  3 59.9860000  0  8  3  6  7  8 11 19 25 27
 -29138123.33207  17348969.99407 -22687119.63148  17348967.99048
 -17718504.43406  18627303.77606 -13787558.43547  18627301.06847
 -29656881.09007  16586513.35407 -23102079.78948  16586510.08448
 -11458894.65206  18503482.04906  -8916831.49047  18503478.24047
 -16406513.89106  17634846.54106 -12771890.04948  17634843.14748
 -36069102.18407  16247639.09607 -28092422.73749  16247634.29949
 -33541342.11307  16946452.13507 -26131172.04248  16946448.75248
 -25603570.48006  17534468.43206 -19939673.41748  17534465.69048
 08 11 15  3  4 29.9860000  0  8  3  6  7  8 11 19 25 27
 -29110381.96907  17354249.05707 -22665503.00648  17354246.56148
 -17687194.82406  18633261.90806 -13763161.37647  18633259.38147
 -29706278.04706  16577113.48606 -23140570.93648  16577110.14348
 -11589496.11706  18478629.10406  -9018598.85347  18478625.88147
 -16544281.35906  17608630.30706 -12879241.31548  17608626.58848
 -36085168.12107  16244582.23607 -28104941.66149  16244576.88549
 -33549996.80907  16944805.40807 -26137915.97648  16944801.42048
 -25681382.28106  17519661.83006 -20000305.98948  17519658.70948
 08 11 15  3  4 59.9860000  0  8  3  6  7  8 11 19 25 27
 -29082482.89107  17359557.86907 -22643763.49548  17359555.77248
 -17655819.45306  18639232.41606 -13738713.07747  18639230.45147
 -29755060.40206  16567831.10406 -23178583.18448  16567827.63548
 -11719693.96906  18453853.49406  -9120051.70747  18453849.87747
 -16681721.77706  17582476.02606 -12986337.72548  17582473.59248
 -36100927.62907  16241583.09607 -28117221.79849  16241577.90849
 -33558130.96507  16943257.00207 -26144254.27848  16943253.76848
 -25758687.95706  17504950.78306 -20060544.19048  17504948.36548
 08 11 15  3  5 29.9860000  0  8  3  6  7  8 11 19 25 27
 -29054433.16807  17364895.83007 -22621906.58348  17364893.44048
 -17624384.89806  18645214.22906 -13714218.66247  18645212.03347
 -29803233.33607  16558663.83007 -23216120.53248  16558660.07248
 -11849490.66006  18429154.05706  -9221191.97947  18429150.57247
 -16818838.81606  17556383.41606 -13093182.13248  17556380.13148
 -36116388.13707  16238641.27607 -28129268.95649  16238636.20949
 -33565751.48807  16941807.02607 -26150192.36748  16941803.24848
 -25835491.98006  17490335.55706 -20120391.48048  17490332.95548
 08 11 15  3  5 59.9860000  0  8  3  6  7  8 11 19 25 27
 -29026229.39507  17370263.08807 -22599929.62848  17370260.52248
 -17592887.19506  18651208.39306 -13689675.01047  18651205.79947
 -29850791.68807  16549614.36107 -23253178.99748  16549610.25648
 -11978878.54306  18404532.11906  -9322013.69447  18404528.92847
 -16955625.30506  17530353.56506 -13199768.95848  17530350.08048
 -36131545.92607  16235756.74407 -28141080.23149  16235751.51049
 -33572854.53507  16940455.17407 -26155727.19348  16940452.22548
 -25911787.99606  17475816.65806 -20179842.92648  17475814.15148
 08 11 15  3  6 29.9860000  0  8  3  6  7  8 11 19 25 27
 -28997875.44907  17375658.26007 -22577835.66748  17375655.70948
 -17561329.64806  18657213.36106 -13665084.77647  18657211.01447
 -29897737.74207  16540680.28307 -23289760.35448  16540676.76848
 -12107857.33606  18379987.90106  -9422516.65347  18379984.69747
 -17092081.25006  17504387.26806 -13306098.25848  17504383.08848
 -36146405.06606  16232929.33006 -28152658.79449  16232923.65849
 -33579443.78107  16939201.26007 -26160861.69848  16939198.46348
 -25987577.32806  17461394.22906 -20238899.55248  17461391.92848
 08 11 15  3  6 59.9860000  0  8  3  6  7  8 11 19 25 27
 -28969369.34407  17381083.17407 -22555623.13948  17381080.00248
 -17529710.04706  18663230.43206 -13640446.14547  18663227.60447
 -29944067.82406  16531863.83006 -23325861.73848  16531860.48348
 -12236420.63706  18355523.21306  -9522695.82847  18355520.40447
 -17228201.43806  17478484.01006 -13412165.89848  17478480.47948
 -36160963.81306  16230158.89306 -28164003.27249  16230153.96749
 -33585517.46907  16938045.36907 -26165594.43148  16938042.48348
 -26062855.39506  17447069.69006 -20297557.78948  17447066.49048
 08 11 15  3  7 29.9860000  0  8  3  6  7  8 11 19 25 27
 -28940714.12907  17386536.05707 -22533294.40848  17386533.05748
 -17498031.28506  18669258.14306 -13615761.41847  18669256.11947
 -29989783.81606  16523164.36106 -23361484.57648  16523160.81848
 -12364567.70706  18331138.08806  -9622550.67147  18331135.11547
 -17363985.46106  17452644.99406 -13517971.59148  17452641.90448
 -36175225.64806  16227445.21306 -28175116.41648  16227439.59248
 -33591078.66807  16936987.55707 -26169927.86048  16936983.58448
 -26137622.94906  17432842.01806 -20355818.24048  17432839.41648
 08 11 15  3  7 59.9860000  0  8  3  6  7  8 11 19 25 27
 -28911910.78107  17392017.40107 -22510850.25748  17392014.61148
 -17466294.05506  18675298.13506 -13591031.15047  18675295.49047
 -30034885.22706  16514581.86906 -23396628.53548  16514578.37748
 -12492295.37106  18306832.12706  -9722078.73247  18306829.24047
 -17499430.92206  17426870.82206 -13623513.51148  17426867.01448
 -36189191.79306  16224787.71306 -28185999.12049  16224781.95949
 -33596128.41007  16936026.23607 -26173862.73548  16936023.50248
 -26211878.32406  17418711.49406 -20413679.57048  17418708.67448
 08 11 15  3  8 29.9860000  0  8  3  6  7  8 11 19 25 27
 -28882958.15607  17397526.45507 -22488289.82148  17397524.44348
 -17434496.54306  18681349.34606 -13566253.90047  18681346.33847
 -30079369.18006  16506116.74406 -23431291.36748  16506113.01848
 -12619598.09406  18282607.00206  -9821275.65747  18282604.74447
 -17634532.94906  17401161.58006 -13728787.77348  17401158.05348
 -36202861.05907  16222186.39307 -28196650.51148  16222180.19048
 -33600665.57807  16935162.92407 -26177398.20348  16935160.23348
 -26285617.97306  17404679.19006 -20471139.05248  17404676.45148
 08 11 15  3  8 59.9860000  0  8  3  6  7  8 11 19 25 27
 -28853866.76207  17403062.17407 -22465621.20348  17403059.81548
 -17402649.02306  18687409.86106 -13541437.66347  18687407.33847
 -30123244.89806  16497767.69706 -23465480.24248  16497763.85848
 -12746481.93406  18258461.84606  -9920146.17347  18258459.10447
 -17769298.69106  17375516.71306 -13833800.00048  17375513.36548
 -36216244.31307  16219639.15107 -28207079.01748  16219633.60448
 -33604700.62507  16934394.96307 -26180542.38948  16934391.78748
 -26358849.82806  17390743.82206 -20528202.82848  17390741.69348
 08 11 15  3  9 29.9860000  0  8  3  6  7  8 11 19 25 27
 -28824630.80907  17408625.80707 -22442839.95747  17408623.25247
 -17370745.39806  18693480.42406 -13516577.70747  18693479.01447
 -30166505.30507  16489535.66607 -23499189.67248  16489531.99448
 -12872937.21506  18234398.69706 -10018682.77147  18234395.58847
 -17903718.97706  17349937.63506 -13938543.06148  17349934.13548
 -36229335.82007  16217148.32207 -28217280.19348  16217142.50648
 -33608227.87507  16933723.65807 -26183290.91748  16933720.35048
 -26431565.70706  17376906.54906 -20584864.56948  17376903.48348
 08 11 15  3  9 59.9860000  0  8  3  6  7  8 11 19 25 27
 -28795252.30107  17414216.19707 -22419947.62548  17414213.98648
 -17338787.05106  18699561.97906 -13491675.13447  18699559.80747
 -30209150.76606  16481420.54906 -23532419.92348  16481416.77648
 -12998961.60506  18210416.53306 -10116883.57547  18210414.25247
 -18037792.03106  17324424.19006 -14043015.55148  17324421.00248
 -36242137.92207  16214711.86107 -28227255.86548  16214706.13548
 -33611249.54307  16933149.17407 -26185645.47148  16933145.61148
 -26503765.42206  17363167.08806 -20641124.08448  17363164.45148
 08 11 15  3 10 29.9860000  0  8  3  6  7  8 11 19 25 27
 -28765733.32406  17419833.44706 -22396945.84948  17419831.24048
 -17306775.50006  18705653.50206 -13466731.10947  18705651.37347
 -30251181.85506  16473422.26806 -23565171.40348  16473418.21348
 -13124552.93006  18186517.26806 -10214746.92847  18186514.95947
 -18171516.41406  17298977.28306 -14147216.34748  17298974.13948
 -36254652.56306  16212330.36106 -28237007.54248  16212325.11148
 -33613767.50807  16932670.04907 -26187607.53648  16932666.32648
 -26575448.25006  17349526.26006 -20696980.83748  17349523.69048
 08 11 15  3 10 59.9860000  0  8  3  6  7  8 11 19 25 27
 -28736076.60906  17425477.55706 -22373836.75248  17425475.25648
 -17274713.32406  18711754.78306 -13441747.61247  18711752.91247
 -30292600.22706  16465540.77606 -23597445.47648  16465536.66248
 -13249709.96906  18162700.76006 -10312271.84947  18162698.31547
 -18304891.52306  17273596.07206 -14251144.96248  17273592.73348
 -36266882.87906  16210003.58006 -28246537.67348  16209998.00648
 -33615784.78107  16932285.94707 -26189179.45848  16932282.70548
 -26646614.56306  17335983.89306 -20752435.10148  17335981.66648
 08 11 15  3 11 29.9860000  0  8  3  6  7  8 11 19 25 27
 -28706284.53906  17431145.96306 -22350622.18747  17431144.06847
 -17242602.55906  18717865.02606 -13416726.28247  18717863.35847
 -30333406.78906  16457775.15806 -23629242.80048  16457772.15448
 -13374430.99606  18138967.12706 -10409457.08047  18138964.56847
 -18437916.37906  17248283.25206 -14354800.69748  17248279.12748
 -36278831.33606  16207729.71306 -28255848.16648  16207724.20948
 -33617304.00007  16931997.00207 -26190363.27348  16931994.00248
 -26717264.44507  17322539.69007 -20807486.95148  17322536.57648
 08 11 15  3 11 59.9850000  0  8  3  6  7  8 11 19 25 27
 -28676355.11306  17436842.12206 -22327300.55947  17436839.29047
 -17210440.39806  18723985.63806 -13391664.87747  18723983.71247
 -30373596.05107  16450127.81007 -23660559.12048  16450124.19648
 -13498704.39506  18115319.38806 -10506293.49547  18115315.81447
 -18570579.92607  17223037.77107 -14458174.86848  17223034.63448
 -36290494.57006  16205510.15306 -28264936.40548  16205504.80248
 -33618321.93807  16931803.18507 -26191156.47048  16931800.63448
 -26787389.94907  17309194.77107 -20862130.19948  17309192.47448
 08 11 15  3 12 29.9850000  0  8  3  6  7  8 11 19 25 27
 -28646287.46106  17442564.20806 -22303871.24447  17442561.36047
 -17178226.16406  18730115.45006 -13366562.90747  18730113.70047
 -30413170.53107  16442596.99707 -23691396.40448  16442593.46648
 -13622535.89506  18091754.63006 -10602785.56447  18091751.26747
 -18702889.10506  17197860.22406 -14561272.92748  17197857.11448
 -36301875.07406  16203343.95806 -28273804.33448  16203338.84948
 -33618840.60207  16931704.56707 -26191560.65448  16931701.70448
 -26856995.19507  17295949.94207 -20916368.07348  17295947.66548
 08 11 15  3 12 59.9850000  0  8  3  6  7  8 11 19 25 27
 -28616089.81307  17448310.38807 -22280340.64048  17448308.10748
 -17145967.57806  18736254.26306 -13341426.38047  18736252.25147
 -30452135.25407  16435182.02807 -23721758.52848  16435178.32948
 -13745924.66006  18068274.19206 -10698932.62247  18068271.45047
 -18834843.57007  17172750.17707 -14664094.55448  17172746.74748
 -36312980.20307  16201230.92707 -28282457.69348  16201225.47848
 -33618867.41407  16931699.33307 -26191581.56548  16931696.57148
 -26926082.74207  17282802.80207 -20970202.51248  17282799.40748
 08 11 15  3 13 29.9850000  0  8  3  6  7  8 11 19 25 27
 -28585756.42607  17454082.34107 -22256704.26947  17454079.60747
 -17113658.25006  18742402.29406 -13316250.29447  18742400.28647
 -30490483.07407  16427884.88807 -23751639.94948  16427881.03648
 -13868860.75806  18044880.66906 -10794727.00147  18044877.41147
 -18966434.13707  17147708.89607 -14766632.61948  17147705.58348
 -36323804.27307  16199171.65307 -28290892.04448  16199165.93148
 -33618396.83207  16931789.18507 -26191214.87248  16931785.65748
 -26994644.42207  17269756.34107 -21023627.22548  17269753.20848
 08 11 15  3 13 59.9850000  0  8  3  6  7  8 11 19 25 27
 -28555291.68406  17459879.53606 -22232965.50847  17459877.05647
 -17081302.18006  18748559.84106 -13291037.79747  18748556.86847
 -30528217.27707  16420704.10707 -23781043.22148  16420700.47448
 -13991344.09406  18021572.85706 -10890168.55147  18021570.11447
 -19097661.42207  17122737.66107 -14868887.63948  17122733.88048
 -36334351.52007  16197164.36407 -28299110.68048  16197158.58348
 -33617433.20307  16931972.15307 -26190464.00548  16931969.43148
 -27062682.16807  17256808.95807 -21076643.65048  17256805.88848
 08 11 15  3 14 29.9850000  0  8  3  6  7  8 11 19 25 27
 -28524693.14806  17465702.38806 -22209122.51248  17465700.21248
 -17048896.51206  18754726.27106 -13265786.68547  18754724.13847
 -30565334.27707  16413640.88807 -23809965.57448  16413637.20848
 -14113368.55906  17998352.04406 -10985252.56347  17998349.92747
 -19228519.66007  17097836.56707 -14970855.08448  17097832.40048
 -36344619.90207  16195209.94207 -28307112.02048  16195204.98248
 -33615974.73407  16932249.57507 -26189327.55248  16932246.98248
 -27130191.50407  17243962.45807 -21129248.31348  17243959.93948
 08 11 15  3 14 59.9850000  0  8  3  6  7  8 11 19 25 27
 -28493965.85206  17471549.59106 -22185179.19247  17471546.95447
 -17016446.09006  18760901.13006 -13240500.67847  18760899.24747
 -30601838.45307  16406694.37207 -23838410.37948  16406690.49348
 -14234935.31306  17975218.95006 -11079979.86547  17975215.68547
 -19359011.03507  17073004.34907 -15072536.67148  17073000.62648
 -36354615.03107  16193308.13807 -28314900.44148  16193303.22048
 -33614027.02007  16932620.75507 -26187809.88548  16932618.01348
 -27197175.57807  17231215.28607 -21181443.70248  17231212.72848
 08 11 15  3 15 29.9850000  0  8  3  6  7  8 11 19 25 27
 -28463112.61706  17477420.87206 -22161137.74847  17477417.78647
 -16983953.45706  18767084.39606 -13215181.76447  18767082.45847
 -30637731.29706  16399864.48906 -23866378.85648  16399860.59148
 -14356042.85906  17952172.67706 -11174349.39247  17952169.69647
 -19489134.99607  17048242.71607 -15173931.95048  17048239.07548
 -36364339.74607  16191458.09907 -28322478.16448  16191452.37248
 -33611593.04307  16933083.73207 -26185913.29948  16933080.48548
 -27263634.92607  17218568.97407 -21233230.23148  17218566.35748
 08 11 15  3 15 59.9850000  0  8  3  6  7  8 11 19 25 27
 -28432130.74606  17483316.56706 -22136996.05247  17483313.86047
 -16951415.34005  18773276.38005 -13189827.41747  18773273.65047
 -30673009.23807  16393151.19207 -23893868.15548  16393147.66948
 -14476685.09006  17929215.35706 -11268356.32247  17929212.59547
 -19618885.60906  17023551.60706 -15275036.29848  17023548.80648
 -36373791.68807  16189658.88007 -28329843.31848  16189653.55248
 -33608670.75407  16933639.93507 -26183636.17948  16933636.38848
 -27329564.90206  17206022.98906 -21284604.23948  17206020.50148
 08 11 15  3 16 29.9850000  0  8  3  6  7  8 11 19 25 27
 -28401022.28906  17489236.31706 -22112755.73647  17489233.75147
 -16918833.34805  18779476.41105 -13164438.90847  18779474.63047
 -30707673.37107  16386555.04407 -23920879.17948  16386551.43148
 -14596859.78506  17906347.19206 -11361998.94547  17906344.38047
 -19748261.58207  16998932.58307 -15375848.73148  16998929.05648
 -36382973.29307  16187911.98907 -28336997.82648  16187906.59548
 -33605262.34407  16934289.11407 -26180980.30348  16934285.25148
 -27394965.21507  17193577.65307 -21335565.54348  17193575.20848
 08 11 15  3 16 59.9850000  0  8  3  6  7  8 11 19 25 27
 -28369788.34406  17495179.90306 -22088417.59547  17495177.48947
 -16886208.14806  18785684.88806 -13139016.70047  18785682.70047
 -30741723.59007  16380075.44207 -23947411.83148  16380071.78248
 -14716563.61306  17883568.58306 -11455274.65247  17883565.75547
 -19877260.53506  16974384.81706 -15476367.36948  16974381.02848
 -36391885.75407  16186215.94207 -28343942.59148  16186211.02848
 -33601369.50006  16935029.14606 -26177946.93948  16935026.12248
 -27459835.10507  17181233.12207 -21386113.49848  17181231.19248
 08 11 15  3 17 29.9850000  0  8  3  6  7  8 11 19 25 27
 -28338430.61307  17501147.15307 -22063983.04047  17501144.39247
 -16853541.41005  18791901.67705 -13113562.16447  18791899.38847
 -30775161.17607  16373712.22407 -23973467.09048  16373709.07148
 -14835794.96906  17860878.81006 -11548182.18847  17860876.53647
 -20005881.44907  16949909.13807 -15576591.46948  16949904.97048
 -36400531.40607  16184570.58307 -28350679.49548  16184565.37248
 -33596994.50407  16935861.89607 -26174537.86248  16935857.80648
 -27524174.30907  17168990.04407 -21436247.96648  17168987.44648
 08 11 15  3 17 59.9850000  0  8  3  6  7  8 11 19 25 27
 -28306947.12907  17507138.20807 -22039450.46747  17507135.11847
 -16820830.47306  18798126.02106 -13088073.16547  18798123.99347
 -30807983.29307  16367466.66907 -23999042.77948  16367463.42748
 -14954548.02706  17838281.26306 -11640717.03547  17838277.84147
 -20134119.23407  16925506.05207 -15676516.99448  16925502.51748
 -36408908.13307  16182976.80207 -28357206.81348  16182971.18148
 -33592136.01207  16936786.16907 -26170752.04148  16936782.37648
 -27587978.96507  17156847.94207 -21485965.88748  17156845.64648
 08 11 15  3 18 29.9850000  0  8  3  6  7  8 11 19 25 27
 -28275344.76606  17513151.88806 -22014825.29847  17513149.06447
 -16788081.93406  18804358.13006 -13062554.87147  18804355.97447
 -30840195.89106  16361336.51306 -24024143.51948  16361333.45448
 -15072825.38306  17815773.47406 -11732881.19747  17815770.07947
 -20261977.09407  16901175.50507 -15776146.47748  16901172.13848
 -36417023.21907  16181432.41907 -28363530.26648  16181426.44248
 -33586801.33207  16937801.72407 -26166595.16248  16937797.94648
 -27651253.79706  17144807.38806 -21535270.96348  17144805.05248
 08 11 15  3 18 59.9850000  0  8  3  6  7  8 11 19 25 27
 -28243619.29706  17519189.18506 -21990104.16747  17519186.79447
 -16755291.09406  18810597.81006 -13037003.59847  18810596.10747
 -30871794.20307  16355323.56707 -24048765.58348  16355319.68148
 -15190619.32806  17793357.64606 -11824668.67947  17793355.38847
 -20389448.20707  16876918.46607 -15875474.60448  16876914.62248
 -36424873.27007  16179938.51307 -28369647.19248  16179933.36448
 -33580986.89807  16938907.81007 -26162064.43748  16938905.19248
 -27713992.67607  17132868.45007 -21584158.40948  17132866.04448
 08 11 15  3 19 29.9850000  0  8  3  6  7  8 11 19 25 27
 -28211769.94506  17525249.95806 -21965286.51247  17525247.22847
 -16722456.76206  18816846.30206 -13011418.49047  18816845.22847
 -30902776.36707  16349428.16907 -24072907.53648  16349424.14248
 -15307924.85206  17771035.12206 -11916075.57047  17771032.83747
 -20516528.27007  16852736.04407 -15974498.03248  16852732.05648
 -36432457.32007  16178495.24707 -28375556.85448  16178490.07548
 -33574692.40207  16940105.75507 -26157159.67748  16940102.48548
 -27776192.71506  17121032.52106 -21632625.97348  17121029.56748
 08 11 15  3 19 59.9850000  0  8  3  6  7  8 11 19 25 27
 -28179803.10906  17531333.13006 -21940377.30147  17531330.81447
 -16689584.58606  18823101.45006 -12985803.84547  18823099.92747
 -30933147.99206  16343648.34906 -24096573.77048  16343644.49348
 -15424744.60206  17748805.51306 -12007103.95847  17748803.12247
 -20643219.86307  16828627.52107 -16073218.72048  16828622.94648
 -36439781.59407  16177101.83307 -28381264.08748  16177096.26348
 -33567924.63707  16941393.80207 -26151886.10448  16941390.42348
 -27837858.38706  17109297.87206 -21680677.16548  17109294.91148
 08 11 15  3 20 29.9850000  0  8  3  6  7  8 11 19 25 27
 -28147719.50006  17537437.96606 -21915377.11947  17537436.52547
 -16656675.48006  18829363.78606 -12960160.41747  18829361.66947
 -30962909.23006  16337985.48906 -24119764.36248  16337981.04448
 -15541075.86706  17726668.33306 -12097751.67647  17726666.19247
 -20769521.48807  16804592.98907 -16171635.57648  16804588.95448
 -36446847.61307  16175756.73207 -28386770.08648  16175751.56748
 -33560685.58207  16942771.13007 -26146245.30348  16942768.10748
 -27898989.08606  17097665.04406 -21728311.48048  17097662.11048
 08 11 15  3 20 59.9850000  0  8  3  6  7  8 11 19 25 27
 -28115520.28506  17543565.41906 -21890286.88147  17543563.81447
 -16623730.05105  18835632.39605 -12934488.71247  18835631.15747
 -30992061.00807  16332437.95007 -24142480.03448  16332433.68548
 -15656915.84406  17704624.58306 -12188016.58447  17704621.66147
 -20895431.26207  16780633.41907 -16269747.08748  16780629.32148
 -36453656.85907  16174461.23907 -28392076.01348  16174455.56048
 -33552976.69107  16944238.32507 -26140238.41048  16944234.84148
 -27959583.77306  17086134.13806 -21775528.12248  17086131.17348
 08 11 15  3 21 29.9850000  0  8  3  6  7  8 11 19 25 27
 -28083209.08606  17549714.23206 -21865109.34247  17549712.20847
 -16590751.15206  18841908.57506 -12908790.93147  18841907.30247
 -31020605.94506  16327005.86406 -24164722.85048  16327002.19248
 -15772263.87106  17682674.77806 -12277898.16347  17682671.65747
 -21020949.46907  16756747.84907 -16367553.45648  16756744.19648
 -36460213.18407  16173213.80207 -28397184.84148  16173208.29848
 -33544802.13707  16945793.37207 -26133868.63848  16945790.77548
 -28019644.12906  17074705.26306 -21822328.41748  17074702.57548
 08 11 15  3 21 59.9850000  0  8  3  6  7  8 11 19 25 27
 -28050786.21106  17555884.27806 -21839844.78647  17555881.40747
 -16557739.25006  18848191.21606 -12883067.39747  18848190.16947
 -31048544.00007  16321689.09107 -24186492.76648  16321686.07948
 -15887117.08206  17660819.27106 -12367394.17647  17660816.27147
 -21146073.54707  16732937.23207 -16465052.73448  16732933.89248
 -36466517.54707  16172013.98907 -28402097.33448  16172008.38048
 -33536163.31607  16947437.62207 -26127137.10448  16947435.07948
 -28079169.13706  17063377.73906 -21868711.54748  17063374.79048
 08 11 15  3 22 29.9850000  0  8  3  6  7  8 11 19 25 27
 -28018249.95706  17562075.79406 -21814491.90047  17562073.22847
 -16524691.98805  18854480.02105 -12857316.37647  18854477.55247
 -31075872.85506  16316489.04406 -24207787.98848  16316485.51748
 -16001470.04707  17639057.85707 -12456500.38847  17639056.16547
 -21270798.91407  16709203.11407 -16562241.31948  16709199.84548
 -36472568.70707  16170862.34907 -28406812.54648  16170857.73548
 -33527059.21107  16949170.31007 -26120043.01448  16949167.11048
 -28138155.24606  17052153.48206 -21914674.76148  17052150.16148
 08 11 15  3 22 59.9850000  0  8  3  6  7  8 11 19 25 27
 -27985601.24606  17568288.25506 -21789051.39647  17568286.39647
 -16491610.23005  18860775.12205 -12831538.42247  18860773.38447
 -31102593.23807  16311404.04407 -24228609.07848  16311400.84148
 -16115319.96906  17617393.45806 -12545214.60947  17617391.32947
 -21395123.69907  16685545.22407 -16659117.77048  16685541.36048
 -36478367.65207  16169758.91907 -28411331.20248  16169753.34548
 -33517491.76207  16950990.84107 -26112587.86948  16950988.07148
 -28196601.77707  17041031.37207 -21960217.51248  17041028.37648
 08 11 15  3 23 29.9850000  0  8  3  6  7  8 11 19 25 27
 -27952844.18806  17574521.70006 -21763526.46347  17574519.71647
 -16458497.39506  18867076.07506 -12805736.27947  18867074.71247
 -31128708.63707  16306434.55207 -24248958.74348  16306431.09148
 -16228666.99206  17595823.71606 -12633536.93647  17595821.47847
 -21519048.55907  16661962.96607 -16755682.59148  16661959.27148
 -36483918.98407  16168702.83307 -28415656.93148  16168697.29048
 -33507465.67207  16952898.75507 -26104775.34648  16952895.97448
 -28254511.24206  17030011.52806 -22005341.76248  17030008.76348
 08 11 15  3 23 59.9850000  0  8  3  6  7  8 11 19 25 27
 -27919976.08206  17580777.02806 -21737914.95947  17580774.35747
 -16425350.46506  18873383.74706 -12779907.52847  18873382.59947
 -31154215.96907  16301580.93507 -24268834.59348  16301577.42348
 -16341505.23806  17574351.35706 -12721462.84947  17574348.95847
 -21642568.03107  16638457.77807 -16851931.53348  16638453.99748
 -36489220.14107  16167694.00507 -28419787.71448  16167688.99748
 -33496979.01207  16954894.33307 -26096603.95148  16954891.09148
 -28311879.12507  17019094.75507 -22050044.01448  17019091.93948
 08 11 15  3 24 29.9850000  0  8  3  6  7  8 11 19 25 27
 -27887002.83606  17587051.11406 -21712221.56947  17587048.95847
 -16392174.60905  18879696.65305 -12754056.28147  18879696.17747
 -31179120.48807  16296841.27807 -24288240.71048  16296837.88048
 -16453836.56606  17552975.59906 -12808993.73447  17552973.36447
 -21765684.61307  16615030.07507 -16947866.50748  16615025.88048
 -36494277.34007  16166731.29407 -28423728.38548  16166726.32948
 -33486038.47307  16956976.34107 -26088078.86148  16956972.36848
 -28368709.50807  17008280.56707 -22094327.43948  17008277.41148
 08 11 15  3 24 59.9850000  0  8  3  6  7  8 11 19 25 27
 -27853920.77706  17593346.54406 -21686443.39147  17593344.46247
 -16358965.84406  18886016.72406 -12728179.37847  18886014.75547
 -31203418.28507  16292217.52807 -24307174.05848  16292214.19248
 -16565653.64806  17531698.01306 -12896123.89247  17531694.84147
 -21888391.94107  16591678.98907 -17043482.60448  16591675.13048
 -36499087.29307  16165816.16907 -28427476.41048  16165810.84548
 -33474641.11307  16959144.67707 -26079197.80448  16959141.66148
 -28424997.02706  16997568.83306 -22138187.83548  16997566.66148
 08 11 15  3 25 29.9850000  0  8  3  6  7  8 11 19 25 27
 -27820734.30506  17599661.89606 -21660583.83547  17599659.15347
 -16325728.44906  18892341.63006 -12702280.11647  18892340.30247
 -31227113.12107  16287708.75507 -24325637.59448  16287705.25148
 -16676957.39807  17510517.49707 -12982854.09447  17510514.51747
 -22010691.63707  16568406.36407 -17138781.07048  16568401.99748
 -36503654.51607  16164946.99707 -28431035.30148  16164941.96248
 -33462792.44907  16961399.49707 -26069965.10748  16961396.86448
 -28480744.82407  16986960.72407 -22181627.69548  16986958.39648
 08 11 15  3 25 59.9850000  0  8  3  6  7  8 11 19 25 27
 -27787439.91806  17605997.95006 -21634640.16647  17605994.61847
 -16292458.45706  18898672.48206 -12676355.51547  18898671.52547
 -31250201.98807  16283315.20007 -24343628.93048  16283311.85348
 -16787740.70706  17489435.67706 -13069178.76648  17489433.13448
 -22132577.43407  16545212.14607 -17233757.01948  16545208.27848
 -36507976.25007  16164124.66107 -28434402.89648  16164119.52848
 -33450489.99607  16963740.66107 -26060378.78448  16963737.36848
 -28535948.19907  16976456.10707 -22224643.31648  16976454.02148
 08 11 15  3 26 29.9850000  0  8  3  6  7  8 11 19 25 27
 -27754041.41006  17612352.95806 -21608615.40947  17612350.49747
 -16259159.22306  18905008.98206 -12650408.11547  18905007.78647
 -31272687.85507  16279036.22407 -24361150.40748  16279033.10348
 -16898003.59007  17468453.34107 -13155097.89347  17468451.15347
 -22254050.22707  16522096.20807 -17328411.11848  16522093.05248
 -36512056.65607  16163348.20807 -28437582.45748  16163342.96648
 -33437738.34407  16966167.41907 -26050442.46748  16966164.04448
 -28590609.32007  16966054.41107 -22267236.40848  16966052.20848
 08 11 15  3 26 59.9850000  0  8  3  6  7  8 11 19 25 27
 -27720538.43806  17618728.66906 -21582509.24347  17618726.06447
 -16225830.11705  18911350.91905 -12624437.46546  18911350.22046
 -31294570.15207  16274872.23207 -24378201.55748  16274868.75148
 -17007742.41006  17447571.04406 -13240608.64447  17447568.33747
 -22375106.85207  16499060.65307 -17422740.94748  16499056.45048
 -36515895.91807  16162617.77107 -28440574.09548  16162612.36048
 -33424538.37107  16968679.88807 -26040156.77748  16968675.82948
 -28644726.34007  16955755.77807 -22309405.52148  16955753.86448
 08 11 15  3 27 29.9850000  0  8  3  6  7  8 11 19 25 27
 -27686934.62507  17625123.89607 -21556324.49047  17625121.29047
 -16192474.42206  18917699.13006 -12598446.00946  18917697.04446
 -31315852.75007  16270821.97407 -24394785.40148  16270818.91948
 -17116957.60206  17426787.82506 -13325711.40347  17426785.08747
 -22495748.05507  16476103.13807 -17516747.06648  16476099.16948
 -36519497.85207  16161931.91107 -28443380.81848  16161927.06748
 -33410894.52707  16971275.71607 -26029525.22648  16971271.91148
 -28698301.32807  16945560.94207 -22351152.27348  16945558.15048
 08 11 15  3 27 59.9850000  0  8  3  6  7  8 11 19 25 27
 -27653232.04307  17631536.38807 -21530062.78947  17631534.95447
 -16159093.66406  18924051.13006 -12572435.09146  18924049.59946
 -31336537.37907  16266886.11407 -24410903.31648  16266882.68948
 -17225647.53106  17406105.00506 -13410404.83847  17406102.08747
 -22615973.10207  16453225.09907 -17610428.92548  16453221.33748
 -36522865.05107  16161291.37207 -28446004.61348  16161286.17348
 -33396809.92207  16973956.20007 -26018550.22548  16973952.70048
 -28751335.06307  16935469.06007 -22392477.25948  16935466.47848
 08 11 15  3 28 29.9850000  0  8  3  6  7  8 11 19 25 27
 -27619430.75806  17637968.51306 -21503724.13647  17637966.07547
 -16125687.82406  18930407.87206 -12546404.61146  18930406.10746
 -31356624.18007  16263064.09107 -24426555.38348  16263060.30648
 -17333808.98806  17385522.45006 -13494686.48348  17385520.56448
 -22735779.29307  16430426.96607 -17703784.37748  16430423.07548
 -36525997.86707  16160695.47407 -28448445.78248  16160690.07148
 -33382285.85207  16976719.63807 -26007232.78948  16976716.68148
 -28803826.29707  16925480.08307 -22433379.51548  16925477.27548
 08 11 15  3 28 59.9850000  0  8  3  6  7  8 11 19 25 27
 -27585528.18406  17644420.41106 -21477306.57947  17644417.95447
 -16092253.28506  18936770.63006 -12520351.76146  18936768.23546
 -31376109.84807  16259355.82507 -24441739.02748  16259352.49748
 -17441435.29306  17365041.99706 -13578551.12947  17365039.44247
 -22855160.89807  16407708.59107 -17796808.98448  16407705.33748
 -36528893.62507  16160144.57507 -28450702.22548  16160139.00148
 -33367320.24607  16979567.69207 -25995571.28848  16979565.01348
 -28855770.51207  16915595.51307 -22473855.52648  16915592.52148
 08 11 15  3 29 29.9840000  0  8  3  6  7  8 11 19 25 27
 -27551530.21506  17650889.46906 -21450814.67947  17650887.80947
 -16058795.90206  18943137.35906 -12494281.09747  18943135.51647
 -31394998.96507  16255761.32007 -24456457.81448  16255757.51648
 -17548524.50406  17344663.38306 -13661997.27347  17344660.51247
 -22974116.38707  16385072.42207 -17889501.55548  16385068.71148
 -36531557.82407  16159637.45307 -28452778.24248  16159632.24248
 -33351919.68407  16982497.74207 -25983570.88348  16982495.64948
 -28907170.01207  16905814.43807 -22513907.08948  16905812.62148
 08 11 15  3 29 59.9840000  0  8  3  6  7  8 11 19 25 27
 -27517435.07006  17657377.94506 -21424247.07047  17657375.89147
 -16025313.64506  18949509.35906 -12468191.08147  18949507.07847
 -31413293.14107  16252279.90607 -24470713.02548  16252276.41448
 -17655081.16006  17324386.62506 -13745028.43648  17324383.52748
 -23092651.58607  16362515.86007 -17981866.64448  16362512.75448
 -36533991.37907  16159174.14107 -28454674.52048  16159169.16848
 -33336085.12107  16985511.42207 -25971232.27848  16985508.62548
 -28958027.36707  16896136.82807 -22553536.21048  16896134.48448
 08 11 15  3 30 29.9840000  0  8  3  6  7  8 11 19 25 27
 -27483245.13706  17663884.26606 -21397605.58147  17663881.54347
 -15991808.86306  18955885.11706 -12442083.49547  18955881.89547
 -31430993.51607  16248911.43007 -24484505.55248  16248908.30148
 -17761099.82806  17304211.73406 -13827640.36448  17304209.89948
 -23210761.22307  16340040.28907 -18073900.10748  16340037.24248
 -36536196.59407  16158754.75007 -28456392.89248  16158749.79748
 -33319819.64807  16988606.53907 -25958557.88648  16988603.30948
 -29008341.16807  16886562.66407 -22592741.78948  16886560.21148
 08 11 15  3 30 59.9840000  0  8  3  6  7  8 11 19 25 27
 -27448958.87506  17670408.51606 -21370889.05447  17670406.31747
 -15958278.81606  18962264.69506 -12415956.19247  18962263.31747
 -31448097.52007  16245656.97707 -24497833.36048  16245653.36048
 -17866574.73006  17284140.38306 -13909828.57447  17284138.11347
 -23328440.02707  16317646.74207 -18165597.88648  16317643.01648
 -36538171.56307  16158378.61707 -28457931.84248  16158373.94948
 -33303122.06307  16991783.84407 -25945546.79048  16991781.41448
 -29058107.84407  16877091.71907 -22631521.01648  16877090.17248
 08 11 15  3 31 29.9840000  0  8  3  6  7  8 11 19 25 27
 -27414575.41406  17676951.51606 -21344096.76447  17676949.03147
 -15924722.66406  18968651.50006 -12389808.58347  18968649.16847
 -31464605.14807  16242515.78107 -24510696.44848  16242511.86048
 -17971501.92606  17264173.71906 -13991590.03447  17264170.59047
 -23445685.64807  16295335.75807 -18256958.08348  16295331.92648
 -36539915.81307  16158046.64907 -28459291.01048  16158042.48148
 -33285993.09407  16995044.16407 -25932199.58548  16995041.14548
 -29107325.92207  16867726.65607 -22669872.77348  16867723.80148
 08 11 15  3 31 59.9840000  0  8  3  6  7  8 11 19 25 27
 -27380100.80106  17683511.78106 -21317233.49047  17683509.42247
 -15891146.33606  18975040.16406 -12363645.20647  18975037.90647
 -31480522.65207  16239486.72707 -24523099.69648  16239483.13748
 -18075884.79706  17244310.28906 -14072927.34348  17244307.52448
 -23562501.22307  16273106.46907 -18347983.20248  16273102.71548
 -36541436.06607  16157757.36007 -28460475.64748  16157752.79348
 -33268440.33607  16998383.82807 -25918522.12348  16998380.77748
 -29156000.45307  16858463.92207 -22707800.99548  16858461.73448
 08 11 15  3 32 29.9840000  0  8  3  6  7  8 11 19 25 27
 -27345537.02706  17690089.05506 -21290300.67947  17690087.14947
 -15857550.93806  18981433.47706 -12337467.04347  18981432.66847
 -31495851.99207  16236569.68807 -24535044.66048  16236565.80148
 -18179721.71106  17224550.27406 -14153839.20648  17224548.13348
 -23678885.90607  16250959.14107 -18438672.56348  16250955.21548
 -36542734.78107  16157510.50807 -28461487.65348  16157505.16448
 -33250466.62507  17001804.08607 -25904516.65548  17001801.55548
 -29204132.09007  16849304.64907 -22745306.18048  16849302.48848
 08 11 15  3 32 59.9840000  0  8  3  6  7  8 11 19 25 27
 -27310881.77306  17696684.19506 -21263296.63047  17696681.82847
 -15823934.32005  18987829.83605 -12311272.33347  18987829.42647
 -31510591.03107  16233764.86007 -24546529.62748  16233761.68048
 -18283007.17206  17204895.95306 -14234321.37347  17204893.43847
 -23794834.97307  16228894.58607 -18529022.46848  16228891.70348
 -36543810.21907  16157306.27407 -28462325.67748  16157300.87148
 -33232071.18007  17005304.90607 -25890182.56748  17005302.16848
 -29251717.77007  16840249.43807 -22782385.93448  16840247.55148
 08 11 15  3 33 29.9840000  0  8  3  6  7  8 11 19 25 27
 -27276138.06606  17703295.20306 -21236223.61647  17703292.72347
 -15790298.47305  18994230.89905 -12285062.63047  18994229.79747
 -31524742.79307  16231071.76607 -24557556.96448  16231068.40648
 -18385740.66406  17185346.87506 -14314373.45348  17185344.16048
 -23910348.60507  16206913.50807 -18619033.06748  16206910.30548
 -36544665.31607  16157143.21907 -28462991.99848  16157138.05948
 -33213257.76207  17008885.08607 -25875522.77348  17008881.58648
 -29298758.85907  16831298.01607 -22819041.33448  16831294.82048
 08 11 15  3 33 59.9840000  0  8  3  6  7  8 11 19 25 27
 -27241305.34006  17709923.32806 -21209081.31747  17709921.55947
 -15756642.89105  19000635.28905 -12258837.55247  19000633.41447
 -31538307.26207  16228490.89907 -24568126.68948  16228487.62148
 -18487918.54306  17165902.55506 -14393992.58748  17165899.74648
 -24025423.99607  16185015.22707 -18708702.20648  16185011.21548
 -36545300.18007  16157022.19507 -28463486.72048  16157017.19948
 -33194027.31307  17012544.47707 -25860538.01848  17012541.16048
 -29345253.93807  16822450.48407 -22855271.29348  16822447.54748
 08 11 15  3 34 29.9840000  0  8  3  6  7  8 11 19 25 27
 -27206379.33206  17716569.75006 -21181866.28347  17716567.27447
 -15722962.98005  19007044.15605 -12232593.52646  19007042.90646
 -31551280.43007  16226021.99207 -24578235.65048  16226018.52448
 -18589533.30906  17146566.53906 -14473172.93748  17146562.77448
 -24140054.27007  16163201.70307 -18798024.49248  16163197.61348
 -36545710.82007  16156944.71107 -28463806.71948  16156939.11748
 -33174377.22706  17016283.14906 -25845226.30948  17016281.09448
 -29391198.00807  16813707.10907 -22891071.87948  16813704.67248
 08 11 15  3 34 59.9840000  0  8  3  6  7  8 11 19 25 27
 -27171368.49206  17723232.64106 -21154585.15747  17723229.87947
 -15689266.29306  19013457.35206 -12206336.42146  19013455.08646
 -31563670.68007  16223664.28107 -24587890.40148  16223660.92248
 -18690590.28506  17127335.37506 -14551918.62848  17127332.70748
 -24254244.91407  16141471.91407 -18887004.18948  16141468.28948
 -36545906.21907  16156907.16407 -28463958.98148  16156902.04348
 -33154316.66407  17020101.47707 -25829594.70948  17020098.33648
 -29436597.91807  16805067.92207 -22926448.43748  16805064.66048
 08 11 15  3 35 29.9840000  0  8  3  6  7  8 11 19 25 27
 -27136270.89106  17729911.69506 -21127236.41047  17729908.74647
 -15655550.88305  19019872.92205 -12180064.67747  19019870.66047
 -31575476.73407  16221417.60207 -24597089.91348  16221414.03548
 -18791084.40606  17108211.85206 -14630225.73648  17108209.63748
 -24367991.97307  16119826.85207 -18975638.27148  16119823.44948
 -36545884.74607  16156911.36007 -28463942.25848  16156906.53148
 -33133845.35507  17023996.34407 -25813643.07448  17023992.97748
 -29481450.96907  16796532.53107 -22961398.86748  16796529.75048
 08 11 15  3 35 59.9840000  0  8  3  6  7  8 11 19 25 27
 -27101086.53906  17736606.59406 -21099820.07047  17736604.39547
 -15621816.35906  19026291.79706 -12153778.11546  19026290.96146
 -31586699.23807  16219282.18807 -24605834.74248  16219278.68048
 -18891012.70706  17089196.66406 -14708091.94348  17089194.05948
 -24481292.94107  16098266.35207 -19063924.73548  16098262.09448
 -36545646.97707  16156956.68007 -28463756.99248  16156952.07448
 -33112964.86306  17027969.69506 -25797372.57148  17027967.23148
 -29525756.37107  16788101.68807 -22995922.58348  16788099.53548
 08 11 15  3 36 29.9840000  0  8  3  6  7  8 11 19 25 27
 -27065817.67206  17743318.10906 -21072337.89547  17743315.34447
 -15588064.57806  19032714.98406 -12127478.12046  19032713.41846
 -31597340.34007  16217257.20307 -24614126.52348  16217254.52048
 -18990374.51206  17070288.33606 -14785516.71548  17070286.21548
 -24594147.61307  16076790.57007 -19151863.43648  16076786.86748
 -36545195.62107  16157042.36707 -28463405.28248  16157037.29348
 -33091678.60207  17032020.64107 -25780785.90748  17032017.66848
 -29569515.65607  16779774.46907 -23030020.75348  16779772.31348
 08 11 15  3 36 59.9840000  0  8  3  6  7  8 11 19 25 27
 -27030462.14506  17750046.48406 -21044788.17247  17750043.30147
 -15554293.41806  19039141.36706 -12101162.95746  19039139.75446
 -31607399.10507  16215342.89107 -24621964.54248  16215339.80548
 -19089164.82006  17051489.18006 -14862496.17248  17051486.59048
 -24706551.72307  16055401.03907 -19239451.04548  16055397.34448
 -36544529.30907  16157168.88307 -28462886.09048  16157164.14148
 -33069986.33606  17036148.39106 -25763882.84748  17036146.16448
 -29612726.21507  16771551.91407 -23063691.33448  16771549.29348
 08 11 15  3 37 29.9840000  0  8  3  6  7  8 11 19 25 27
 -26995022.58206  17756790.08606 -21017172.94547  17756787.55947
 -15520504.55906  19045571.32806 -12074834.02146  19045568.56746
 -31616877.73407  16213538.96107 -24629350.49348  16213535.95748
 -19187382.83606  17032799.14106 -14939029.67148  17032796.66848
 -24818505.00007  16034096.92207 -19326687.36748  16034092.43848
 -36543650.57407  16157336.15607 -28462201.36048  16157331.43848
 -33047891.55507  17040353.32807 -25746666.16348  17040350.12148
 -29655389.31607  16763433.36007 -23096935.32448  16763431.00048
 08 11 15  3 37 59.9840000  0  8  3  6  7  8 11 19 25 27
 -26959500.93006  17763550.30506 -20989493.82147  17763547.98147
 -15486699.55506  19052004.49206 -12048492.47847  19052003.40647
 -31625778.77307  16211845.60207 -24636286.39548  16211842.06748
 -19285027.41006  17014218.07806 -15015116.37348  17014215.11748
 -24930007.05107  16012878.58607 -19413572.06948  16012875.21548
 -36542562.08607  16157543.64907 -28461353.20848  16157538.19548
 -33025397.63706  17044634.07006 -25729138.45548  17044630.79348
 -29697505.81307  16755419.12507 -23129753.38748  16755416.67248
 08 11 15  3 38 29.9840000  0  8  3  6  7  8 11 19 25 27
 -26923894.50006  17770325.75806 -20961748.55647  17770323.02047
 -15452875.78906  19058440.93006 -12022136.35547  19058439.98847
 -31634100.70707  16210261.91407 -24642771.02348  16210258.51248
 -19382093.20706  16995746.50806 -15090752.03948  16995743.94948
 -25041053.11307  15991747.27407 -19500101.46648  15991744.10648
 -36541261.45307  16157791.07007 -28460339.73048  16157785.49248
 -33002503.68007  17048990.54707 -25711299.02248  17048987.45748
 -29739072.74607  16747508.68807 -23162143.21048  16747506.68848
 08 11 15  3 38 59.9840000  0  8  3  6  7  8 11 19 25 27
 -26888209.13706  17777116.49206 -20933941.84447  17777113.59447
 -15419038.13306  19064880.15606 -11995769.38547  19064878.03547
 -31641849.30907  16208787.64107 -24648808.90948  16208784.23848
 -19478582.42606  16977385.68006 -15165938.45048  16977382.79748
 -25151646.31307  15970702.32807 -19586277.99048  15970697.67648
 -36539754.44907  16158078.03107 -28459165.44548  16158072.59448
 -32979216.55906  17053421.84406 -25693153.25248  17053418.49248
 -29780094.86707  16739702.68807 -23194108.50948  16739700.58648
 08 11 15  3 39 29.9840000  0  8  3  6  7  8 11 19 25 27
 -26852446.79706  17783921.75006 -20906075.10047  17783919.15647
 -15385188.00005  19071321.08605 -11969392.72446  19071319.14946
 -31649027.04706  16207421.24206 -24654401.96148  16207418.32448
 -19574494.66406  16959134.40606 -15240675.26148  16959131.03548
 -25261786.02007  15949743.32007 -19672101.13148  15949739.46948
 -36538043.55907  16158403.66407 -28457832.28048  16158398.58248
 -32955539.71106  17057926.86706 -25674703.75448  17057923.99248
 -29820573.36707  16732000.02407 -23225650.20348  16731997.68848
 08 11 15  3 39 59.9840000  0  8  3  6  7  8 11 19 25 27
 -26816603.72706  17790742.11706 -20878145.47747  17790739.85247
 -15351322.52706  19077766.00006 -11943004.12447  19077763.16847
 -31655631.78507  16206164.65607 -24659548.52448  16206161.24248
 -19669823.89806  16940993.68006 -15314957.79948  16940991.36748
 -25371467.32007  15928871.55507 -19757567.08248  15928868.36048
 -36536126.66407  16158767.94507 -28456338.61748  16158763.03548
 -32931471.89106  17062507.13306 -25655949.63948  17062503.76248
 -29860504.85907  16724401.19507 -23256765.65248  16724399.14548
 08 11 15  3 40 29.9840000  0  8  3  6  7  8 11 19 25 27
 -26780681.11706  17797578.32006 -20850153.85447  17797576.44547
 -15317441.78505  19084213.50005 -11916603.62747  19084211.57847
 -31661664.90607  16205016.79707 -24664249.66748  16205013.03548
 -19764567.72706  16922964.31306 -15388784.14448  16922961.95348
 -25480688.78907  15908087.29707 -19842674.70048  15908083.38348
 -36534004.77007  16159172.18007 -28454685.20648  16159166.66048
 -32907015.29306  17067161.25806 -25636892.56948  17067157.90248
 -29899889.13307  16716906.43007 -23287454.69748  16716904.27448
 08 11 15  3 40 59.9840000  0  8  3  6  7  8 11 19 25 27
 -26744682.66406  17804428.85906 -20822103.17147  17804426.75047
 -15283548.77005  19090663.00005 -11890193.53647  19090661.37547
 -31667130.35507  16203976.71107 -24668508.47248  16203973.11348
 -19858726.72306  16905047.03106 -15462154.79748  16905043.96948
 -25589451.28507  15887390.86707 -19927424.71048  15887387.18848
 -36531681.55107  16159614.00007 -28452874.91248  16159608.62948
 -32882174.75407  17071888.10207 -25617536.31948  17071886.01248
 -29938728.94107  16709515.78107 -23317719.50548  16709513.07848
 08 11 15  3 41 29.9840000  0  8  3  6  7  8 11 19 25 27
 -26708610.60906  17811292.90606 -20793995.13747  17811290.63347
 -15249645.35505  19097114.29705 -11863775.36247  19097113.18047
 -31672031.01207  16203043.72707 -24672327.17648  16203040.44948
 -19952300.36706  16887240.21906 -15535069.31848  16887237.75048
 -25697754.72707  15866781.50807 -20011816.99748  15866777.27448
 -36529159.75407  16160094.18807 -28450909.88148  16160089.05948
 -32856954.19506  17076687.53106 -25597883.94848  17076685.14148
 -29977026.02007  16702227.86007 -23347561.38348  16702225.71148
 08 11 15  3 41 59.9840000  0  8  3  6  7  8 11 19 25 27
 -26672463.12906  17818171.83606 -20765828.29147  17818169.01247
 -15215730.21905  19103568.39905 -11837348.06346  19103567.12946
 -31676367.19507  16202219.01607 -24675706.03848  16202215.44248
 -20045285.24206  16869545.59406 -15607525.04848  16869542.82048
 -25805596.10207  15846259.54707 -20095849.23048  15846255.57848
 -36526438.89107  16160611.72707 -28448789.75048  16160607.02048
 -32831354.25806  17081559.01606 -25577935.98448  17081555.99248
 -30014778.91007  16695043.71107 -23376979.22548  16695041.47748
 08 11 15  3 42 29.9840000  0  8  3  6  7  8 11 19 25 27
 -26636237.90206  17825065.07006 -20737600.88247  17825062.97347
 -15181799.93005  19110024.60905 -11810908.94747  19110023.58647
 -31680136.08606  16201501.51606 -24678642.84648  16201498.32848
 -20137675.63706  16851963.93806 -15679517.56647  16851961.85247
 -25912970.29707  15825827.03907 -20179517.41648  15825823.16448
 -36523516.42206  16161167.54706 -28446512.51248  16161162.80148
 -32805373.58206  17086503.12506 -25557691.30648  17086499.35248
 -30051984.15607  16687964.15607 -23405970.34148  16687961.66848
 08 11 15  3 42 59.9840000  0  8  3  6  7  8 11 19 25 27
 -26599938.97306  17831972.84406 -20709316.04447  17831969.92647
 -15147858.23805  19116483.68005 -11784461.03647  19116482.76247
 -31683342.71107  16200891.21907 -24681141.52748  16200888.70748
 -20229472.79306  16834495.72706 -15751047.84748  16834494.17648
 -26019879.69107  15805482.75007 -20262823.41648  15805478.75848
 -36520397.32807  16161761.30507 -28444082.06648  16161756.55948
 -32779017.85507  17091518.07807 -25537154.41748  17091515.67248
 -30088645.35207  16680987.64107 -23434537.51048  16680985.37948
 08 11 15  3 43 29.9840000  0  8  3  6  7  8 11 19 25 27
 -26563566.49206  17838893.92206 -20680973.90947  17838891.72747
 -15113904.85505  19122944.99205 -11758003.86047  19122945.17247
 -31685987.73807  16200388.52407 -24683202.63048  16200385.15248
 -20320673.76606  16817141.43006 -15822113.52748  16817139.40248
 -26126321.48407  15785227.55507 -20345765.05248  15785224.07848
 -36517081.08207  16162392.37507 -28441497.99848  16162386.88748
 -32752288.72706  17096604.21106 -25516326.53148  17096602.03148
 -30124761.89107  16674114.68007 -23462680.26548  16674112.44248
 08 11 15  3 43 59.9840000  0  8  3  6  7  8 11 19 25 27
 -26527121.07006  17845829.16406 -20652574.91647  17845827.58247
 -15079940.48805  19129408.22705 -11731538.22047  19129408.30547
 -31688073.43007  16199991.48507 -24684827.84548  16199987.82848
 -20411277.27006  16799899.64106 -15892713.64948  16799897.32448
 -26232295.10907  15765061.37507 -20428341.91048  15765057.72748
 -36513569.81607  16163060.91407 -28438761.94748  16163055.41048
 -32725189.04706  17101761.18806 -25495209.93948  17101758.85948
 -30160334.57807  16667345.57807 -23490399.25348  16667343.44248
 08 11 15  3 44 29.9840000  0  8  3  6  7  8 11 19 25 27
 -26490604.04706  17852778.87506 -20624120.10147  17852776.61747
 -15045966.07805  19135873.32805 -11705064.68046  19135872.29346
 -31689602.16807  16199700.29707 -24686019.06448  16199696.38348
 -20501281.85906  16782772.43006 -15962847.10748  16782769.78148
 -26337798.84007  15744984.67207 -20510552.60048  15744980.85248
 -36509865.24607  16163765.78907 -28435875.28948  16163760.68448
 -32697721.78906  17106988.14106 -25473806.88548  17106986.05148
 -30195364.12907  16660679.21907 -23517694.99948  16660677.31748
 08 11 15  3 44 59.9840000  0  9  3  6  7  8 11 19 25 27 28
 -26454021.84006  17859739.28906 -20595614.51347  17859738.19947
 -15011986.91005  19142339.74205 -11678587.42746  19142338.73446
 -31690580.37507  16199514.24207 -24686781.33048  16199511.31348
 -20590690.89506  16765757.96906 -16032516.48248  16765755.73848
 -26442837.44907  15724996.46907 -20592400.83948  15724993.39148
 -36505973.53907  16164505.85207 -28432842.79548  16164500.94548
 -32669894.29706  17112283.68806 -25452123.16148  17112281.62548
 -30229855.94507  16654116.42207 -23544571.75548  16654113.75448
   -244064.60215  19642895.25805   -179473.90156  19642890.80946
 08 11 15  3 45 29.9840000  0  9  3  6  7  8 11 19 25 27 28
 -26417376.96506  17866713.00806 -20567060.11147  17866711.62547
 -14978005.62105  19148806.50805 -11652108.54546  19148804.62546
 -31691012.19507  16199432.26607 -24687117.83148  16199428.92648
 -20679504.87106  16748857.25006 -16101722.18448  16748856.02448
 -26547411.77007  15705096.75007 -20673887.31748  15705092.83648
 -36501898.30907  16165281.39107 -28429667.31548  16165277.02748
 -32641711.47706  17117647.06306 -25430162.52748  17117643.78548
 -30263812.77307  16647654.39907 -23571031.62348  16647652.19948
   -378872.15204  19617240.08604   -284518.71846  19617237.53146
 08 11 15  3 45 59.9840000  0  9  3  6  7  8 11 19 25 27 28
 -26380670.05506  17873698.21106 -20538457.38447  17873696.73847
 -14944022.68005  19155272.51605 -11625628.37547  19155272.30147
 -31690899.13707  16199453.76607 -24687029.74948  16199449.92248
 -20767721.57806  16732070.57006 -16170462.46548  16732068.51648
 -26651520.01607  15685285.49207 -20755010.61448  15685281.67648
 -36497640.93007  16166091.86707 -28426349.88648  16166086.71548
 -32613175.66407  17123076.96107 -25407926.85148  17123073.68048
 -30297235.11707  16641294.33607 -23597075.03148  16641292.14148
   -513723.37102  19591577.07802   -389597.54546  19591576.37146
 08 11 15  3 46 29.9840000  0  9  3  6  7  8 11 19 25 27 28
 -26343900.34006  17880695.32006 -20509805.68847  17880693.64547
 -14910037.14505  19161740.80505 -11599146.20346  19161738.38346
 -31690241.60507  16199578.52407 -24686517.42248  16199574.95348
 -20855338.20706  16715397.51606 -16238735.17248  16715395.45348
 -26755159.89807  15665563.68007 -20835768.94948  15665560.07848
 -36493200.62107  16166936.97707 -28422889.91348  16166931.71948
 -32584288.20306  17128573.84406 -25385417.14748  17128570.72748
 -30330122.19907  16635036.18807 -23622701.32848  16635033.66848
   -648616.24203  19565911.11703   -494708.86346  19565907.53146
 08 11 15  3 46 59.9830000  0  9  3  6  7  8 11 19 25 27 28
 -26307066.29706  17887703.95606 -20481103.89647  17887702.35947
 -14876046.36305  19168208.89405 -11572659.90947  19168208.05847
 -31689037.52007  16199807.70607 -24685579.19148  16199803.87848
 -20942345.94906  16698840.75306 -16306533.42448  16698838.57348
 -26858322.58207  15645932.05807 -20916155.45148  15645928.36248
 -36488575.09406  16167817.08106 -28419285.62548  16167812.23048
 -32555048.43407  17134138.83907 -25362632.95648  17134134.90248
 -30362469.25007  16628881.03407 -23647906.83148  16628878.24948
   -783540.83603  19540234.15203   -599844.81546  19540233.12846
 08 11 15  3 47 29.9830000  0  9  3  6  7  8 11 19 25 27 28
 -26270162.82006  17894726.59706 -20452347.97747  17894725.73447
 -14842045.46105  19174678.88605 -11546165.71746  19174677.54646
 -31687285.72707  16200140.98707 -24684214.15848  16200138.18748
 -21028746.30106  16682398.95606 -16373858.36048  16682397.11248
 -26961010.93407  15626391.26907 -20996172.33648  15626388.09348
 -36483762.24606  16168733.05806 -28415535.34648  16168727.82748
 -32525453.98806  17139769.99506 -25339572.36348  17139767.21448
 -30394275.93407  16622828.37807 -23672691.25848  16622825.65548
   -918502.24205  19514553.16705   -705009.41546  19514550.36246
 08 11 15  3 47 59.9830000  0  9  3  6  7  8 11 19 25 27 28
 -26233193.43406  17901762.21406 -20423540.71647  17901760.30847
 -14808037.30905  19181150.92505 -11519665.88847  19181149.01947
 -31684989.10907  16200578.73707 -24682424.61748  16200575.20648
 -21114535.55506  16666074.16706 -16440707.13748  16666071.72648
 -27063221.33207  15606941.34707 -21075816.81048  15606937.59348
 -36478764.80507  16169684.05007 -28411641.25748  16169679.09348
 -32495509.59806  17145467.87806 -25316239.08648  17145465.74148
 -30425542.84807  16616878.10507 -23697055.11248  16616876.35148
  -1053495.84806  19488864.73706   -810199.26546  19488862.12446
 08 11 15  3 48 29.9830000  0  9  3  6  7  8 11 19 25 27 28
 -26196159.82406  17908809.67506 -20394683.39247  17908807.28047
 -14774023.37103  19187622.80803 -11493161.58346  19187621.78846
 -31682150.81607  16201118.73707 -24680212.96448  16201115.17948
 -21199713.14106  16649865.23706 -16507079.29148  16649863.47248
 -27164954.00007  15587582.23707 -21155089.01048  15587578.94148
 -36473584.71107  16170669.68307 -28407604.82148  16170664.18348
 -32465219.00006  17151232.29206 -25292636.04348  17151229.07748
 -30456271.96906  16611030.62006 -23720999.88748  16611028.41348
  -1188521.60206  19463170.26906   -915414.05447  19463167.52747
 08 11 15  3 48 59.9830000  0  9  3  6  7  8 11 19 25 27 28
 -26159060.64506  17915869.01906 -20365774.96947  17915867.06247
 -14740001.50003  19194097.08903 -11466651.13446  19194096.05846
 -31678770.37907  16201761.51907 -24677578.89048  16201758.40548
 -21284275.14107  16633773.87007 -16572971.75348  16633770.80848
 -27266205.22307  15568314.97207 -21233986.06848  15568311.47648
 -36468221.11306  16171690.19806 -28403425.40848  16171685.63648
 -32434582.36307  17157062.28407 -25268763.36048  17157059.26148
 -30486461.44907  16605285.51907 -23744524.16948  16605283.56248
  -1323576.03906  19437470.76906  -1020651.28147  19437467.85947
 08 11 15  3 49 29.9830000  0  9  3  6  7  8 11 19 25 27 28
 -26121898.50805  17922940.35505 -20336817.50947  17922938.07747
 -14705974.56305  19200572.49505 -11440136.69646  19200570.12046
 -31674851.82807  16202507.57307 -24674525.48148  16202503.81248
 -21368222.30506  16617799.55006 -16638385.12948  16617796.54248
 -27366976.32807  15549138.90207 -21312508.99648  15549135.19148
 -36462677.46106  16172744.90206 -28399105.69048  16172740.11648
 -32403604.55506  17162957.61206 -25244624.84547  17162954.23047
 -30516114.10907  16599643.54207 -23767630.15248  16599641.06648
  -1458660.18406  19411764.92506  -1125911.61347  19411761.92147
 08 11 15  3 49 59.9830000  0  9  3  6  7  8 11 19 25 27 28
 -26084674.98806  17930024.07306 -20307812.19747  17930022.69147
 -14671943.68805  19207047.77705 -11413619.10246  19207045.90946
 -31670398.22306  16203355.02706 -24671055.14148  16203350.94148
 -21451553.91806  16601941.88606 -16703318.84948  16601938.93748
 -27467267.21507  15530054.26107 -21390657.74448  15530050.68348
 -36456955.80906  16173834.04206 -28394647.27248  16173829.28848
 -32372289.26606  17168916.64406 -25220223.32947  17168913.09747
 -30545231.61707  16594102.08107 -23790319.12648  16594099.64048
  -1593774.24206  19386054.11206  -1231195.28646  19386049.47246
 08 11 15  3 50 29.9830000  0  9  3  6  7  8 11 19 25 27 28
 -26047386.67206  17937120.19106 -20278756.40747  17937117.96447
 -14637904.68805  19213525.89405 -11387095.25246  19213523.77746
 -31665406.89506  16204304.59706 -24667165.80148  16204301.00348
 -21534264.36706  16586202.70606 -16767768.56048  16586199.86648
 -27567072.17207  15511061.74507 -21468427.83048  15511058.38248
 -36451052.80906  16174957.59706 -28390047.54648  16174952.05848
 -32340634.43806  17174939.91706 -25195557.27148  17174937.36248
 -30573810.17207  16588663.75307 -23812588.14848  16588661.68348
  -1728912.62506  19360337.48706  -1336497.92646  19360333.61246
