     2              OBSERVATION DATA                        RINEX VERSION / TYPE
DAT2RINW 3.10 001   .                   16NOV08 14:24:09    PGM / RUN BY / DATE 
.                   .                                       OBSERVER / AGENCY   
0220372125          TRIMBLE 5700        Nav 2.30 Sig 2.30   REC # / TYPE / VERS 
0                   TRM39105.00     NONE                    ANT # / TYPE        
----------------------------------------------------------- COMMENT             
Offset from BOTTOM OF ANTENNA to PHASE CENTER is  46.0 mm   COMMENT             
----------------------------------------------------------- COMMENT             
0231                                                        MARKER NAME
0231                                                        MARKER NUMBER       
 -3067629.5392  4051259.1751  3841867.5811                  APPROX POSITION XYZ 
        1.2990        0.0000        0.0000                  ANTENNA: DELTA H/E/N
*** Above antenna height is from mark to BOTTOM OF ANTENNA. COMMENT             
----------------------------------------------------------- COMMENT             
Note: The above offsets are CORRECTED.                      COMMENT             
Raw Offsets: H=      1.3410 E=      0.0000 N=      0.0000   COMMENT             
----------------------------------------------------------- COMMENT             
     1     1     0                                          WAVELENGTH FACT L1/2
     4    L1    C1    L2    P2                              # / TYPES OF OBSERV 
    30                                                      INTERVAL            
  2008    11    15     0     0    0.000000                  TIME OF FIRST OBS   
  2008    11    15     8    10    0.000000                  TIME OF LAST OBS    
    20                                                      # OF SATELLITES     
     2     7     7     7     7                              PRN / # OF OBS      
     3   638   639   632   632                              PRN / # OF OBS      
     4   218   222   208   208                              PRN / # OF OBS      
     6   578   579   575   575                              PRN / # OF OBS      
     7   537   538   533   533                              PRN / # OF OBS      
     8   451   452   445   445                              PRN / # OF OBS      
    11   671   673   623   624                              PRN / # OF OBS      
    13   375   376   335   335                              PRN / # OF OBS      
    16   449   449   441   441                              PRN / # OF OBS      
    17   417   417   417   417                              PRN / # OF OBS      
    19   699   704   680   680                              PRN / # OF OBS      
    20   353   356   350   350                              PRN / # OF OBS      
    21   143   145    97    97                              PRN / # OF OBS      
    23   411   418   389   389                              PRN / # OF OBS      
    25   565   568   539   539                              PRN / # OF OBS      
    27   459   460   449   449                              PRN / # OF OBS      
    28   546   546   546   546                              PRN / # OF OBS      
    29     6    10     0     0                              PRN / # OF OBS      
    31   190   192   171   171                              PRN / # OF OBS      
    32   306   322   251   251                              PRN / # OF OBS      
                                                            END OF HEADER       
 08 11 14 23 59 59.9980000  0  7  3  6 13 16 19 23 31
 -15421959.77006  20232726.81806 -11774204.96547  20232723.34247
 -12113868.63307  19930696.91207  -9363523.18848  19930693.79948
  -7628711.27306  22137803.10006  -5916552.53147  22137800.68947
  -2419801.46507  19917537.33407  -1871642.89148  19917533.63948
  -1253925.94505  22916578.10705   -546956.63346  22916571.99446
  -9849089.10207  20798476.41207  -7640795.87548  20798471.14348
   2399188.66406  21295978.98206   1874175.84047  21295974.52947
 08 11 15  0  0 29.9980000  0  8  3  6 13 16 19 21 23 31
 -15516125.45306  20214807.77106 -11847580.80547  20214804.82247
 -12175600.69107  19918949.76407  -9411626.08248  19918946.74848
  -7711132.25406  22122119.47506  -5980776.73047  22122115.42847
  -2414418.31307  19918561.71707  -1867448.23848  19918557.48248
  -1381572.11703  22892287.54503   -646421.16446  22892282.22546
    -92561.22311  23357897.89601         0.00000         0.00000
  -9882523.85507  20792113.85707  -7666848.91448  20792108.30348
   2445488.39506  21304788.80306   1910253.52047  21304785.53347
 08 11 15  0  0 59.9980000  0  8  3  6 13 16 19 21 23 31
 -15609795.74606  20196983.14606 -11920570.64147  20196980.01447
 -12236787.35507  19907306.54507  -9459303.99249  19907303.66649
  -7792995.49606  22106541.22506  -6044566.30147  22106537.26047
  -2408753.02707  19919640.10007  -1863033.74248  19919635.13548
  -1508995.39106  22868041.02906   -745712.09046  22868034.91246
   -138014.62102  23349250.10702         0.00000         0.00000
  -9915278.86707  20785880.69307  -7692372.28148  20785874.88548
   2492158.08206  21313669.74806   1946619.48447  21313665.26447
 08 11 15  0  1 29.9980000  0  9  3  6 13 16 19 21 23 25 31
 -15702971.53906  20179252.54506 -11993175.12947  20179249.74447
 -12297430.46108  19895766.48208  -9506558.35248  19895763.14648
  -7874300.86305  22091068.89605  -6107921.08247  22091066.12347
  -2402809.40607  19920770.96707  -1858402.36748  19920766.33848
  -1636196.12106  22843834.85006   -844829.51246  22843829.89646
   -183016.72702  23340684.17802         0.00000         0.00000
  -9947356.32807  20779776.92807  -7717367.73048  20779771.13148
   -196140.16814  23664808.57604   -144876.14556  23664807.17046
   2539195.12506  21322620.73206   1983271.70346  21322614.70946
 08 11 15  0  1 59.9980000  0  9  3  6 13 16 19 21 23 25 31
 -15795650.77006  20161616.69306 -12065392.67247  20161613.36547
 -12357528.94107  19884329.78707  -9553388.33248  19884326.74048
  -7955045.19106  22075704.74006  -6170838.78547  22075700.23647
  -2396587.96507  19921954.92807  -1853554.48848  19921950.95948
  -1763171.85906  22819672.84206   -943771.60947  22819667.82247
   -227565.54702  23332206.88102         0.00000         0.00000
  -9978755.75807  20773802.42807  -7741834.82848  20773797.06148
   -305412.78505  23644015.70905   -230023.66446  23644013.30746
   2586599.23006  21331640.72506   2020209.94546  21331635.95946
 08 11 15  0  2 29.9980000  0  9  3  6 13 16 19 21 23 25 31
 -15887837.28506  20144073.61506 -12137226.32447  20144070.66647
 -12417087.79707  19872996.35707  -9599797.84848  19872993.14648
  -8035232.17606  22060444.82606  -6233322.10947  22060440.61147
  -2390095.01207  19923190.46707  -1848495.05548  19923185.79148
  -1889925.77706  22795551.35006  -1042540.87147  22795548.06147
   -271665.22301  23323815.05301         0.00000         0.00000
 -10009482.28907  20767955.38907  -7765777.57848  20767948.83848
   -414618.51206  23623234.82606   -315119.02346  23623232.52946
   2634364.27306  21340730.92806   2057429.43046  21340726.05746
 08 11 15  0  2 59.9980000  0  9  3  6 13 16 19 21 23 25 31
 -15979513.29306  20126627.43606 -12208662.17247  20126624.61147
 -12476090.02707  19861768.43607  -9645773.60548  19861765.17048
  -8114843.14506  22045295.79506  -6295356.61747  22045292.28347
  -2383315.41407  19924480.54507  -1843212.25448  19924476.06148
  -2016439.39106  22771477.44306  -1141122.91047  22771473.20147
   -315298.23801  23315511.60001         0.00000         0.00000
 -10039519.23407  20762239.17807  -7789182.96548  20762233.15048
   -523739.22305  23602469.82605   -400148.10246  23602467.23646
   2682506.39106  21349891.73206   2094942.74246  21349887.63146
 08 11 15  0  3 29.9980000  0  9  3  6 13 16 19 21 23 25 31
 -16070673.77306  20109280.77106 -12279696.32047  20109278.21747
 -12534531.47707  19850647.38907  -9691312.39848  19850644.02948
  -8193872.23806  22030257.21706  -6356937.74647  22030253.82247
  -2376246.34407  19925825.78707  -1837703.88748  19925821.57648
  -2142706.72306  22747449.02906  -1239513.03547  22747445.30347
   -358458.47702  23307299.45902         0.00000         0.00000
 -10068862.62907  20756655.08407  -7812047.95748  20756649.67848
   -632769.89105  23581721.37305   -485107.05146  23581716.62746
   2731028.39106  21359124.57606   2132752.11747  21359120.72947
 08 11 15  0  3 59.9980000  0  9  3  6 13 16 19 21 23 25 31
 -16161317.61306  20092031.80306 -12350327.84847  20092029.67447
 -12592412.46907  19839633.18607  -9736414.46148  19839630.64348
  -8272318.84806  22015329.10006  -6418064.96947  22015325.96347
  -2368889.82007  19927225.44307  -1831971.56348  19927221.45148
  -2268726.44106  22723468.33406  -1337710.24647  22723463.81147
   -401145.85901  23299173.92801         0.00000         0.00000
 -10097513.16807  20751203.00607  -7834373.09448  20751198.42448
   -741710.23805  23560990.42805   -569995.54746  23560986.48646
   2779929.08206  21368430.54506   2170856.51247  21368426.86547
 08 11 15  0  4 29.9980000  0  9  3  6 13 16 19 21 23 25 31
 -16251443.79306  20074881.87306 -12420556.05948  20074880.19748
 -12649733.19507  19828725.10007  -9781079.97348  19828722.47948
  -8350181.64807  22000513.10007  -6478737.27747  22000509.35447
  -2361247.47707  19928680.31107  -1826016.50448  19928675.79548
  -2394497.06606  22699534.81806  -1435713.32447  22699531.82247
   -443359.70713  23291145.24003         0.00000         0.00000
 -10125471.50007  20745882.67807  -7856158.82448  20745876.41248
   -850559.21904  23540277.60004   -654812.89146  23540273.86946
   2829207.39806  21377807.69306   2209255.17646  21377805.25646
 08 11 15  0  4 59.9980000  0  9  3  6 13 16 19 21 23 25 31
 -16341059.30506  20057827.99006 -12490386.31347  20057826.36147
 -12706500.97307  19817922.49807  -9825314.58648  19817920.02548
  -8427466.05506  21985805.49806  -6538958.88347  21985802.42847
  -2353328.38307  19930187.15407  -1819845.80148  19930182.11548
  -2520024.21106  22675647.86506  -1533526.68447  22675645.30347
   -485106.28102  23283199.53702         0.00000         0.00000
 -10152745.41007  20740692.43607  -7877411.21148  20740685.92848
   -959323.54305  23519578.86505   -739564.31346  23519576.58046
   2878854.45306  21387256.00606   2247941.20346  21387251.35446
 08 11 15  0  5 29.9980000  0  9  3  6 13 16 19 21 23 25 31
 -16430160.12506  20040873.42806 -12559815.51647  20040870.17047
 -12762712.84007  19807225.95907  -9869116.03549  19807222.92849
  -8504167.90206  21971209.88906  -6598726.58247  21971206.41247
  -2345130.76207  19931747.14607  -1813458.05148  19931742.70548
  -2645303.28506  22651808.17806  -1631146.72747  22651805.48647
   -526381.53504  23275345.77104    -17327.19155  23275341.84245
 -10179332.27707  20735633.35707  -7898128.27048  20735626.44348
  -1067999.04705  23498899.52905   -824246.50046  23498896.81146
   2928872.23006  21396773.95106   2286916.06346  21396769.87346
 08 11 15  0  5 59.9980000  0  9  3  6 13 16 19 21 23 25 31
 -16518741.88706  20024016.26406 -12628840.27047  20024012.76447
 -12818365.76207  19796635.60007  -9912481.95748  19796632.24848
  -8580282.44906  21956725.27106  -6658036.64147  21956722.26047
  -2336653.06307  19933360.64607  -1806852.05148  19933356.57648
  -2770329.47306  22628015.79506  -1728569.67646  22628013.48646
   -567181.55104  23267581.15404    -49119.42645  23267578.85745
 -10205229.56307  20730705.80307  -7918307.99648  20730699.85748
  -1176581.81606  23478238.63106   -908856.48447  23478234.59647
   2979262.93805  21406362.67805   2326181.51246  21406360.21346
 08 11 15  0  6 29.9980000  0  9  3  6 13 16 19 21 23 25 31
 -16606803.07006  20007258.95906 -12697459.34847  20007256.03347
 -12873459.38307  19786151.48207  -9955412.06348  19786148.23648
  -8655807.89506  21942352.82606  -6716887.59847  21942349.69347
  -2327896.21907  19935026.93607  -1800028.55149  19935022.10449
  -2895100.56306  22604273.27106  -1825793.85946  22604269.32246
   -607504.86703  23259905.99803    -80540.05945  23259904.63145
 -10230437.19907  20725909.25607  -7937950.33648  20725903.57248
  -1285070.50806  23457593.85706   -993393.16047  23457590.84647
   3030025.71506  21416022.75606   2365736.88346  21416019.24446
 08 11 15  0  6 59.9970000  0  9  3  6 13 16 19 21 23 25 31
 -16694340.88706  19990601.22806 -12765670.62947  19990598.67347
 -12927992.68007  19775774.29007  -9997905.54348  19775770.88048
  -8730740.84006  21928094.41506  -6775276.94947  21928090.08747
  -2318862.88707  19936745.62607  -1792989.60548  19936741.19248
  -3019611.61706  22580579.04006  -1922815.41446  22580574.27846
   -647349.96105  23252325.43105   -111588.18446  23252321.51346
 -10254955.50807  20721243.11007  -7957055.51248  20721237.81048
  -1393461.28106  23436967.38406  -1077853.46147  23436963.59547
   3081157.18405  21425752.27405   2405579.53546  21425748.58746
 08 11 15  0  7 29.9970000  0  9  3  6 13 16 19 21 23 25 31
 -16781343.33206  19974045.08706 -12833464.71547  19974042.36047
 -12981952.61707  19765505.61007 -10039952.23848  19765502.79848
  -8805068.41406  21913950.11806  -6833194.49647  21913947.04047
  -2309536.97307  19938520.57907  -1785722.68448  19938515.95448
  -3143852.44106  22556937.29006  -2019626.42646  22556931.06746
   -686701.76205  23244837.24305   -142251.96545  23244831.76745
 -10278769.77007  20716710.61007  -7975612.08648  20716705.72048
  -1501743.59006  23416361.12606  -1162229.24647  23416357.81747
   3132676.34405  21435556.45405   2445724.34846  21435552.23946
 08 11 15  0  7 59.9970000  0  9  3  6 13 16 19 21 23 25 31
 -16867809.35206  19957590.90706 -12900840.84447  19957588.07547
 -13035339.89807  19755346.62607 -10081552.71948  19755343.52448
  -8878789.26206  21899920.68806  -6890639.30147  21899916.97047
  -2299922.99607  19940349.95407  -1778231.27048  19940345.89248
  -3267819.56306  22533346.62606  -2116224.16046  22533340.63446
   -725560.81605  23237441.36805   -172531.68845  23237437.98545
 -10301882.37907  20712312.93807  -7993621.91848  20712307.62248
  -1609915.40206  23395776.86006  -1246518.94147  23395773.94647
   3184577.84805  21445432.14205   2486167.01646  21445429.26746
 08 11 15  0  8 29.9970000  0  9  3  6 13 16 19 21 23 25 31
 -16953745.73006  19941237.24306 -12967804.28547  19941235.02847
 -13088162.77307  19745294.56307 -10122713.40648  19745291.45448
  -8951909.46106  21886007.22806  -6947616.10947  21886001.61847
  -2290030.27007  19942232.16507  -1770522.65648  19942228.67348
  -3391519.28506  22509806.82106  -2212613.50046  22509800.96246
   -763934.36705  23230139.39905   -202433.12946  23230136.59946
 -10324301.81607  20708047.05607  -8011091.61748  20708041.73548
  -1717983.75405  23375212.33705  -1330728.02347  23375208.02447
   3236852.41005  21455379.96205   2526900.42646  21455378.02446
 08 11 15  0  8 59.9970000  0  9  3  6 13 16 19 21 23 25 31
 -17039137.80106  19924988.15706 -13034343.55147  19924985.48947
 -13140407.33607  19735353.26707 -10163423.44948  19735349.87248
  -9024414.16806  21872210.02406  -7004113.25047  21872206.62247
  -2279846.21107  19944170.14907  -1762587.04748  19944166.02848
  -3514936.12106  22486321.79006  -2308782.44546  22486315.32546
   -801807.50806  23222932.56306   -231944.60246  23222930.08346
 -10346014.87507  20703915.10307  -8028010.87548  20703909.20848
  -1825933.60506  23354670.36006  -1414844.77047  23354666.48947
   3289513.02306  21465400.70406   2567934.69546  21465397.27446
 08 11 15  0  9 29.9970000  0  9  3  6 13 16 19 21 23 25 31
 -17123991.87507  19908841.35307 -13100463.62947  19908837.58747
 -13192081.14107  19725519.93807 -10203688.77049  19725517.25149
  -9096308.97706  21858528.53206  -7060135.18447  21858525.62647
  -2269379.55507  19946162.32107  -1754431.22348  19946157.38048
  -3638075.67206  22462888.96206  -2404735.28547  22462883.62247
   -839186.38306  23215820.97006   -261070.97746  23215816.95446
 -10367029.33607  20699915.90707  -8044385.77348  20699910.71648
  -1933771.36705  23334149.16505  -1498874.18446  23334144.75946
   3342551.19506  21475494.18106   2609263.08246  21475489.48946
 08 11 15  0  9 59.9970000  0  9  3  6 13 16 19 21 23 25 31
 -17208304.14506  19892796.49306 -13166161.50047  19892794.27447
 -13243181.42207  19715796.10307 -10243507.16448  19715793.14648
  -9167590.32406  21844964.90706  -7115679.08247  21844961.05247
  -2258629.19907  19948207.74307  -1746054.31648  19948203.66948
  -3760933.32006  22439509.82906  -2500468.42246  22439505.21246
   -876067.52705  23208801.34505   -289809.54746  23208798.93846
 -10387343.05907  20696050.64207  -8060214.64148  20696044.19248
  -2041493.09804  23313649.73504  -1582813.16046  23313646.72846
   3395968.87906  21485659.93806   2650887.21947  21485656.14247
 08 11 15  0 10 29.9970000  0  9  3  6 13 16 19 21 23 25 31
 -17292069.39106  19876856.04006 -13231433.09847  19876853.91147
 -13293704.05907  19706181.56307 -10282875.43448  19706178.53648
  -9238251.96506  21831517.84506  -7170740.11347  21831515.50547
  -2247591.96107  19950308.04807  -1737453.86748  19950303.88848
  -3883503.05106  22416185.22006  -2595977.19147  22416181.42747
   -912445.86705  23201878.78205   -318156.30946  23201875.23946
 -10406952.18007  20692319.04807  -8075494.49648  20692312.75948
  -2149093.28502  23293175.25102  -1666657.44146  23293171.03246
   3449768.94906  21495897.18106   2692809.33247  21495893.48147
 08 11 15  0 10 59.9970000  0  9  3  6 13 16 19 21 23 25 31
 -17375290.30906  19861019.93106 -13296280.52748  19861017.57948
 -13343652.69507  19696676.90707 -10321796.46548  19696673.72448
  -9308295.93806  21818188.97006  -7225319.85547  21818185.50947
  -2236272.59807  19952461.75907  -1728633.60548  19952457.43848
  -4005786.62906  22392915.89906  -2691263.07047  22392911.66547
   -948323.93406  23195052.35306   -346113.27046  23195048.31746
 -10425860.91407  20688720.95407  -8090228.57848  20688715.18548
  -2256574.31605  23272721.23505  -1750408.89146  23272717.82146
   3503946.87906  21506206.33706   2735025.89547  21506202.89247
 08 11 15  0 11 29.9970000  0  9  3  6 13 16 19 21 23 25 31
 -17457961.21506  19845288.81306 -13360699.40248  19845286.34148
 -13393022.56307  19687281.71207 -10360266.47348  19687278.90748
  -9377715.67606  21804978.93106  -7279413.18847  21804975.93147
  -2224667.42207  19954670.38407  -1719590.60948  19954665.99748
  -4127777.35906  22369701.70406  -2786320.74247  22369697.99347
   -983696.09805  23188320.79805   -373675.99246  23188316.46646
 -10444065.10207  20685257.05607  -8104413.67648  20685250.43148
  -2363930.18405  23252292.37605  -1834062.79747  23252288.53247
   3558506.49606  21516589.62606   2777539.85247  21516585.41947
 08 11 15  0 11 59.9970000  0  9  3  6 13 16 19 21 23 25 31
 -17540079.50407  19829662.11807 -13424687.68448  19829658.91548
 -13441812.38707  19677997.38407 -10398284.51648  19677994.66948
  -9446509.41806  21791887.56306  -7333018.66447  21791884.31047
  -2212776.49607  19956933.43107  -1710324.96948  19956928.89248
  -4249472.14506  22346544.07106  -2881147.79347  22346540.47847
  -1018559.85505  23181686.01705   -400842.53946  23181681.57946
 -10461563.90207  20681926.99307  -8118049.07048  20681921.07148
  -2471158.48406  23231886.43106  -1917617.27346  23231883.47446
   3613448.12906  21527044.56306   2820351.50447  21527040.86447
 08 11 15  0 12 29.9970000  0  9  3  6 13 16 19 21 23 25 31
 -17621641.05107  19814141.87607 -13488242.14148  19814138.70448
 -13490019.05507  19668824.36007 -10435848.14848  19668821.08348
  -9514671.67606  21778916.60306  -7386132.15246  21778911.93146
  -2200598.03107  19959250.60307  -1700835.27348  19959246.52148
  -4370865.84406  22323443.74306  -2975740.23446  22323439.74746
  -1052911.10205  23175149.23505   -427609.79746  23175144.40346
 -10478354.66007  20678731.11807  -8131132.78948  20678726.26348
  -2578254.54305  23211507.08705  -2001068.70747  23211504.94247
   3668774.12506  21537572.91506   2863462.65647  21537569.62247
 08 11 15  0 12 59.9970000  0  9  3  6 13 16 19 21 23 25 31
 -17702640.81606  19798727.72806 -13551358.84448  19798724.21248
 -13537638.68007  19659762.75907 -10472954.35949  19659759.52449
  -9582197.36306  21766067.41506  -7438749.55547  21766062.87647
  -2188128.99207  19961623.23507  -1691119.15248  19961619.15348
  -4491952.69506  22300401.96206  -3070093.62947  22300397.96647
  -1086745.11305  23168710.18105   -453973.93046  23168705.88446
 -10494434.20307  20675671.87607  -8143662.30148  20675666.12648
  -2685213.24205  23191153.40705  -2084413.14546  23191151.69646
   3724486.94106  21548174.86006   2906875.21547  21548171.86447
 08 11 15  0 13 29.9970000  0  9  3  6 13 16 19 21 23 25 31
 -17783075.28907  19783421.82907 -13614035.07848  19783418.87248
 -13584668.53907  19650813.25107 -10509601.00848  19650810.62648
  -9649082.71906  21753339.93106  -7490868.05147  21753335.32147
  -2175367.80107  19964051.96207  -1681175.38348  19964047.69648
  -4612728.14106  22277419.68806  -3164204.40247  22277415.27447
  -1120057.91005  23162371.39905   -479931.92246  23162367.25546
 -10509800.13707  20672747.98507  -8155635.73848  20672742.13048
  -2792030.43005  23170826.54005  -2167647.36246  23170826.15746
   3780588.67606  21558850.13406   2950590.82047  21558847.45047
 08 11 15  0 13 59.9970000  0  9  3  6 13 16 19 21 23 25 31
 -17862944.67206  19768222.54806 -13676270.95348  19768220.09948
 -13631109.96107  19641975.13407 -10545789.10548  19641972.57148
  -9715326.46107  21740734.75907  -7542486.52047  21740729.31347
  -2162317.00007  19966535.65707  -1671005.93448  19966531.20048
  -4733191.43006  22254495.56306  -3258071.86347  22254491.43847
  -1152850.06306  23156131.53206   -505484.18846  23156126.29046
 -10524454.52307  20669959.11007  -8167054.73048  20669954.01748
  -2898706.23005  23150528.00105  -2250771.34046  23150525.04046
   3837077.15605  21569598.97805   2994607.78546  21569596.57146
 08 11 15  0 14 29.9970000  0  9  3  6 13 16 19 21 23 25 31
 -17942240.07806  19753133.39906 -13738059.56648  19753131.02148
 -13676955.14107  19633251.23507 -10581512.60949  19633249.14949
  -9780919.98407  21728252.30607  -7593598.36747  21728248.88047
  -2148969.78507  19969075.41507  -1660605.53148  19969071.45448
  -4853332.76606  22231633.37606  -3351688.43847  22231628.75547
  -1185112.72706  23149991.94606   -530624.03546  23149986.64946
 -10538389.93406  20667306.97806  -8177913.52748  20667302.23548
  -3005231.14805  23130256.72005  -2333777.73446  23130252.99746
   3893959.15605  21580423.98505   3038931.40246  21580421.12246
 08 11 15  0 14 59.9970000  0  9  3  6 13 16 19 21 23 25 31
 -18020964.14106  19738153.33706 -13799402.98848  19738149.98948
 -13722207.59807  19624640.24307 -10616774.25048  19624636.87648
  -9845865.66806  21715893.31306  -7644205.42647  21715889.09547
  -2135330.63307  19971670.92307  -1649977.62948  19971666.50548
  -4973153.82806  22208832.02406  -3445055.46547  22208826.59547
  -1216848.38706  23143952.86006   -555353.11746  23143947.12246
 -10551610.69107  20664791.11007  -8188215.44948  20664785.81748
  -3111607.41806  23110014.90706  -2416668.32447  23110009.62247
   3951230.28105  21591322.52405   3083558.20346  21591319.83746
 08 11 15  0 15 29.9970000  0  9  3  6 13 16 19 21 23 25 31
 -18099110.53506  19723282.08706 -13860296.28948  19723278.70448
 -13766862.38307  19616142.82907 -10651570.18848  19616139.32148
  -9910156.26207  21703659.36807  -7694301.97747  21703654.98147
  -2121395.26207  19974322.64207  -1639118.88348  19974318.35648
  -5092647.29706  22186092.94606  -3538167.25447  22186087.16147
  -1248050.79706  23138014.98506   -579666.65646  23138011.46246
 -10564112.09407  20662412.60307  -8197956.80148  20662407.16548
  -3217828.40206  23089801.29006  -2499437.87146  23089796.07146
   4008894.64105  21602296.28205   3128491.46146  21602292.91146
 08 11 15  0 15 59.9970000  0  9  3  6 13 16 19 21 23 25 31
 -18176677.25406  19708521.30606 -13920737.88348  19708519.00548
 -13810918.31607  19607759.00907 -10685899.48848  19607755.63048
  -9973789.14507  21691549.91507  -7743886.02047  21691545.71247
  -2107163.84007  19977030.45407  -1628029.46148  19977025.89648
  -5211810.17206  22163417.49306  -3631021.44547  22163410.55247
  -1278717.87506  23132179.14206   -603563.03946  23132175.45446
 -10575893.65607  20660170.45407  -8207137.25448  20660164.82948
  -3323891.43006  23069618.38406  -2582084.39146  23069613.14946
   4066952.64505  21613343.22805   3173731.44946  21613340.39246
 08 11 15  0 16 29.9970000  0  9  3  6 13 16 19 21 23 25 31
 -18253656.32807  19693873.14907 -13980721.54348  19693870.32148
 -13854368.88707  19599490.94607 -10719757.07049  19599487.31049
 -10036756.35906  21679568.10306  -7792951.41047  21679564.11847
  -2092630.53507  19979796.47007  -1616704.82048  19979791.91548
  -5330633.70306  22140805.25906  -3723611.19947  22140798.96247
  -1308842.11706  23126446.83706   -627036.45746  23126443.20046
 -10586949.51206  20658066.69606  -8215752.22748  20658061.64648
  -3429788.60206  23049466.30606  -2664601.66447  23049462.61047
   4125409.76605  21624466.97805   3219282.44546  21624463.98946
 08 11 15  0 16 59.9970000  0  9  3  6 13 16 19 21 23 25 31
 -18330051.52707  19679336.07107 -14040250.28148  19679332.06348
 -13897218.46907  19591336.67307 -10753146.35948  19591333.65348
 -10099061.21106  21667711.21206  -7841500.64547  21667708.72047
  -2077800.69107  19982618.19607  -1605149.10948  19982614.35348
  -5449120.26206  22118258.30606  -3815938.35547  22118252.91147
  -1338427.08606  23120816.84506   -650089.70346  23120811.77846
 -10597284.76607  20656100.14207  -8223805.70348  20656094.79848
  -3535522.44105  23029345.21205  -2746991.63747  23029342.95047
   4184260.92205  21635666.15705   3265140.43846  21635663.42346
 08 11 15  0 17 29.9970000  0  9  3  6 13 16 19 21 23 25 31
 -18405867.32007  19664908.22007 -14099327.53948  19664904.30648
 -13939473.01607  19583295.68807 -10786071.98448  19583293.23548
 -10160707.52007  21655980.83707  -7889536.71547  21655977.24347
  -2062681.25007  19985495.39907  -1593367.73448  19985491.61448
  -5567273.98006  22095774.26706  -3908006.18047  22095769.40347
  -1367477.53106  23115288.33706   -672726.37146  23115284.18846
 -10606905.89807  20654269.47007  -8231302.70348  20654263.86448
  -3641097.27006  23009255.91506  -2829257.73847  23009252.55647
   4243499.19505  21646939.37605   3311300.10246  21646935.46246
 08 11 15  0 17 59.9970000  0  9  3  6 13 16 19 21 23 25 31
 -18481103.37907  19650591.04007 -14157953.03948  19650586.65348
 -13981132.99207  19575368.32107 -10818534.29749  19575365.79449
 -10221694.68806  21644374.61806  -7937059.14847  21644371.02447
  -2047273.69107  19988427.79007  -1581361.85248  19988423.68548
  -5685093.23406  22073354.17306  -3999813.34847  22073349.38047
  -1395992.79306  23109862.61806   -694946.02046  23109859.11446
 -10615813.77007  20652574.14207  -8238243.90248  20652568.79448
  -3746512.10506  22989196.64906  -2911399.16047  22989192.95047
   4303123.58605  21658286.17305   3357760.63346  21658280.90746
 08 11 15  0 18 29.9970000  0  9  3  6 13 16 19 21 23 25 31
 -18555772.69107  19636381.54007 -14216136.91848  19636378.55248
 -14022212.60507  19567551.10307 -10850544.39548  19567547.95448
 -10282036.04306  21632892.82106  -7984078.41047  21632889.13847
  -2031592.87107  19991411.74307  -1569143.03949  19991407.63049
  -5802590.04306  22050994.68106  -4091369.27747  22050989.93147
  -1423986.14806  23104535.66506   -716759.02346  23104531.39646
 -10624023.23807  20651011.67307  -8244640.90648  20651005.72048
  -3851779.58206  22969165.43806  -2993425.74647  22969161.21647
   4363118.75005  21669702.16505   3404510.03545  21669697.36445
 08 11 15  0 18 59.9970000  0  9  3  6 13 16 19 21 23 25 31
 -18629883.68807  19622278.43807 -14273885.71948  19622276.04448
 -14062721.21507  19559842.47807 -10882109.55948  19559839.62648
 -10341738.39806  21621531.28206  -8030599.72747  21621528.84547
  -2015649.12507  19994445.19607  -1556719.35548  19994441.86848
  -5919771.62906  22028696.57906  -4182679.59047  22028690.97047
  -1451466.16006  23099306.22806   -738172.04746  23099301.76746
 -10631544.61307  20649580.47807  -8250501.71148  20649573.99748
  -3956907.35206  22949159.07906  -3075343.48847  22949156.28247
   4423474.28904  21681187.06304   3451540.26245  21681182.74745
 08 11 15  0 19 29.9970000  0  9  3  6 13 16 19 21 23 25 31
 -18703445.64507  19608280.79807 -14331206.69948  19608278.11848
 -14102669.78107  19552240.14907 -10913238.30548  19552237.38048
 -10400811.04306  21610290.19606  -8076630.36347  21610287.23947
  -1999453.81307  19997527.61007  -1544099.65648  19997523.45848
  -6036646.71906  22006455.96206  -4273751.05147  22006450.71647
  -1478442.25806  23094173.99306   -759192.39146  23094168.07946
 -10638389.10507  20648278.03207  -8255835.10948  20648271.30648
  -4061904.30906  22929179.07906  -3157159.28947  22929175.83347
   4484178.90604  21692739.36804   3498842.56346  21692734.64646
 08 11 15  0 19 59.9970000  0  9  3  6 13 16 19 21 23 25 31
 -18776463.06307  19594385.97007 -14388103.38748  19594383.27148
 -14142063.27007  19544744.50107 -10943934.51248  19544740.82548
 -10459258.18406  21599168.97006  -8122173.63747  21599164.70047
  -1983013.33207  20000655.96207  -1531288.89548  20000650.98148
  -6153217.95306  21984273.32106  -4364585.76647  21984267.81347
  -1504918.93406  23089134.92306   -779823.52046  23089131.21246
 -10644562.74207  20647103.51707  -8260645.73848  20647097.08748
  -4166774.05506  22909222.11806  -3238875.95347  22909219.61847
   4545226.66804  21704355.67304   3546412.27345  21704350.88045
 08 11 15  0 20 29.9970000  0  9  3  6 13 16 19 21 23 25 31
 -18848946.27007  19580593.18107 -14444583.81648  19580590.06748
 -14180913.07007  19537351.52407 -10974207.09048  19537348.08748
 -10517089.59007  21588163.93807  -8167237.02747  21588159.40347
  -1966339.46907  20003828.95407  -1518296.28548  20003824.59548
  -6269495.17606  21962145.70406  -4455191.40247  21962141.29047
  -1530906.09006  23084189.76706   -800073.23046  23084184.40346
 -10650077.38307  20646053.94607  -8264942.90248  20646048.37648
  -4271526.07006  22889288.69606  -3320500.90247  22889285.27447
   4606605.21503  21716036.24303   3594239.71945  21716032.28645
 08 11 15  0 20 59.9970000  0  9  3  6 13 16 19 21 23 25 31
 -18920895.62907  19566901.06307 -14500648.23048  19566898.61448
 -14219220.89107  19530061.23507 -11004057.32848  19530058.22048
 -10574305.33207  21577275.64207  -8211820.70347  21577271.80647
  -1949434.30507  20007046.07107  -1505123.46148  20007041.93848
  -6385477.58206  21940075.68106  -4545567.31647  21940071.05647
  -1556404.42606  23079337.71206   -819942.09046  23079331.61446
 -10654935.38307  20645129.94607  -8268728.37548  20645124.14948
  -4376160.17605  22869376.92305  -3402033.96547  22869373.73947
   4668312.26604  21727780.73504   3642323.14545  21727776.14945
 08 11 15  0 21 29.9970000  0  9  3  6 13 16 19 21 23 25 31
 -18992313.97707  19553310.76707 -14556298.87148  19553308.08348
 -14256990.36307  19522874.27407 -11033488.08648  19522871.15348
 -10630907.84406  21566504.65706  -8255926.53947  21566500.17747
  -1932302.67607  20010305.49307  -1491774.14148  20010301.61848
  -6501166.65206  21918060.90706  -4635714.63747  21918056.59547
  -1581416.65206  23074577.86806   -839432.14147  23074572.81747
 -10659141.15607  20644329.32907  -8272005.59848  20644323.96648
  -4480678.39105  22849488.14205  -3483476.70347  22849484.41947
   4730343.43403  21739583.16503   3690659.12545  21739580.22845
 08 11 15  0 21 59.9970000  0  9  3  6 13 16 19 21 23 25 31
 -19063208.75007  19539820.24307 -14611541.55948  19539817.50148
 -14294230.32807  19515787.47007 -11062506.23048  19515784.65348
 -10686904.38306  21555848.05606  -8299560.21947  21555844.66547
  -1914954.08207  20013607.54007  -1478255.76248  20013602.65748
  -6616569.20306  21896099.82106  -4725638.65247  21896095.99747
  -1605950.69906  23069909.32906   -858549.56347  23069905.39247
 -10662704.19107  20643650.95407  -8274782.01648  20643645.81748
  -4585087.60906  22829619.40706  -3564834.51247  22829616.29447
   4792688.80103  21751447.68103   3739239.86345  21751443.94645
 08 11 15  0 22 29.9970000  0  9  3  6 13 16 19 21 23 25 31
 -19133586.12507  19526427.78207 -14666381.05148  19526425.09948
 -14330947.80107  19508800.84507 -11091117.26648  19508797.99748
 -10742300.39807  21545307.35307  -8342725.92247  21545304.00947
  -1897395.64507  20016948.38407  -1464573.85948  20016943.65348
  -6731689.98806  21874193.93106  -4815343.14847  21874188.50947
  -1630012.39106  23065330.82106   -877298.94947  23065327.50547
 -10665632.20707  20643093.94607  -8277063.56648  20643088.68848
  -4689393.04306  22809770.97806  -3646111.45747  22809768.44247
   4855340.55901  21763369.75901   3788059.31345  21763366.79045
 08 11 15  0 22 59.9970000  0  9  3  6 13 16 19 21 23 25 31
 -19203439.84807  19513134.91507 -14720812.53148  19513132.14248
 -14367137.75408  19501914.38408 -11119317.23449  19501911.63049
 -10797089.43406  21534881.43106  -8385418.73847  21534877.53647
  -1879623.38307  20020330.64207  -1450725.33648  20020326.25148
  -6846521.70306  21852341.86806  -4904822.41047  21852336.34947
  -1653595.75806  23060842.97006   -895675.58246  23060838.40746
 -10667920.81607  20642658.07107  -8278846.90248  20642652.89948
  -4793587.63305  22789943.76705  -3727302.03547  22789941.19247
   4918303.61701  21775349.10301         0.00000         0.00000
 08 11 15  0 23 29.9970000  0  8  3  6 13 16 19 21 23 25
 -19272777.53107  19499940.90707 -14774841.90248  19499937.34948
 -14402808.77007  19495126.07907 -11147112.83249  19495123.44649
 -10851278.13307  21524569.60307  -8427643.67647  21524566.20447
  -1861646.41007  20023751.26707  -1436717.30548  20023747.17748
  -6961070.70306  21830543.36006  -4994081.34447  21830538.97047
  -1676708.26206  23056444.17306   -913685.30946  23056441.61846
 -10669579.56307  20642342.39207  -8280139.45748  20642338.33748
  -4897678.01606  22770136.45406  -3808411.40247  22770133.34947
 08 11 15  0 23 59.9970000  0  8  3  6 13 16 19 21 23 25
 -19341593.60907  19486845.49307 -14828464.82048  19486842.44648
 -14437956.87507  19488437.78207 -11174500.96149  19488435.57949
 -10904861.75807  21514372.82107  -8469397.13347  21514369.26347
  -1843461.51207  20027211.38407  -1422547.25048  20027207.74748
  -7075330.88706  21808800.53206  -5083115.23446  21808795.99346
  -1699344.95706  23052136.22806   -931324.24246  23052132.50546
 -10670604.76607  20642147.29007  -8280938.34448  20642141.96248
  -5001658.43006  22750348.95406  -3889435.09047  22750346.31347
 08 11 15  0 24 29.9970000  0  9  3  6 13 16 19 21 23 25 31
 -19409888.85507  19473849.01707 -14881681.87948  19473846.48948
 -14472583.68007  19481848.36007 -11201482.87548  19481845.22048
 -10957840.23406  21504290.85306  -8510679.06647  21504287.73547
  -1825070.60907  20030711.21207  -1408216.68048  20030706.71648
  -7189301.37506  21787112.23506  -5171923.38147  21787107.97047
  -1721506.20706  23047919.97806   -948592.75446  23047915.26746
 -10670999.14807  20642072.75907  -8281245.68848  20642068.02148
  -5105528.31306  22730583.14206  -3970372.67247  22730580.21247
     59974.61711  21811637.29001         0.00000         0.00000
 08 11 15  0 24 59.9970000  0  9  3  6 13 16 19 21 23 25 31
 -19477651.80507  19460954.58707 -14934484.16848  19460951.64948
 -14506678.48807  19475359.97007 -11228050.25448  19475357.17748
 -11010201.50006  21494328.10306  -8551480.07847  21494323.40747
  -1806463.78107  20034251.93807  -1393717.85548  20034247.68848
  -7302969.30104  21765481.64904  -5260495.78947  21765477.77447
  -1743180.60206  23043795.68106   -965481.94946  23043791.16946
 -10670752.76207  20642119.61807  -8281053.72748  20642113.56348
  -5209275.22706  22710840.74306  -4051214.40647  22710837.35347
    124158.98811  21823851.34501         0.00000         0.00000
 08 11 15  0 25 29.9970000  0  9  3  6 13 16 19 21 23 25 31
 -19544879.51207  19448161.54807 -14986869.38748  19448158.32148
 -14540239.97707  19468973.47807 -11254202.06648  19468970.33348
 -11061942.54307  21484481.25107  -8591797.77747  21484477.66947
  -1787639.85907  20037833.60307  -1379049.87948  20037830.40348
  -7416331.14504  21743909.25904  -5348829.66446  21743905.63846
  -1764365.64806  23039763.36006   -981989.75846  23039761.22846
 -10669865.25407  20642288.16507  -8280362.16048  20642283.18148
  -5312895.46506  22691121.89906  -4131957.43847  22691119.10347
    188656.79711  21836126.97801         0.00000         0.00000
 08 11 15  0 25 59.9970000  0  9  3  6 13 16 19 21 23 25 31
 -19611564.81307  19435471.34507 -15038831.96148  19435468.39648
 -14573261.68407  19462690.05607 -11279933.27348  19462686.43848
 -11113056.43006  21474754.12606  -8631626.78547  21474750.40347
  -1768593.01207  20041458.14907  -1364208.17248  20041454.84948
  -7529378.16804  21722397.02404  -5436918.20346  21722393.81746
  -1785053.55106  23035826.94606   -998110.18046  23035824.38046
 -10668330.05907  20642581.14207  -8279165.93848  20642575.35348
  -5416380.62106  22671430.73506  -4212595.27347  22671427.39647
    253473.37101  21848460.97801         0.00000         0.00000
 08 11 15  0 26 29.9970000  0  9  3  6 13 16 19 21 23 25 31
 -19677710.28107  19422884.11007 -15090373.87148  19422881.77848
 -14605747.30107  19456508.29007 -11305246.73848  19456505.32148
 -11163543.93006  21465146.94606  -8670967.71947  21465143.03247
  -1749327.41807  20045124.48507  -1349196.01248  20045120.91948
  -7642111.73005  21700945.34505  -5524762.55546  21700940.22846
  -1805247.53505  23031983.47805  -1013845.73046  23031980.43846
 -10666152.05507  20642995.21207  -8277468.79348  20642989.69648
  -5519732.53506  22651762.72806  -4293129.18847  22651760.38447
    318604.35901  21860854.84501         0.00000         0.00000
 08 11 15  0 26 59.9970000  0  9  3  6 13 16 19 21 23 25 31
 -19743304.21507  19410402.29007 -15141486.03548  19410400.05648
 -14637686.31607  19450430.32907 -11330134.27048  19450427.66548
 -11213393.62106  21455660.47006  -8709811.62147  21455657.77147
  -1729832.84007  20048834.32107  -1334005.44548  20048830.39248
  -7754519.07406  21679554.71206  -5612352.68446  21679549.39946
  -1824935.57805  23028236.84505  -1029187.10246  23028233.61446
 -10663322.11707  20643533.25107  -8275263.64848  20643527.88048
  -5622938.32006  22632124.01706  -4373549.25447  22632121.07947
    384059.66011  21873309.83701         0.00000         0.00000
 08 11 15  0 27 29.9970000  0  9  3  6 13 16 19 21 23 25 31
 -19808342.77707  19398026.48507 -15192165.42248  19398023.30248
 -14669076.03507  19444456.88407 -11354593.77748  19444454.68148
 -11262601.69507  21446297.03207  -8748155.53547  21446293.69247
  -1710107.17607  20052588.01707  -1318634.78948  20052583.77448
  -7866595.29706  21658228.50106  -5699684.80546  21658223.13846
  -1844114.34405  23024588.22805  -1044131.57446  23024584.06346
 -10659837.92607  20644196.79007  -8272548.69948  20644191.50548
  -5725993.25005  22612512.45405  -4453851.77347  22612509.27447
    449841.40601  21885829.89901         0.00000         0.00000
 08 11 15  0 27 59.9970000  0  9  3  6 13 16 19 21 23 25 31
 -19872825.04307  19385755.33707 -15242411.34448  19385752.25948
 -14699916.41007  19438588.22007 -11378625.24648  19438585.39648
 -11311166.69906  21437055.59506  -8785998.40647  21437052.01747
  -1690150.84407  20056385.72807  -1303084.41448  20056381.27848
  -7978337.91405  21636964.61805  -5786756.93447  21636959.98947
  -1862782.18006  23021035.80606  -1058677.98447  23021032.16147
 -10655699.96107  20644984.10307  -8269324.32848  20644979.22048
  -5828895.09006  22592931.59506  -4534035.02347  22592928.36447
    515948.77002  21898409.67302         0.00000         0.00000
 08 11 15  0 28 29.9970000  0  9  3  6 13 16 19 21 23 25 31
 -19936745.10507  19373591.20407 -15292219.18048  19373588.03248
 -14730202.92607  19432824.78207 -11402225.12948  19432821.81748
 -11359082.75406  21427937.69606  -8823335.60547  21427932.81347
  -1669959.57807  20060227.95407  -1287350.97348  20060223.90348
  -8089739.96106  21615764.55606  -5873563.67246  21615759.80646
  -1880933.78905  23017581.05605  -1072822.13746  23017577.84146
 -10650904.95707  20645896.77407  -8265587.96548  20645891.46648
  -5931637.14506  22573380.68806  -4614093.73847  22573377.17347
    582385.69911  21911048.04801         0.00000         0.00000
 08 11 15  0 28 59.9970000  0  9  3  6 13 16 19 21 23 25 31
 -20000097.91807  19361535.95407 -15341585.00848  19361532.66948
 -14759931.24607  19427167.93107 -11425390.05548  19427165.02448
 -11406344.00007  21418943.90707  -8860162.52747  21418940.86847
  -1649529.40607  20064115.69607  -1271431.36748  20064111.25148
  -8200794.95705  21594631.74305  -5960100.02347  21594627.33747
  -1898564.35205  23014225.75105  -1086560.19946  23014222.26346
 -10645449.10207  20646934.94607  -8261336.66048  20646930.29048
  -6034212.92206  22553860.89206  -4694022.90647  22553857.33747
         0.00000  21923753.11001         0.00000         0.00000
 08 11 15  0 29 29.9970000  0  9  3  6 13 16 19 21 23 25 31
 -20062872.75007  19349590.42307 -15390500.43048  19349587.02148
 -14789092.03507  19421618.71207 -11448112.72748  19421616.05248
 -11452939.52707  21410077.10307  -8896470.68847  21410073.90747
  -1628851.50007  20068050.49307  -1255318.72748  20068046.09548
  -8311491.03505  21573566.15705  -6046356.75447  21573561.63847
  -1915662.70305  23010971.92305  -1099883.63346  23010969.33346
 -10639324.20307  20648100.79807  -8256564.00448  20648095.34548
  -6136610.77706  22534375.85306  -4773813.45747  22534371.56747
    716268.36311  21936531.35301         0.00000         0.00000
 08 11 15  0 29 59.9970000  0  9  3  6 13 16 19 21 23 25 31
 -20125058.60207  19337757.21207 -15438956.94148  19337753.53248
 -14817675.12107  19416179.64207 -11470385.25848  19416176.08348
 -11498858.29307  21401338.95407  -8932251.59847  21401335.34147
  -1607915.65207  20072034.87607  -1239005.10548  20072030.26748
  -8421815.68805  21552572.42305  -6132324.02747  21552568.17747
  -1932218.12105  23007821.97005  -1112783.96146  23007818.12246
 -10632520.78907  20649395.19607  -8251262.66848  20649389.90348
  -6238818.43006  22514925.43106  -4853455.74247  22514922.53247
    783732.14502  21949367.55602         0.00000         0.00000
 08 11 15  0 30 29.9970000  0  9  3  6 13 16 19 21 23 25 31
 -20186652.50007  19326035.89907 -15486952.17248  19326032.92348
 -14845678.88307  19410850.77407 -11492206.36748  19410847.43148
 -11544096.62107  21392730.88407  -8967502.23047  21392726.25947
  -1586720.60907  20076068.00907  -1222489.50848  20076063.77148
  -8531765.23405  21531649.96205  -6217998.93447  21531645.62247
  -1948227.86306  23004776.43806  -1125259.12147  23004772.22047
 -10625038.24207  20650819.51707  -8245432.16448  20650813.31748
  -6340831.77306  22495513.40706  -4932946.68047  22495509.54847
    851548.40201  21962273.61801         0.00000         0.00000
 08 11 15  0 30 59.9970000  0  9  3  6 13 16 19 21 23 25 31
 -20247654.16807  19314427.27407 -15534485.92248  19314424.81048
 -14873104.13307  19405631.54007 -11513576.67648  19405628.79048
 -11588654.64506  21384251.02406  -9002222.76247  21384245.99747
  -1565267.37507  20080150.17307  -1205772.71548  20080146.05248
  -8641337.85906  21510799.14906  -6303380.16447  21510795.61847
  -1963691.73405  23001833.44605  -1137308.94946  23001830.04046
 -10616877.71107  20652372.03207  -8239073.30148  20652366.21648
  -6442649.39106  22476137.94606  -5012285.04747  22476134.79047
    919715.64812  21975244.36002         0.00000         0.00000
 08 11 15  0 31 29.9970000  0  9  3  6 13 16 19 21 23 25 31
 -20308061.82007  19302932.33707 -15581556.79748  19302929.95448
 -14899950.06607  19400523.09507 -11534495.57848  19400520.39248
 -11632529.59806  21375901.93806  -9036411.05147  21375898.88847
  -1543555.20707  20084282.21207  -1188854.15248  20084277.86448
  -8750530.26206  21490020.74306  -6388465.12147  21490016.94647
  -1978607.79705  22998994.24305  -1148931.77346  22998991.13846
 -10608039.69907  20654053.24307  -8232186.52048  20654047.84948
  -6544268.05906  22456800.96206  -5091468.44147  22456797.25147
    988234.44901  21988283.57101         0.00000         0.00000
 08 11 15  0 31 59.9970000  0  9  3  6 13 16 19 21 23 25 31
 -20367876.73407  19291549.98507 -15628165.82448  19291547.56348
 -14926219.16407  19395524.09507 -11554965.00048  19395521.56348
 -11675723.04306  21367682.87606  -9070068.32447  21367679.65747
  -1521587.32007  20088462.76707  -1171736.34448  20088458.55648
  -8859342.47305  21469314.49305  -6473253.82846  21469309.94246
  -1992977.06306  22996260.84506  -1160128.68846  22996256.59946
 -10598527.30507  20655863.98507  -8224774.25448  20655858.63048
  -6645687.94906  22437500.29006  -5170496.89147  22437496.35647
   1057101.59801  22001389.89901         0.00000         0.00000
 08 11 15  0 32 29.9970000  0  9  3  6 13 16 19 21 23 25 31
 -20427098.24607  19280280.27407 -15674312.44148  19280277.70448
 -14951911.53507  19390634.91507 -11574985.03948  19390632.14248
 -11718233.41806  21359593.54806  -9103193.32447  21359590.07947
  -1499363.48007  20092691.61007  -1154419.05548  20092687.63048
  -8967772.41005  21448679.64905  -6557744.66846  21448675.84146
  -2006799.03505  22993629.89205  -1170899.05546  22993626.99746
 -10588341.48007  20657801.86807  -8216837.26648  20657797.13448
  -6746906.67206  22418240.15706  -5249368.60947  22418235.09147
   1126316.06311  22014560.39201         0.00000         0.00000
 08 11 15  0 32 59.9970000  0  9  3  6 13 16 19 21 23 25 31
 -20485722.44907  19269124.79807 -15719993.64148  19269121.80248
 -14977024.43007  19385856.18807 -11594553.52348  19385853.26748
 -11760057.07006  21351634.43106  -9135783.15247  21351630.93547
  -1476881.37907  20096969.86807  -1136900.52748  20096965.50548
  -9075814.94105  21428121.13405  -6641933.58247  21428116.86047
  -2020070.19905  22991104.65705  -1181240.19146  22991102.41946
 -10577481.00007  20659868.63407  -8208374.59048  20659863.91548
  -6847919.32406  22399016.92306  -5328079.77347  22399013.33747
   1195880.44901  22027799.39201         0.00000         0.00000
 08 11 15  0 33 29.9970000  0  9  3  6 13 16 19 21 23 25 31
 -20543747.89107  19258082.81307 -15765208.25848  19258079.11848
 -15001557.62107  19381187.91507 -11613670.30148  19381185.00548
 -11801192.05506  21343806.24306  -9167836.38347  21343802.58347
  -1454140.65207  20101296.54007  -1119180.48448  20101293.70848
  -9183467.05506  21407636.45406  -6725818.39547  21407631.21247
  -2032788.86306  22988684.30606  -1191150.85246  22988680.48946
 -10565945.80907  20662063.55607  -8199386.15248  20662058.54448
  -6948722.86706  22379834.82906  -5406627.94547  22379831.39647
         0.00000  22041110.92301         0.00000         0.00000
 08 11 15  0 33 59.9970000  0  9  3  6 13 16 19 21 23 25 31
 -20601177.87107  19247154.11807 -15809958.87148  19247150.79848
 -15025515.78508  19376628.90708 -11632338.99248  19376626.06348
 -11841641.59406  21336109.59506  -9199355.55147  21336106.34947
  -1431146.28507  20105672.89907  -1101262.82048  20105668.64948
  -9290731.32406  21387225.20406  -6809400.93847  21387219.55247
  -2044959.47306  22986368.18806  -1200634.44946  22986364.74746
 -10553741.89107  20664386.28207  -8189876.62948  20664381.04848
  -7049319.85905  22360691.82905  -5485015.21547  22360689.09947
     84668.16401  22054472.62601         0.00000         0.00000
 08 11 15  0 34 29.9970000  0  8  3  6 13 16 19 21 23 25
 -20658011.85507  19236338.85307 -15854245.06348  19236335.61448
 -15048899.55107  19372178.72807 -11650560.10248  19372175.57948
 -11881405.30506  21328542.71206  -9230340.26647  21328538.22447
  -1407898.89807  20110096.68107  -1083147.96148  20110092.68148
  -9397605.79306  21366886.84506  -6892679.69547  21366880.46647
  -2056581.10505  22984156.61805  -1209690.30546  22984154.43546
 -10540870.49207  20666835.72807  -8179846.96548  20666830.32948
  -7149708.28506  22341588.43106  -5563239.93847  22341585.51347
 08 11 15  0 34 59.9970000  0  8  3  6 13 16 19 21 23 25
 -20714244.30907  19225638.61007 -15898062.57048  19225635.44648
 -15071703.86707  19367839.82107 -11668329.69548  19367836.31748
 -11920476.85206  21321107.91506  -9260785.64147  21321103.72447
  -1384393.75007  20114569.71207  -1064832.26648  20114565.61048
  -9504083.06606  21346624.64206  -6975648.95346  21346617.31746
  -2067647.28105  22982050.96205  -1218313.26246  22982047.04446
 -10527327.69907  20669412.72807  -8169294.15248  20669407.78248
  -7249880.64106  22322525.72006  -5641296.32047  22322523.03647
 08 11 15  0 35 29.9970000  0  8  3  6 13 16 19 21 23 25
 -20769879.23407  19215051.45407 -15941414.46548  19215048.54448
 -15093933.66407  19363608.95407 -11685651.60248  19363605.65748
 -11958859.98406  21313802.68106  -9290694.54347  21313799.09547
  -1360635.49607  20119090.37607  -1046319.36348  20119086.27148
  -9610165.67206  21326436.77406  -7058310.64546  21326429.95846
  -2078162.18006  22980049.91506  -1226506.73047  22980047.03247
 -10513119.37507  20672116.51707  -8158222.73848  20672110.54048
  -7349839.23406  22303505.39906  -5719186.11747  22303502.32547
 08 11 15  0 35 59.9970000  0  8  3  6 13 16 19 21 23 25
 -20824913.06608  19204579.16508 -15984297.98048  19204575.71648
 -15115587.16007  19359488.63407 -11702524.46548  19359485.32948
 -11996551.38306  21306631.05606  -9320064.48047  21306626.56747
  -1336622.43007  20123659.93807  -1027607.87548  20123655.37648
  -9715849.21106  21306327.04806  -7140661.37946  21306320.54046
  -2088123.23806  22978154.47006  -1234268.59846  22978151.67346
 -10498244.42607  20674946.48507  -8146631.86348  20674941.41948
  -7449579.90206  22284524.36806  -5796906.09047  22284520.98947
 08 11 15  0 36 29.9970000  0  8  3  6 13 16 19 21 23 25
 -20879349.75007  19194219.87607 -16026716.19948  19194217.29448
 -15136669.27007  19355476.98507 -11718952.06648  19355474.32948
 -12033554.84006  21299589.18106  -9348898.31647  21299585.17347
  -1312359.37907  20128277.11807  -1008701.60948  20128272.89948
  -9821136.06306  21286291.40706  -7222703.09446  21286285.65346
  -2097534.43806  22976363.42306  -1241601.95346  22976360.27446
 -10482709.38707  20677902.68107  -8134526.64848  20677897.04448
  -7549104.81306  22265586.62606  -5874457.97347  22265582.99747
 08 11 15  0 36 59.9970000  0  8  3  6 13 16 19 21 23 25
 -20933189.25408  19183974.71208 -16068669.06649  19183971.84549
 -15157180.42207  19351573.50907 -11734934.77748  19351570.62248
 -12069869.32406  21292678.86806  -9377195.34847  21292675.44647
  -1287846.74607  20132941.50107   -989600.87148  20132938.04448
  -9926024.22306  21266331.80606  -7304434.16446  21266325.70046
  -2106394.75006  22974677.85306  -1248506.15246  22974674.30646
 -10466515.19507  20680984.85307  -8121907.78548  20680979.36848
  -7648411.92206  22246688.24306  -5951840.10547  22246683.95847
 08 11 15  0 37 29.9970000  0  8  3  6 13 16 19 21 23 25
 -20986427.47307  19173843.78207 -16110153.39848  19173840.52148
 -15177117.91407  19347779.80607 -11750470.48048  19347776.50948
 -12105491.02006  21285900.80606  -9404952.51247  21285896.54447
  -1263081.74607  20137654.54807   -970303.47348  20137650.16148
 -10030508.37506  21246449.18106  -7385850.39846  21246443.93146
  -2114700.82406  22973096.93806  -1254978.38346  22973093.15346
 -10449660.02307  20684192.08707  -8108773.90248  20684186.68548
  -7747495.67606  22227833.51706  -6029048.21547  22227828.97847
 08 11 15  0 37 59.9970000  0  8  3  6 13 16 19 21 23 25
 -21039071.64807  19163825.64207 -16151174.83648  19163822.49748
 -15196490.11707  19344093.21207 -11765565.71548  19344090.21248
 -12140427.12906  21279252.14206  -9432175.38347  21279248.90747
  -1238072.85507  20142412.94607   -950816.03948  20142409.05648
 -10134594.46106  21226641.97806  -7466956.43847  21226637.59547
  -2122459.81306  22971621.16506  -1261024.37147  22971617.47047
 -10432153.22307  20687524.06307  -8095132.24648  20687518.34948
  -7846361.93006  22209019.88406  -6106086.84847  22209015.39647
 08 11 15  0 38 29.9970000  0  8  3  6 13 16 19 21 23 25
 -21091119.00407  19153921.30607 -16191731.19548  19153918.71648
 -15215295.37907  19340514.80607 -11780219.16848  19340511.82148
 -12174674.68006  21272735.50106  -9458861.84047  21272732.81047
  -1212818.23407  20147219.08707   -931137.13348  20147214.72448
 -10238278.37905  21206910.27405  -7547749.06647  21206907.08347
  -2129668.94506  22970249.39206  -1266641.87147  22970245.34947
 -10413994.02707  20690979.28207  -8080982.25048  20690973.16148
  -7945006.35506  22190248.38406  -6182952.66847  22190244.26747
 08 11 15  0 38 59.9970000  0  8  3  6 13 16 19 21 23 25
 -21142574.77307  19144130.00107 -16231826.59849  19144126.54849
 -15233539.94907  19337043.07907 -11794435.71148  19337040.66948
 -12208238.70707  21266348.77407  -9485015.61347  21266344.72847
  -1187324.31307  20152070.19607   -911271.77048  20152065.62648
 -10341563.85505  21187256.75905  -7628231.21547  21187251.85647
  -2136334.09005  22968979.43105  -1271835.43047  22968975.95447
 -10395190.21907  20694557.47807  -8066329.93448  20694551.88448
  -8043432.66406  22171518.21206  -6259648.44947  22171514.99747
 08 11 15  0 39 29.9970000  0  8  3  6 13 16 19 21 23 25
 -21193439.53907  19134450.75907 -16271461.49249  19134447.40349
 -15251225.57407  19333677.39907 -11808216.70748  19333674.21248
 -12241119.57406  21260091.93106  -9510637.09847  21260087.02847
  -1161592.08207  20156967.11007   -891220.69148  20156962.36048
 -10444450.15205  21167678.84505  -7708402.41847  21167672.95447
  -2142455.28506  22967815.67306  -1276605.24647  22967811.46247
 -10375744.18007  20698258.23507  -8051177.19148  20698252.51348
  -8141639.51606  22152830.83706  -6336173.28547  22152826.82547
 08 11 15  0 39 59.9970000  0  8  3  6 13 16 19 21 23 25
 -21243717.80507  19124882.64207 -16310639.35949  19124879.81349
 -15268357.62907  19330417.49307 -11821566.36748  19330414.52448
 -12273321.71106  21253963.10306  -9535729.69147  21253960.10647
  -1135627.16807  20161907.54007   -870988.32048  20161904.34548
 -10546940.07805  21148175.44605  -7788264.71146  21148170.22846
  -2148037.46505  22966753.12605  -1280954.94147  22966749.95047
 -10355662.35907  20702079.25107  -8035529.05948  20702074.56748
  -8239629.91805  22134182.57905  -6412529.40647  22134179.91547
 08 11 15  0 40 29.9970000  0  8  3  6 13 16 19 21 23 25
 -21293413.33608  19115426.54808 -16349363.14149  19115423.07949
 -15284940.96107  19327261.93107 -11834488.45348  19327258.79848
 -12304848.51606  21247964.07906  -9560296.06647  21247960.39647
  -1109433.88307  20166892.30607   -850577.98448  20166888.70448
 -10649035.84406  21128746.91506  -7867819.82047  21128741.77847
  -2153084.16406  22965793.49306  -1284887.44947  22965789.47847
 -10334950.55107  20706020.69607  -8019389.98848  20706015.49348
  -8337405.57805  22115576.75905  -6488718.23047  22115573.73147
 08 11 15  0 40 59.9970000  0  8  3  6 13 16 19 21 23 25
 -21342530.18407  19106079.86007 -16387636.01648  19106076.06048
 -15300980.78507  19324209.61007 -11846987.01248  19324206.35648
 -12335704.46107  21242092.82907  -9584339.64547  21242088.93547
  -1083017.39807  20171919.72007   -829993.69948  20171915.93148
 -10750740.12505  21109393.22805  -7947069.86347  21109388.35647
  -2157599.50806  22964933.68106  -1288405.94546  22964929.19246
 -10313615.01607  20710081.39907  -8002764.90648  20710075.66148
  -8434969.28906  22097011.25906  -6564741.87547  22097008.02447
 08 11 15  0 41 29.9970000  0  8  3  6 13 16 19 21 23 25
 -21391063.61708  19096843.99308 -16425454.27748  19096840.75548
 -15316473.43407  19321261.29007 -11859059.20348  19321258.06048
 -12365884.32006  21236349.71206  -9607856.40647  21236346.12647
  -1056373.97707  20176989.79807   -809232.59048  20176986.02448
 -10852046.90603  21090114.60303  -8026010.16046  21090110.53646
  -2161579.10206  22964176.54006  -1291506.87546  22964171.89646
 -10291653.12908  20714260.44608  -7985651.76248  20714254.47848
  -8532314.34806  22078487.38406  -6640595.17647  22078484.59147
 08 11 15  0 41 59.9970000  0  8  3  6 13 16 19 21 23 25
 -21439019.34807  19087718.01707 -16462822.35548  19087714.93148
 -15331425.52307  19318415.75907 -11870710.16848  19318413.08348
 -12395393.75806  21230734.28206  -9630850.76247  21230730.05247
  -1029509.70307  20182101.79807   -788299.41848  20182097.76748
 -10952959.83602  21070912.27402  -8104643.62146  21070906.48946
  -2165028.32406  22963520.13406  -1294194.64147  22963517.16147
 -10269072.75007  20718557.33707  -7968056.64548  20718550.93548
  -8629444.58606  22060003.61806  -6716281.06647  22060001.30247
 08 11 15  0 42 29.9970000  0  8  3  6 13 16 19 21 23 25
 -21486389.60207  19078704.19607 -16499734.24649  19078700.78649
 -15345830.31607  19315674.78207 -11881934.67648  19315671.98948
 -12424224.91006  21225247.36806  -9653316.58647  21225243.85347
  -1002417.72307  20187257.49307   -767188.80148  20187251.94248
 -11053469.89105  21051785.61805  -8182963.21546  21051779.54846
  -2167939.77706  22962966.00106  -1296463.27346  22962962.55246
 -10245867.73007  20722973.36007  -7949974.84448  20722967.50548
  -8726350.43406  22041563.93106  -6791792.14147  22041561.15747
 08 11 15  0 42 59.9970000  0  8  3  6 13 16 19 21 23 25
 -21533178.02008  19069800.63408 -16536192.73849  19069797.39949
 -15359692.33207  19313037.05607 -11892736.26248  19313033.60348
 -12452380.94906  21219889.43806  -9675256.37947  21219885.01747
   -975102.38307  20192455.41507   -745904.11348  20192450.81348
 -11153579.32805  21032734.61805  -8260970.54747  21032730.10647
  -2170316.85505  22962513.25105  -1298315.57046  22962510.34946
 -10222043.96907  20727507.11807  -7931410.87548  20727500.68148
  -8823033.49606  22023165.77406  -6867129.58247  22023162.39247
 08 11 15  0 43 29.9970000  0  8  3  6 13 16 19 21 23 25
 -21579385.21508  19061007.63408 -16572198.35549  19061004.37649
 -15373013.59407  19310502.32907 -11903116.47748  19310499.31348
 -12479862.93406  21214659.84506  -9696670.92647  21214654.98147
   -947565.14807  20197695.25907   -724446.52748  20197691.78648
 -11253287.30906  21013761.43806  -8338665.02047  21013756.46647
  -2172160.73406  22962163.25106  -1299752.34446  22962160.63046
 -10197604.44907  20732156.93807  -7912367.11348  20732152.32148
  -8919492.90206  22004809.82906  -6942292.75847  22004807.16547
 08 11 15  0 43 59.9970000  0  8  3  6 13 16 19 21 23 25
 -21625012.68408  19052325.18808 -16607752.23849  19052321.29849
 -15385796.39507  19308069.29807 -11913077.08248  19308066.95448
 -12506671.93007  21209558.89207  -9717561.06647  21209554.79047
   -919807.87907  20202977.66507   -702817.50448  20202973.67348
 -11352593.29306  20994864.20406  -8416046.23847  20994859.76347
  -2173472.67206  22961913.24306  -1300774.62546  22961909.59146
 -10172552.48007  20736924.24307  -7892846.13348  20736918.76748
  -9015727.98406  21986497.50906  -7017281.10947  21986493.84547
 08 11 15  0 44 29.9970000  0  8  3  6 13 16 19 21 23 25
 -21670061.02708  19043752.70408 -16642854.85249  19043749.65749
 -15398042.31307  19305739.26707 -11922619.35549  19305736.29049
 -12532808.52007  21204584.86007  -9737927.23047  21204581.44647
   -891832.02707  20208301.22007   -681018.13748  20208297.14948
 -11451496.56605  20976043.05605  -8493113.68847  20976039.18547
  -2174252.75005  22961764.37605  -1301382.55146  22961761.55646
 -10146890.74607  20741807.51707  -7872850.01648  20741801.84948
  -9111737.44106  21968226.97806  -7092093.68047  21968223.87247
 08 11 15  0 44 59.9970000  0  8  3  6 13 16 19 21 23 25
 -21714519.89107  19035292.18107 -16677498.11349  19035289.53649
 -15409742.07007  19303513.29007 -11931736.05548  19303509.58748
 -12558261.96907  21199740.49307  -9757761.05947  21199738.06047
   -863627.79307  20213668.32107   -659040.82448  20213664.58348
 -11549985.07005  20957300.48505  -8569857.94947  20957296.52447
  -2174491.18805  22961719.32105  -1301568.24646  22961716.50946
 -10120611.25007  20746808.20407  -7852372.50048  20746802.59948
  -9207509.02006  21950002.25106  -7166720.84847  21949997.40347
 08 11 15  0 45 29.9970000  0  8  3  6 13 16 19 21 23 25
 -21758388.89507  19026944.05607 -16711681.72749  19026941.88049
 -15420896.34807  19301389.77407 -11940427.71148  19301387.06348
 -12583032.36306  21195027.32906  -9777062.67247  21195024.64647
   -835195.44907  20219078.99307   -636885.77048  20219074.82548
 -11648057.05906  20938639.31306  -8646277.70347  20938634.68147
  -2174187.76205  22961776.57905  -1301331.85246  22961774.13046
 -10093715.58207  20751926.43107  -7831414.84848  20751920.74748
  -9303040.51206  21931822.81306  -7241160.93847  21931818.72047
 08 11 15  0 45 59.9970000  0  8  3  6 13 16 19 21 23 25
 -21801675.64507  19018707.16507 -16745411.64848  19018703.95448
 -15431513.91807  19299369.72807 -11948701.12548  19299367.32548
 -12607127.29707  21190442.83707  -9795837.96947  21190438.60647
   -806543.31307  20224531.29007   -614559.43048  20224526.31748
 -11745718.56306  20920054.68806  -8722377.56347  20920050.83747
  -2173350.50405  22961936.71205  -1300679.43446  22961933.06046
 -10066213.71507  20757160.06307  -7809984.81648  20757154.55648
  -9398337.51206  21913689.30606  -7315418.35547  21913684.69247
 08 11 15  0 46 29.9970000  0  8  3  6 13 16 19 21 23 25
 -21844377.52707  19010581.40707 -16778685.85248  19010577.64648
 -15441592.84007  19297451.97007 -11956554.84048  19297449.11848
 -12630543.92207  21185986.75907  -9814084.71547  21185982.54447
   -777669.10207  20230025.56307   -592060.07048  20230021.16948
 -11842965.09805  20901549.64205  -8798154.09447  20901544.77847
  -2171975.82805  22962198.33705  -1299608.27046  22962195.41146
 -10038104.75407  20762508.91507  -7788081.71948  20762503.59948
  -9493395.19106  21895599.74306  -7389489.23047  21895596.47447
 08 11 15  0 46 59.9970000  0  8  3  6 13 16 19 21 23 25
 -21886492.25807  19002567.18107 -16811502.52049  19002563.64949
 -15451132.27007  19295636.61007 -11963988.15648  19295633.57548
 -12653280.58207  21181660.29007  -9831801.59447  21181656.50147
   -748571.26607  20235562.97007   -569386.44948  20235558.34148
 -11939793.51605  20883122.96205  -8873604.77047  20883119.00147
  -2170062.62906  22962562.13406  -1298117.46146  22962559.09146
 -10009388.91407  20767973.18807  -7765705.77748  20767968.78648
  -9588209.58606  21877557.86006  -7463370.58247  21877553.75547
 08 11 15  0 47 29.9970000  0  8  3  6 13 16 19 21 23 25
 -21928012.68807  18994666.15707 -16843856.09049  18994662.67349
 -15460125.94907  19293925.50907 -11970996.22748  19293922.06748
 -12675329.34007  21177464.36807  -9848982.44947  21177460.49347
   -719243.23807  20241143.52407   -546533.44148  20241139.78248
 -12036194.52706  20864779.08706  -8948722.41847  20864774.26347
  -2167603.61705  22963030.47005  -1296201.37946  22963026.34946
  -9980061.28107  20773554.52407  -7742853.08648  20773548.10648
  -9682771.32806  21859562.75106  -7537055.02747  21859559.31747
 08 11 15  0 47 59.9970000  0  8  3  6 13 16 19 21 23 25
 -21968943.91007  18986877.39907 -16875750.53949  18986874.41949
 -15468580.14507  19292316.39207 -11977583.91848  19292312.97448
 -12696695.20707  21173398.43807  -9865631.21547  21173395.43847
   -689690.96107  20246767.11007   -523505.70348  20246762.66948
 -12132171.98806  20846515.31306  -9023510.03547  20846510.73947
  -2164603.85205  22963601.31305  -1293863.90246  22963598.44646
  -9950129.09807  20779250.22007  -7719529.31348  20779244.19648
  -9777083.66406  21841615.46206  -7610545.14847  21841611.53247
 08 11 15  0 48 29.9970000  0  8  3  6 13 16 19 21 23 25
 -22009289.67607  18979199.73507 -16907188.78949  18979196.63849
 -15476499.07407  19290809.82907 -11983754.51648  19290806.24748
 -12717382.43806  21169462.31306  -9881751.16447  21169457.20847
   -659917.96907  20252432.42307   -500305.99648  20252428.64648
 -12227727.62506  20828331.54006  -9097968.95347  20828326.77447
  -2161067.03905  22964274.35305  -1291107.87146  22964270.43846
  -9919597.65607  20785059.76707  -7695738.60248  20785054.48148
  -9871147.88306  21823715.92306  -7683841.94947  21823712.67747
 08 11 15  0 48 59.9970000  0  8  3  6 13 16 19 21 23 25
 -22049050.83208  18971633.29008 -16938171.50449  18971629.67749
 -15483884.77307  19289403.67307 -11989509.61348  19289401.15348
 -12737391.44506  21165654.11006  -9897342.58647  21165649.94647
   -629925.53107  20258140.00907   -476935.27748  20258135.94248
 -12322860.62906  20810228.00106  -9172098.55147  20810223.16547
  -2156993.79705  22965049.73505  -1287933.96146  22965045.52846
  -9888469.95707  20790983.62607  -7671483.28148  20790978.17348
  -9964962.65606  21805863.61806  -7756944.38347  21805859.65747
 08 11 15  0 49 29.9970000  0  8  3  6 13 16 19 21 23 25
 -22088231.27707  18964177.45407 -16968701.74249  18964174.13449
 -15490742.35907  19288098.71207 -11994853.17648  19288096.11048
 -12756726.23007  21161974.35307  -9912408.64147  21161972.33747
   -599718.34007  20263888.23507   -453397.22748  20263884.89948
 -12417573.42205  20792204.47005  -9245900.71547  20792199.99747
  -2152388.62906  22965926.10306  -1284345.49246  22965922.70046
  -9856752.59007  20797018.61007  -7646768.48448  20797012.21648
 -10058529.97707  21788057.56307  -7829853.96547  21788055.00947
 08 11 15  0 49 59.9970000  0  8  3  6 13 16 19 21 23 25
 -22126823.07007  18956833.59507 -16998773.25849  18956830.62649
 -15497064.83207  19286895.79007 -11999779.78148  19286892.88448
 -12775379.13706  21158425.27406  -9926943.37947  21158421.68147
   -569288.76207  20269678.86007   -429685.87548  20269675.45848
 -12511856.46505  20774263.98505  -9319368.02346  20774257.54046
  -2147243.18805  22966904.90705  -1280336.09446  22966901.40746
  -9824439.74607  20803168.04007  -7621589.62947  20803161.72847
 -10151839.71106  21770301.95406  -7902562.85547  21770298.43147
 08 11 15  0 50 29.9970000  0  8  3  6 13 16 19 21 23 25
 -22164813.01207  18949604.75107 -17028375.82849  18949601.58749
 -15502839.47307  19285797.14207 -12004279.50048  19285794.25948
 -12793336.41407  21155007.79007  -9940936.07447  21155004.74747
   -538623.21507  20275514.24307   -405790.65248  20275510.51348
 -12605694.27305  20756407.00905  -9392488.39146  20756400.81746
  -2141544.52305  22967989.89905  -1275895.55946  22967986.07946
  -9791519.66407  20809432.07107  -7595937.65248  20809426.95448
 -10244875.93006  21752597.68806  -7975058.60547  21752593.86447
 08 11 15  0 50 59.9970000  0  8  3  6 13 16 19 21 23 25
 -22202203.20307  18942489.37607 -17057511.05149  18942486.27849
 -15508069.85507  19284801.90707 -12008355.12148  19284798.90348
 -12810600.91007  21151723.03207  -9954388.90247  21151718.67747
   -507724.79707  20281393.91507   -381713.97748  20281390.34548
 -12699088.02005  20738634.00905  -9465262.68846  20738628.93846
  -2135295.00805  22969178.91505  -1271025.81346  22969174.78246
  -9757997.10507  20815811.79007  -7569816.18048  20815806.33748
 -10337639.11706  21734945.62606  -8047341.60247  21734942.12247
 08 11 15  0 51 29.9970000  0  8  3  6 13 16 19 21 23 25
 -22238987.49207  18935489.69607 -17086174.13748  18935486.11848
 -15512750.60207  19283910.93107 -12012002.45748  19283907.84148
 -12827165.99607  21148570.64907  -9967296.75047  21148567.88447
   -476587.85207  20287319.58707   -357451.44548  20287315.86048
 -12792029.80906  20720948.42306  -9537684.80147  20720943.00547
  -2128488.23805  22970472.61005  -1265721.78945  22970470.23545
  -9723867.69107  20822306.17307  -7543221.84848  20822301.43148
 -10430120.61306  21717346.72806  -8119405.09047  21717343.28247
 08 11 15  0 51 59.9970000  0  9  3  6  7 13 16 19 21 23 25
 -22275162.52707  18928605.39907 -17114362.45348  18928602.02448
 -15516879.59407  19283125.27407 -12015219.85248  19283122.62248
   -158054.43415  23177738.46205   -114903.25456  23177733.20846
 -12843028.66007  21145552.07107  -9979657.30947  21145548.55247
   -445209.43407  20293291.02407   -333000.73048  20293286.64648
 -12884514.52705  20703348.99305  -9609750.79747  20703343.81747
  -2121121.41005  22971875.25105  -1259981.39545  22971871.08745
  -9689131.02007  20828916.70407  -7516154.30948  20828912.10348
 -10522315.09406  21699803.18106  -8191244.94147  21699800.07147
 08 11 15  0 52 29.9970000  0  9  3  6  7 13 16 19 21 23 25
 -22310722.42607  18921838.87607 -17142071.47348  18921834.93548
 -15520451.84407  19282445.39907 -12018003.43448  19282442.79448
   -271317.03905  23156184.51705   -203159.78546  23156179.92746
 -12858183.36307  21142668.77407  -9991466.19947  21142664.77147
   -413583.73807  20299308.83707   -308357.34048  20299305.10348
 -12976534.72305  20685838.21205  -9681454.80547  20685833.10647
  -2113188.51204  22973383.76704  -1253799.89145  22973381.86445
  -9653783.04707  20835642.60307  -7488610.46948  20835638.04448
 -10614214.33606  21682314.97006  -8262854.72747  21682311.47447
 08 11 15  0 52 59.9970000  0  9  3  6  7 13 16 19 21 23 25
 -22345670.26207  18915188.44607 -17169303.55148  18915185.38048
 -15523470.88707  19281871.04007 -12020355.92248  19281868.67348
   -384432.95306  23134659.00106   -291302.02346  23134654.68146
 -12872632.64507  21139918.72007 -10002725.38347  21139914.75547
   -381713.66007  20305373.68107   -283523.51648  20305369.57548
 -13068091.25005  20668415.22805  -9752797.52347  20668410.06747
  -2104692.20305  22975001.11005  -1247179.48845  22974998.59945
  -9617828.50407  20842484.68807  -7460593.94948  20842479.04048
 -10705818.48806  21664883.34506  -8334234.57847  21664880.73147
 08 11 15  0 53 29.9970000  0  9  3  6  7 13 16 19 21 23 25
 -22380006.79307  18908654.18807 -17196059.28549  18908651.09149
 -15525938.74207  19281401.31307 -12022278.91448  19281397.98148
   -497401.24605  23113161.00905   -379329.18446  23113157.48146
 -12886377.68807  21137302.83707 -10013435.83247  21137299.33347
   -349600.20307  20311484.59507   -258500.05948  20311479.84148
 -13159183.52705  20651081.36005  -9823778.53547  20651076.18547
  -2095633.43403  22976725.06303  -1240120.58245  22976723.55245
  -9581270.36707  20849441.53207  -7432107.09848  20849436.51748
 -10797126.36706  21647508.00106  -8405383.56347  21647504.97047
 08 11 15  0 53 59.9970000  0  9  3  6  7 13 16 19 21 23 25
 -22413737.39107  18902235.53207 -17222342.84049  18902232.47849
 -15527861.48407  19281035.37607 -12023777.14548  19281031.54848
   -610224.16005  23091692.45405   -467243.18446  23091688.54846
 -12899423.86706  21134820.32906 -10023601.69947  21134817.05247
   -317248.74607  20317640.68107   -233291.14848  20317636.60348
 -13249814.97305  20633834.49305  -9894400.44546  20633829.33746
  -2086017.13302  22978554.29002         0.00000         0.00000
  -9544116.11307  20856512.28207  -7403155.71548  20856506.27848
 -10888140.65606  21630189.13406  -8476303.80547  21630185.89647
 08 11 15  0 54 29.9970000  0  9  3  6  7 13 16 19 21 23 25
 -22446870.65607  18895930.70407 -17248160.99249  18895927.03649
 -15529249.20307  19280771.05607 -12024858.50448  19280767.94248
   -722908.99606  23070249.75906   -555049.57447  23070246.11847
 -12911780.09806  21132468.91506 -10033229.94147  21132465.22047
   -284668.55907  20323840.68807   -207904.02348  20323836.75548
 -13339992.90605  20616674.50905  -9964668.94547  20616669.14247
  -2075853.53103  22980489.47003         0.00000         0.00000
  -9506376.94507  20863693.27407  -7373748.59848  20863688.93848
 -10978868.15606  21612923.07906  -8547000.55548  21612920.90348
 08 11 15  0 54 59.9970000  0  9  3  6  7 13 16 19 21 23 25
 -22479413.18407  18889737.76707 -17273518.80549  18889734.90349
 -15530109.41007  19280608.04007 -12025528.79748  19280604.29448
   -835460.06606  23048831.53206   -642751.60947  23048828.00547
 -12923452.90607  21130248.26707 -10042325.64547  21130244.35347
   -251866.64107  20330082.56307   -182344.09448  20330078.18848
 -13429722.39805  20599600.78205 -10034588.00447  20599593.77147
  -2065148.97304  22982528.69604         0.00000         0.00000
  -9468061.61307  20870984.72007  -7343892.50448  20870979.82148
 -11069312.90606  21595712.87606  -8617476.96947  21595709.20847
 08 11 15  0 55 29.9970000  0  9  3  6  7 13 16 19 21 23 25
 -22511366.37107  18883657.57907 -17298417.39849  18883654.07149
 -15530444.07007  19280543.94607 -12025789.56648  19280541.41148
   -947876.10506  23027439.75906   -730348.57047  23027435.95847
 -12934443.62107  21128156.89207 -10050889.80547  21128152.80247
   -218844.25007  20336366.43107   -156612.36748  20336362.11848
 -13519002.67605  20582610.36005 -10104157.01247  20582605.16547
  -2053903.90602  22984665.79002         0.00000         0.00000
  -9429173.34807  20878384.91507  -7313589.96548  20878379.95048
 -11159473.85506  21578556.05606  -8687732.27047  21578551.22847
 08 11 15  0 55 59.9970000  0  9  3  6  7 13 16 19 21 23 25
 -22542728.45307  18877689.29007 -17322855.37949  18877686.67349
 -15530252.19507  19280580.42307 -12025640.04748  19280577.94248
  -1060152.82006  23006073.65706   -817836.84047  23006069.93847
 -12944750.64507  21126195.28207 -10058921.28147  21126191.72447
   -185598.95707  20342692.82907   -130706.95748  20342687.95448
 -13607830.03905  20565706.48505 -10173373.13747  20565701.82547
  -2042116.86703  22986911.79003         0.00000         0.00000
  -9389712.45707  20885894.11007  -7282841.25048  20885889.43148
 -11249346.25406  21561452.89906  -8757762.68447  21561449.64247
 08 11 15  0 56 29.9970000  0  9  3  6  7 13 16 19 21 23 25
 -22573499.84407  18871833.79007 -17346833.05949  18871831.26349
 -15529535.64107  19280716.87607 -12025081.69148  19280713.93548
  -1172289.05505  22984734.84505   -905215.67247  22984731.25947
 -12954375.17207  21124363.60307 -10066420.94147  21124360.24747
   -152132.11707  20349061.22007   -104628.93848  20349057.09148
 -13696203.71505  20548889.39205 -10242235.71147  20548885.54047
  -2029788.74202  22989256.64902         0.00000         0.00000
  -9349681.94507  20893511.75907  -7251648.67648  20893506.31048
 -11338928.74206  21544406.36006  -8827567.24647  21544402.82147
 08 11 15  0 56 59.9970000  0  9  3  6  7 13 16 19 21 23 25
 -22603681.71507  18866090.32907 -17370351.38749  18866087.55249
 -15528296.31607  19280952.50107 -12024116.00848  19280949.89948
  -1284283.12906  22963422.89206   -992483.77347  22963419.10647
 -12963318.08206  21122661.65706 -10073389.46547  21122657.98147
   -118444.90607  20355471.55607    -78379.18048  20355467.92748
 -13784122.97705  20532158.62605 -10310744.19947  20532154.66147
  -2016920.96502  22991705.22002         0.00000         0.00000
  -9309084.92607  20901236.64907  -7220014.63748  20901231.05648
 -11428219.93406  21527414.59506  -8897144.77747  21527410.98947
 08 11 15  0 57 29.9970000  0  9  3  6  7 13 16 19 21 23 25
 -22633278.17607  18860458.36807 -17393413.56648  18860454.89948
 -15526539.07007  19281287.37607 -12022746.73848  19281284.13848
  -1396136.72306  22942137.61806  -1079642.41047  22942134.35347
 -12971583.41407  21121089.39207 -10079830.00447  21121085.06347
    -84541.19506  20361923.43106    -51960.71548  20361919.75548
 -13871590.15204  20515514.45404 -10378900.44147  20515509.91547
  -2003517.19104  22994259.53204         0.00000         0.00000
  -9267927.57007  20909069.45407  -7187944.00048  20909062.98948
 -11517221.12106  21510478.14906  -8966496.34447  21510474.34147
 08 11 15  0 57 59.9970000  0  9  3  6  7 13 16 19 21 23 25
 -22662287.18807  18854937.95407 -17416017.99648  18854934.27448
 -15524262.84807  19281720.32907 -12020973.05548  19281717.41548
  -1507845.44505  22920880.41505  -1166688.14847  22920876.47447
 -12979169.55506  21119645.50906 -10085741.27747  21119642.10647
    -50418.90207  20368416.47007    -25371.93448  20368412.46648
 -13958601.33206  20498957.56306 -10446701.38747  20498951.82147
  -1989575.84401  22996908.12601         0.00000         0.00000
  -9226210.03907  20917008.01707  -7155436.83248  20917001.68848
 -11605927.75806  21493598.03206  -9035618.40247  21493593.61447
 08 11 15  0 58 29.9970000  0  9  3  6  7 13 16 19 21 23 25
 -22690715.91407  18849527.86807 -17438170.24648  18849525.36048
 -15521475.46907  19282250.76707 -12018801.06648  19282247.61448
  -1619413.52005  22899650.07905  -1253624.33647  22899645.93147
 -12986084.12106  21118329.60306 -10091129.27747  21118326.02847
    -16085.04706  20374950.19606      1381.69548  20374946.04848
 -14045161.77305  20482484.84505 -10514151.09847  20482480.61047
  -1975103.55903  22999663.15703         0.00000         0.00000
  -9183941.56607  20925051.09507  -7122500.38748  20925046.00948
 -11694344.29306  21476772.79806  -9104514.40647  21476768.48147
 08 11 15  0 58 59.9970000  0  9  3  6  7 13 16 19 21 23 25
 -22718562.85907  18844229.27407 -17459869.14848  18844226.42348
 -15518176.61307  19282878.44607 -12016230.52748  19282875.78248
  -1730837.37106  22878446.93106  -1340448.12147  22878443.12647
 -12992325.37907  21117141.75907 -10095992.57447  21117137.88047
     18461.49207  20381524.30607     28301.04348  20381520.32948
 -14131268.80506  20466098.74306 -10581247.40647  20466094.81747
  -1960099.67201  23002517.49301         0.00000         0.00000
  -9141122.82407  20933199.27407  -7089135.15248  20933193.63848
 -11782466.95706  21460003.38406  -9173181.39547  21459999.89947
 08 11 15  0 59 29.9970000  0  9  3  6  7 13 16 19 21 23 25
 -22745830.85907  18839040.34507 -17481116.94549  18839036.86449
 -15514370.27307  19283602.62607 -12013264.55548  19283599.97048
  -1842117.72306  22857270.43806  -1427160.01647  22857267.87247
 -12997896.77007  21116081.68107 -10100333.90647  21116078.17747
     53217.94107  20388138.43107     55383.95348  20388134.34148
 -14216923.21506  20449800.24306 -10647991.09847  20449795.16947
  -1944566.91001  23005474.87601         0.00000         0.00000
  -9097759.13707  20941451.07907  -7055345.32048  20941445.64948
 -11870296.08607  21443290.38407  -9241619.66448  21443287.24748
 08 11 15  0 59 59.9970000  0  8  3  6  7 13 16 19 23 25
 -22772512.40207  18833962.82907 -17501907.76249  18833959.77849
 -15510049.50407  19284425.04007 -12009897.70748  19284421.88448
  -1953244.14505  22836125.00105  -1513752.01647  22836121.72847
 -13002790.97307  21115150.00107 -10104147.58647  21115147.09947
     88192.16407  20394794.16507     82636.58248  20394789.57148
 -14302115.71906  20433587.68106 -10714374.84447  20433582.48547
  -9053844.99207  20949807.86007  -7021126.52748  20949802.32148
 -11957821.42606  21426635.34506  -9309821.22348  21426631.52848
 08 11 15  1  0 29.9970000  0  8  3  6  7 13 16 19 23 25
 -22798606.37907  18828997.48507 -17522240.73449  18828994.45849
 -15505214.11707  19285345.11007 -12006129.87948  19285342.14648
  -2064213.12506  22815008.04006  -1600221.29747  22815005.20447
 -13007006.79707  21114348.01707 -10107432.64547  21114344.33347
    123385.32407  20401490.86007    110059.81348  20401486.69248
 -14386843.36705  20417465.02405 -10780396.43447  20417458.93847
  -9009381.38307  20958268.79807  -6986479.60948  20958264.24348
 -12045039.24206  21410037.19606  -9377783.12948  21410034.48148
 08 11 15  1  0 59.9970000  0  8  3  6  7 13 16 19 23 25
 -22824109.81307  18824144.29007 -17542113.53949  18824140.88849
 -15499861.57807  19286363.84507 -12001959.06648  19286360.84148
  -2175018.69106  22793921.82106  -1686563.24247  22793919.36047
 -13010541.16007  21113675.79007 -10110186.70747  21113671.82947
    158800.85207  20408230.12607    137656.30548  20408227.01348
 -14471101.27306  20401430.94606 -10846051.94947  20401425.83347
  -8964367.08207  20966834.62607  -6951403.54748  20966828.54848
 -12131943.49206  21393500.78206  -9445500.73448  21393497.89948
 08 11 15  1  1 29.9970000  0  8  3  6  7 13 16 19 23 25
 -22849014.98407  18819404.86807 -17561520.17249  18819401.75149
 -15493985.48407  19287481.64907 -11997380.32048  19287478.58748
  -2285650.75805  22772869.62605  -1772770.09447  22772866.50947
 -13013387.11707  21113134.05607 -10112404.32447  21113130.68847
    194446.42607  20415013.57907    165432.04748  20415009.48548
 -14554880.18806  20385488.54806 -10911334.18047  20385483.88847
  -8918796.94507  20975506.06307  -6915894.34048  20975501.24748
 -12218524.06606  21377024.93806  -9512966.09448  21377022.03648
 08 11 15  1  1 59.9970000  0  8  3  6  7 13 16 19 23 25
 -22873323.03107  18814779.00907 -17580461.50048  18814776.12248
 -15487587.45707  19288699.36807 -11992394.84848  19288696.30248
  -2396107.07805  22751849.57905  -1858839.91847  22751846.36447
 -13015545.80907  21112723.58707 -10114086.48847  21112720.56347
    230321.23407  20421840.36007    193386.46548  20421836.48948
 -14638179.04705  20369637.49305 -10976242.35947  20369633.45847
  -8872673.93407  20984283.78207  -6879954.38348  20984278.98948
 -12304779.10206  21360610.84506  -9580177.82048  21360607.54448
 08 11 15  1  2 29.9970000  0  8  3  6  7 13 16 19 23 25
 -22897034.15607  18810267.36807 -17598937.70748  18810263.78648
 -15480668.99207  19290015.79007 -11987003.83648  19290013.50548
  -2506385.82005  22730863.71205  -1944771.37547  22730860.89247
 -13017018.04707  21112443.52407 -10115233.71147  21112440.41947
    266425.03107  20428710.07107    221519.28548  20428707.12648
 -14720996.76605  20353877.04005 -11040775.61347  20353872.89947
  -8826000.72707  20993164.86807  -6843585.66048  20993160.08748
 -12390706.46106  21344259.65706  -9647134.21548  21344256.07548
 08 11 15  1  2 59.9970000  0  8  3  6  7 13 16 19 23 25
 -22920150.52707  18805868.24307 -17616950.46548  18805865.61448
 -15473232.99607  19291431.07907 -11981209.55948  19291428.68848
  -2616486.80105  22709912.32905  -2030564.36747  22709908.55647
 -13017805.96507  21112293.14907 -10115847.67247  21112289.14947
    302755.90207  20435623.79007    249829.03148  20435620.17348
 -14803333.56605  20338209.97805 -11104934.13747  20338203.96247
  -8778781.34407  21002151.20407  -6806791.39548  21002146.34548
 -12476305.57806  21327970.17306  -9713834.78948  21327967.08748
 08 11 15  1  3 29.9970000  0  8  3  6  7 13 16 19 23 25
 -22942678.52307  18801581.14907 -17634504.72749  18801578.29449
 -15465286.72307  19292942.74307 -11975017.65648  19292940.23948
  -2726413.48405  22688994.15705  -2116221.50847  22688989.45047
 -13017916.50406  21112271.81306 -10115933.80547  21112268.32547
    339307.57407  20442579.47007    278310.83648  20442575.88448
 -14885194.18005  20322632.30605 -11168721.62947  20322625.62247
  -8731024.96907  21011239.24307  -6769578.64847  21011233.37647
 -12561579.98006  21311743.77406  -9780282.38348  21311739.76748
 08 11 15  1  3 59.9970000  0  8  3  6  7 13 16 19 23 25
 -22964616.85907  18797406.47807 -17651599.54749  18797403.78649
 -15456829.76207  19294552.21207 -11968427.79748  19294549.32148
  -2836161.62105  22668110.39205  -2201739.54747  22668105.21247
 -13017348.53107  21112379.68107 -10115491.25047  21112377.03247
    376081.74606  20449577.42306    306966.03948  20449573.87648
 -14966575.52305  20307145.39905 -11232135.61347  20307140.17747
  -8682731.98407  21020428.32107  -6731947.74647  21020422.79047
 -12646525.77306  21295578.47806  -9846473.89548  21295575.34148
 08 11 15  1  4 29.9970000  0  8  3  6  7 13 16 19 23 25
 -22985975.35507  18793342.26707 -17668242.52349  18793339.63849
 -15447872.23807  19296256.89207 -11961447.88748  19296254.14648
  -2945738.15205  22647259.22805  -2287123.85247  22647253.83747
 -13016112.21507  21112615.43807 -10114527.90647  21112612.37647
    413069.30506  20456615.96206    335787.48848  20456612.68848
 -15047484.91805  20291749.03205 -11295181.87147  20291743.56747
  -8633914.11707  21029718.08707  -6693907.83247  21029713.89247
 -12731149.47706  21279475.18806  -9912414.43848  21279471.87248
 08 11 15  1  4 59.9970000  0  9  3  6  7 13 16 19 21 23 25
 -23006768.65207  18789385.49307 -17684445.08248  18789382.54448
 -15438429.99607  19298053.97007 -11954090.29348  19298050.28248
  -3055155.29706  22626437.46206  -2372383.89547  22626433.47047
 -13014222.42206  21112974.78206 -10113055.33647  21112972.00547
    450255.45306  20463691.80606    364763.69148  20463688.38448
 -15127935.79305  20276439.49305 -11357870.87547  20276434.17747
     21293.92211  23044784.43801         0.00000         0.00000
  -8584588.51207  21039104.38407  -6655472.34447  21039100.31747
 -12815463.30906  21263431.33706  -9978113.53948  21263427.27148
 08 11 15  1  5 29.9970000  0  9  3  6  7 13 16 19 21 23 25
 -23027007.34807  18785534.35307 -17700215.50049  18785531.26349
 -15428514.98407  19299940.51707 -11946364.33248  19299936.92748
  -3164420.72306  22605645.25906  -2457525.78147  22605642.00147
 -13011690.29306  21113457.04806 -10111082.30547  21113453.99747
    487629.88307  20470804.47007    393886.60248  20470800.34148
 -15207937.37105  20261215.78205 -11420209.72346  20261210.08746
     43250.23811  23048963.81301         0.00000         0.00000
  -8534768.09407  21048585.48507  -6616651.20347  21048579.49347
 -12899475.29706  21247443.70406 -10043577.40248  21247440.14248
 08 11 15  1  5 59.9970000  0  9  3  6  7 13 16 19 21 23 25
 -23046693.80108  18781787.79808 -17715555.58649  18781785.14949
 -15418129.38707  19301916.98507 -11938271.65648  19301913.27848
  -3273533.68406  22584881.88406  -2542548.85947  22584878.41947
 -13008518.34407  21114061.00107 -10108610.65647  21114056.69247
    525190.77007  20477951.92307    423154.80548  20477948.97848
 -15287489.43405  20246077.20405 -11482198.34047  20246071.22047
     65708.52311  23053235.35301         0.00000         0.00000
  -8484456.61706  21058158.25906  -6577447.44947  21058154.01747
 -12983184.31306  21231514.42306 -10108805.22348  21231511.22848
 08 11 15  1  6 29.9970000  0  9  3  6  7 13 16 19 21 23 25
 -23065828.09807  18778146.89907 -17730465.43849  18778144.30249
 -15407274.44907  19303982.56307 -11929813.26648  19303979.82948
  -3382491.27306  22564147.36006  -2627450.84047  22564144.09947
 -13004707.02707  21114786.00907 -10105640.80547  21114782.86047
    562938.83206  20485135.12606    452568.87148  20485131.29448
 -15366590.47306  20231024.62606 -11543835.54747  20231018.86447
     88668.45301  23057609.57901         0.00000         0.00000
  -8433656.68006  21067825.36006  -6537863.11747  21067819.84147
 -13066587.88706  21215643.36006 -10173795.01647  21215639.11847
 08 11 15  1  6 59.9970000  0  8  3  6  7 13 16 19 23 25
 -23084411.58607  18774610.18107 -17744946.07048  18774607.26348
 -15395952.24607  19306136.90707 -11920990.77048  19306133.22448
  -3491291.91406  22543443.30606  -2712230.54747  22543439.63847
 -13000257.71107  21115632.92307 -10102173.82847  21115629.64647
    600872.87906  20492353.52406    482127.85948  20492349.57548
 -15445239.76205  20216058.34505 -11605120.68447  20216053.65747
  -8382371.73406  21077584.93106  -6497900.81347  21077578.98147
 -13149684.02006  21199830.99306 -10238545.25847  21199827.36447
 08 11 15  1  7 29.9970000  0  8  3  6  7 13 16 19 23 25
 -23102436.32008  18771180.27408 -17758991.32048  18771177.18148
 -15384155.80107  19308381.65707 -11911798.74648  19308378.18848
  -3599924.89105  22522770.14905  -2796879.63347  22522767.39947
 -12995163.00406  21116602.14206 -10098203.94947  21116598.34947
    639000.96906  20499609.37606    511838.05548  20499605.24348
 -15523427.77306  20201180.69606 -11666046.41047  20201175.31347
  -8330596.19106  21087437.08706  -6457556.26647  21087432.88847
 -13232462.39807  21184079.07107 -10303047.89548  21184074.70848
 08 11 15  1  7 59.9970000  0  9  3  6  7 13 16 19 21 23 25
 -23119900.76607  18767857.14907 -17772599.98849  18767854.45449
 -15371884.18807  19310716.97007 -11902236.46548  19310714.14248
  -3708385.68405  22502130.54005  -2881394.51247  22502127.77847
 -12989421.79706  21117694.60306 -10093730.24647  21117690.47847
    677325.47307  20506902.01707    541701.28148  20506898.97048
 -15601151.27705  20186388.43805 -11726610.14847  20186384.42347
         0.00000  23071293.63401         0.00000         0.00000
  -8278329.99206  21097384.08706  -6416829.39147  21097378.41947
 -13314918.27007  21168388.25907 -10367299.21148  21168383.43848
 08 11 15  1  8 29.9960000  0  8  3  6  7 13 16 19 23 25
 -23136801.50807  18764640.66807 -17785769.36749  18764638.48149
 -15359135.59407  19313142.77707 -11892302.49248  19313139.84048
  -3816664.78204  22481525.70704  -2965767.78847  22481523.07447
 -12983031.68806  21118910.88706 -10088751.00047  21118906.78947
    715848.74607  20514232.93407    571719.37548  20514229.22348
 -15678402.69906  20171689.69106 -11786806.05947  20171684.64147
  -8225574.63706  21107422.84806  -6375721.35947  21107416.77047
 -13397043.01207  21152760.66007 -10431292.50448  21152756.39148
 08 11 15  1  8 59.9960000  0  8  3  6  7 13 16 19 23 25
 -23153140.50407  18761531.88707 -17798501.05149  18761529.09849
 -15345910.96507  19315659.26207 -11881997.57848  19315656.59848
  -3924767.16405  22460956.03505  -3050003.44147  22460952.21147
 -12975993.71106  21120249.19106 -10083266.86347  21120245.93047
    754572.17207  20521602.34807    601893.47348  20521597.53548
 -15755186.64106  20157077.74606 -11846637.69147  20157073.19547
  -8172329.68806  21117554.67606  -6334231.82847  21117549.50047
 -13478840.16007  21137195.54307 -10495030.53548  21137191.50848
 08 11 15  1  9 29.9960000  0  9  3  6  7 13 16 19 21 23 25
 -23168916.37107  18758529.51207 -17810793.91848  18758526.58648
 -15332211.10507  19318266.46507 -11871322.35548  19318263.56648
  -4032686.13705  22440418.80105  -3134096.10547  22440415.36347
 -12968308.01606  21121711.91006 -10077278.03147  21121709.26647
    793496.05507  20529009.16807    632223.77048  20529004.21148
 -15831498.08606  20142556.45706 -11906101.13747  20142551.64847
      6128.09411  23085848.41001         0.00000         0.00000
  -8118598.39506  21127778.93406  -6292363.32047  21127774.48447
 -13560303.51607  21121693.37907 -10558508.45748  21121688.77048
 08 11 15  1  9 59.9960000  0  9  3  6  7 13 16 19 21 23 25
 -23184132.80507  18755633.91807 -17822650.88748  18755630.84848
 -15318040.01207  19320963.28507 -11860279.94148  19320960.25848
  -4140421.54705  22419918.59005  -3218045.82047  22419913.84847
 -12959978.30507  21123297.73807 -10070787.36347  21123295.46547
    832617.82007  20536453.48107    662708.24248  20536449.78148
 -15907338.31305  20128123.07405 -11965197.33647  20128119.43047
     32645.55102  23090892.46502         0.00000         0.00000
  -8064386.11706  21138096.11306  -6250120.04347  21138090.05547
 -13641433.35207  21106254.38707 -10621726.50448  21106250.62148
 08 11 15  1 10 29.9960000  0  9  3  6  7 13 16 19 21 23 25
 -23198788.35507  18752844.94107 -17834070.78148  18752842.22348
 -15303396.66007  19323749.65207 -11848869.54748  19323746.65248
  -4247968.84805  22399451.48105  -3301848.83247  22399449.17647
 -12951003.64107  21125005.88707 -10063794.12147  21125001.17247
    871939.08207  20543936.19107    693348.16048  20543932.73148
 -15982703.91806  20113782.90206 -12023923.75447  20113777.34047
         0.00000  23096035.44901         0.00000         0.00000
  -8009693.34806  21148504.16006  -6207502.27347  21148498.93447
 -13722225.02007  21090880.12907 -10684681.05148  21090876.65248
 08 11 15  1 10 59.9960000  0  8  3  6  7 13 16 19 23 25
 -23212880.77307  18750163.51207 -17845051.90248  18750160.30948
 -15288279.80907  19326626.23107 -11837090.18448  19326623.49248
  -4355322.82406  22379024.31606  -3385501.28147  22379020.06647
 -12941382.10507  21126836.62907 -10056296.78947  21126833.22347
    911462.80107  20551457.46507    724145.83248  20551452.63748
 -16057590.89506  20099532.37906 -12082277.25047  20099527.05947
  -7954520.07406  21159002.02006  -6164510.16447  21158998.39147
 -13802673.39107  21075570.94107 -10747368.10548  21075567.60648
 08 11 15  1 11 29.9960000  0  9  3  6  7 13 16 19 21 23 25
 -23226409.44907  18747589.21507 -17855593.72349  18747586.32049
 -15272689.40207  19329593.09007 -11824941.80148  19329590.01648
  -4462479.36306  22358632.76206  -3468999.85247  22358628.71947
 -12931113.06306  21128790.19106 -10048294.96547  21128785.84047
    951190.43407  20559017.34807    755102.42648  20559012.97748
 -16131996.61306  20085373.03506 -12140255.72747  20085367.77347
      8456.96911  23106615.94101         0.00000         0.00000
  -7898867.42607  21169593.34807  -6121144.47747  21169587.50047
 -13882774.63307  21060328.43407 -10809784.64148  21060325.39848
 08 11 15  1 11 59.9960000  0  8  3  6  7 13 16 19 23 25
 -23239376.23008  18745121.54308 -17865697.71149  18745118.42649
 -15256628.60207  19332649.21507 -11812426.89848  19332646.21548
  -4569437.88306  22338279.52006  -3552344.16847  22338274.79347
 -12920199.47306  21130866.89506 -10039790.91847  21130862.36347
    991119.71507  20566615.16807    786216.14148  20566611.20348
 -16205921.94906  20071305.38706 -12197859.88747  20071300.95747
  -7842740.49606  21180273.58206  -6077409.19947  21180269.17647
 -13962528.05107  21045152.14507 -10871930.16848  21045148.87948
 08 11 15  1 12 29.9960000  0  9  3  6  7 13 16 19 21 23 25
 -23251779.02307  18742761.54307 -17875362.23049  18742758.62949
 -15240095.54707  19335795.58207 -11799544.02048  19335791.93448
  -4676192.71106  22317964.30906  -3635529.68847  22317960.10247
 -12908639.45706  21133067.31606 -10030783.12947  21133062.75847
   1031254.50407  20574253.03507    817489.98848  20574249.48148
 -16279362.34006  20057330.26206 -12255086.18047  20057325.09447
     17214.32011  23117582.87101         0.00000         0.00000
  -7786138.45306  21191044.46506  -6033303.74648  21191041.22748
 -14041928.12107  21030042.05907 -10933800.35548  21030039.32048
 08 11 15  1 12 59.9960000  0  9  3  6  7 13 16 19 21 23 25
 -23263616.45307  18740508.73807 -17884586.21549  18740506.25849
 -15223089.53907  19339032.20707 -11786292.59848  19339028.38348
  -4782739.16806  22297689.26206  -3718552.91047  22297685.09047
 -12896432.21106  21135389.98106 -10021271.02347  21135386.53547
   1071596.27307  20581929.55107    848925.08648  20581926.05148
 -16352314.71106  20043447.91006 -12311932.21147  20043443.59447
     46799.62101  23123206.49601         0.00000         0.00000
  -7729062.23407  21201905.84807  -5988828.80147  21201900.63747
 -14120970.39107  21015001.52707 -10995391.75048  21014997.46548
 08 11 15  1 13 29.9960000  0  8  3  6  7 13 16 19 23 25
 -23274887.02707  18738363.87107 -17893368.47749  18738361.46549
 -15205610.03107  19342358.49607 -11772672.22348  19342355.14148
  -4889072.89806  22277454.77706  -3801410.34447  22277450.72347
 -12883576.71506  21137836.62906 -10011253.79747  21137833.76247
   1112147.27707  20589646.12107    880523.24648  20589642.88748
 -16424775.75806  20029659.02706 -12368395.35948  20029654.65648
  -7671512.33207  21212857.49607  -5943984.68047  21212850.96147
 -14199650.46107  21000029.00407 -11056700.89148  21000025.78548
 08 11 15  1 13 59.9960000  0  8  3  6  7 13 16 19 23 25
 -23285580.66407  18736329.14507 -17901701.18848  18736325.94548
 -15187647.48007  19345776.27707 -11758675.41448  19345773.07048
  -4995180.24206  22257263.22306  -3884091.40647  22257259.69547
 -12870063.49206  21140408.54306 -10000724.09047  21140405.23447
   1152918.40207  20597405.14507    912292.95348  20597400.85648
 -16496733.40607  20015966.48107 -12424466.23848  20015961.41848
  -7613480.87906  21223900.48106  -5898765.39547  21223895.56647
 -14277955.03107  20985127.92607 -11117717.44548  20985124.95348
 08 11 15  1 14 29.9960000  0  8  3  6  7 13 16 19 23 25
 -23295698.87507  18734403.68407 -17909585.51648  18734400.30948
 -15169204.45707  19349285.56607 -11744304.22348  19349282.71548
  -5101060.12906  22237113.51206  -3966595.15247  22237110.77747
 -12855894.87106  21143104.76206  -9989683.59447  21143100.61347
   1193908.51207  20605205.16007    944233.29748  20605200.94548
 -16568187.69506  20002369.02006 -12480144.90647  20002363.43847
  -7554972.00006  21235033.84006  -5853174.07847  21235029.37947
 -14355882.64507  20970298.89507 -11178440.24648  20970295.75848
 08 11 15  1 14 59.9960000  0  8  3  6  7 13 16 19 23 25
 -23305237.12507  18732588.77007 -17917017.92648  18732585.19148
 -15150276.37107  19352887.55107 -11729555.05548  19352884.44148
  -5206703.74206  22217010.66006  -4048914.84847  22217007.70747
 -12841066.13306  21145926.24606  -9978128.73047  21145923.45347
   1235123.72707  20613048.20707    976349.01648  20613044.18848
 -16639131.71906  19988868.44906 -12535425.96147  19988863.66047
  -7495982.04706  21246259.42606  -5807207.90647  21246254.38347
 -14433424.92206  20955543.11306 -11238862.77748  20955539.30548
 08 11 15  1 15 29.9960000  0  8  3  6  7 13 16 19 23 25
 -23314194.62107  18730884.01207 -17923997.78948  18730880.78548
 -15130863.26607  19356581.41807 -11714427.95748  19356578.97748
  -5312107.09006  22196953.52706  -4131047.33247  22196950.57847
 -12825577.17606  21148874.09806  -9966059.43447  21148869.91847
   1276565.19907  20620934.22307   1008641.07048  20620929.73848
 -16709562.95306  19975465.73106 -12590307.43847  19975461.07447
  -7436512.66006  21257575.72306  -5760868.13747  21257571.43847
 -14510578.28106  20940861.48106 -11298982.27348  20940858.14148
 08 11 15  1 15 59.9960000  0  8  3  6  7 13 16 19 23 25
 -23322570.21107  18729290.13707 -17930524.22749  18729287.60649
 -15110964.92207  19360368.21507 -11698922.75448  19360364.75048
  -5417265.88305  22176941.52705  -4212989.19547  22176940.19147
 -12809427.55507  21151946.29307  -9953475.32847  21151943.29347
   1318234.90207  20628863.59007   1041110.93848  20628859.41448
 -16779478.73006  19962160.85606 -12644787.25447  19962156.41847
  -7376564.82406  21268984.41806  -5714155.56347  21268979.79747
 -14587338.35906  20926254.65206 -11358795.32048  20926250.37148
 08 11 15  1 16 29.9960000  0  8  3  6  7 13 16 19 23 25
 -23330367.24207  18727806.52007 -17936599.82449  18727804.42649
 -15090585.53507  19364246.47307 -11683042.69548  19364243.51248
  -5522180.31606  22156977.55106  -4294740.73847  22156974.48147
 -12792621.08606  21155144.78506  -9940379.35947  21155140.92247
   1360130.09807  20636836.18407   1073756.52048  20636831.49648
 -16848880.26206  19948954.53506 -12698866.35948  19948950.31648
  -7316144.52306  21280481.71506  -5667074.84447  21280477.34847
 -14663705.59806  20911722.31606 -11418302.26248  20911718.50448
 08 11 15  1 16 59.9960000  0  8  3  6  7 13 16 19 23 25
 -23337589.98807  18726432.40207 -17942227.94149  18726429.58249
 -15069729.48407  19368215.69907 -11666791.24648  19368212.32448
  -5626851.11705  22137059.62905  -4376302.41847  22137057.19947
 -12775162.49606  21158467.11306  -9926775.30947  21158463.34847
   1402247.28507  20644850.71507   1106575.10248  20644847.21548
 -16917769.94506  19935845.37106 -12752546.63748  19935840.97348
  -7255257.45706  21292067.38706  -5619630.45347  21292062.77747
 -14739680.62506  20897264.41006 -11477503.57048  20897260.33248
 08 11 15  1 17 29.9960000  0  8  3  6  7 13 16 19 23 25
 -23344238.00407  18725167.02707 -17947408.21948  18725163.66848
 -15048397.35207  19372274.77007 -11650168.79348  19372271.18848
  -5731274.38706  22117189.10606  -4457671.16047  22117185.66447
 -12757051.91006  21161913.03506  -9912663.16447  21161909.55547
   1444588.03907  20652907.94907   1139567.87148  20652905.19548
 -16986145.73006  19922834.39506 -12805826.45748  19922828.97348
  -7193905.12906  21303742.82406  -5571823.43847  21303738.02047
 -14815259.91407  20882882.25407 -11536396.53548  20882879.65248
 08 11 15  1 17 59.9960000  0  8  3  6  7 13 16 19 23 25
 -23350308.18407  18724012.18407 -17952138.24648  18724008.98148
 -15026586.68007  19376425.02707 -11633173.47748  19376422.06348
  -5835444.02006  22097365.09806  -4538842.28147  22097361.82847
 -12738287.01607  21165484.69107  -9898041.21547  21165481.48147
   1487156.14107  20661008.52007   1172737.76648  20661004.39548
 -17054002.82406  19909921.16006 -12858702.12948  19909916.26248
  -7132087.14106  21315506.16006  -5523653.65647  21315501.58647
 -14890437.41806  20868576.16806 -11594976.40248  20868573.86348
 08 11 15  1 18 29.9960000  0  9  3  6  7 13 16 19 21 23 25
 -23355804.37107  18722966.29307 -17956420.96948  18722963.44548
 -15004301.23807  19380665.94907 -11615808.20348  19380663.00848
  -5939359.39806  22077591.27706  -4619815.27747  22077587.48147
 -12718871.87107  21169179.62107  -9882912.55547  21169175.49647
   1529949.00407  20669151.77007   1206082.84848  20669147.19548
 -17121342.51206  19897107.19106 -12911174.58248  19897102.08648
     42938.53511  23191710.08201         0.00000         0.00000
  -7069808.37107  21327358.55107  -5475124.79747  21327351.09447
 -14965213.00406  20854347.16806 -11653243.10948  20854343.65248
 08 11 15  1 18 59.9960000  0  9  3  6  7 13 16 19 21 23 25
 -23360732.07807  18722028.17607 -17960260.72748  18722024.90648
 -14981547.93007  19384995.51207 -11598078.33648  19384992.80148
  -6043023.29305  22057864.09005  -4700592.28947  22057860.30947
 -12698812.93806  21172995.99606  -9867282.21947  21172992.93047
   1572961.60507  20677335.93407   1239599.16448  20677332.65248
 -17188169.10506  19884389.65206 -12963247.23048  19884384.82048
     78799.99211  23198534.87101         0.00000         0.00000
  -7007077.24607  21339295.98107  -5426243.33247  21339288.66847
 -15039589.49207  20840193.95707 -11711198.80948  20840189.56648
 08 11 15  1 19 29.9960000  0  9  3  6  7 13 16 19 21 23 25
 -23365100.91807  18721196.78507 -17963665.01248  18721193.29748
 -14958336.59407  19389412.69107 -11579991.58648  19389410.18048
  -6146441.64806  22038184.59806  -4781178.03947  22038180.80147
 -12678120.19906  21176933.60606  -9851158.03547  21176929.52047
   1616185.59407  20685561.50407   1273280.17248  20685557.87948
 -17254489.87506  19871769.13706 -13014925.71148  19871764.31648
    115166.63311  23205458.12901         0.00000         0.00000
  -6943905.08606  21351316.16006  -5377018.30947  21351311.36347
 -15113573.04307  20826115.45707 -11768848.34048  20826111.10648
 08 11 15  1 19 59.9960000  0  9  3  6  7 13 16 19 21 23 25
 -23368918.49207  18720470.63707 -17966639.74649  18720467.99249
 -14934675.66407  19393914.90207 -11561554.48048  19393911.85248
  -6249618.77705  22018550.74605  -4861575.78547  22018547.11747
 -12656801.97706  21180990.48106  -9834546.45347  21180987.32447
   1659614.09007  20693825.68407   1307120.50848  20693821.73448
 -17320310.95706  19859244.53506 -13066214.88347  19859238.69547
    152031.01601  23212480.50401         0.00000         0.00000
  -6880301.53107  21363419.72307  -5327457.15647  21363415.03947
 -15187168.09807  20812110.34007 -11826195.12548  20812107.04348
 08 11 15  1 20 29.9960000  0  8  3  6  7 13 16 19 23 25
 -23372194.96107  18719847.27007 -17969192.83249  18719845.02749
 -14910575.94507  19398501.27007 -11542775.46948  19398497.80948
  -6352561.14506  21998961.22306  -4941790.57447  21998957.59447
 -12634869.38706  21185164.30906  -9817456.12947  21185158.90647
   1703237.68007  20702127.52007   1341112.93048  20702122.42248
 -17385640.64806  19846812.23106 -13117121.15648  19846806.98448
  -6816279.05107  21375603.54307  -5277569.50847  21375597.34847
 -15260381.55907  20798178.66007 -11883244.56648  20798174.37948
 08 11 15  1 20 59.9960000  0  9  3  6  7 13 16 19 21 23 25
 -23374943.05507  18719324.31607 -17971334.21949  18719321.69949
 -14886050.73807  19403168.39507 -11523664.93448  19403164.89548
  -6455277.94905  21979414.84805  -5021829.64547  21979409.56647
 -12612335.66006  21189452.05106  -9799897.45347  21189449.31347
   1747044.64107  20710463.67607   1375248.19948  20710458.83648
 -17450490.18006  19834471.98806 -13167653.24248  19834467.21548
     31958.87912  23226779.87902         0.00000         0.00000
  -6751852.31307  21387863.21507  -5227366.88747  21387858.02047
 -15333222.89807  20784317.10607 -11940004.07048  20784313.10948
 08 11 15  1 21 29.9960000  0  8  3  6  7 13 16 19 23 25
 -23377168.74607  18718900.44107 -17973068.50849  18718898.03149
 -14861106.16407  19407915.02007 -11504227.60948  19407911.80148
  -6557771.28506  21959910.99606  -5101694.58647  21959905.98447
 -12589207.00806  21193853.49606  -9781875.17247  21193849.81347
   1791030.30507  20718833.65207   1409522.69148  20718829.12148
 -17514863.00006  19822222.88706 -13217813.87148  19822216.85648
  -6687028.82407  21400198.69907  -5176855.16847  21400194.56347
 -15405694.37107  20770526.26207 -11996475.33248  20770522.97748
 08 11 15  1 21 59.9960000  0  9  3  6  7 13 16 19 21 23 25
 -23378875.37907  18718575.91807 -17974398.35249  18718573.00049
 -14835746.51607  19412740.73107 -11484466.84448  19412737.86748
  -6660041.53106  21940449.99606  -5181385.70347  21940444.94947
 -12565487.67606  21198367.11306  -9763392.58647  21198364.13347
   1835192.19907  20727237.61307   1443934.51648  20727233.27048
 -17578761.07406  19810063.20706 -13267604.55948  19810057.07048
     25850.42611  23241445.43401         0.00000         0.00000
  -6621814.34807  21412608.54307  -5126038.69947  21412603.29747
 -15477796.22707  20756805.63707 -12052658.60248  20756802.09048
 08 11 15  1 22 29.9960000  0  8  3  6  7 13 16 19 23 25
 -23380060.94507  18718350.14507 -17975322.17248  18718346.28148
 -14809970.21107  19417646.07407 -11464381.41048  19417643.09048
  -6762082.53906  21921032.08206  -5260898.16847  21921028.88747
 -12541176.11707  21202993.64507  -9744448.52047  21202988.43847
   1879533.75407  20735675.75407   1478486.35548  20735671.24648
 -17642180.21906  19797994.96506 -13317022.07448  19797987.94948
  -6556208.66006  21425092.37906  -5074917.41447  21425086.84047
 -15549522.88307  20743156.56607 -12108549.48848  20743152.63748
 08 11 15  1 22 59.9960000  0  8  3  6  7 13 16 19 23 25
 -23380720.71907  18718224.70707 -17975836.28548  18718221.06348
 -14783773.19907  19422631.05907 -11443968.14848  19422627.55948
  -6863886.03906  21901660.09806  -5340225.56347  21901656.20347
 -12516268.64507  21207734.07407  -9725040.05547  21207730.28947
   1924060.20307  20744148.63707   1513182.28148  20744144.03948
 -17705114.30906  19786018.70706 -13366061.63348  19786013.02748
  -6490209.30906  21437652.25406  -5023489.43447  21437648.22347
 -15620866.61307  20729579.99607 -12164142.00848  20729576.76648
 08 11 15  1 23 29.9960000  0  8  3  6  7 13 16 19 23 25
 -23380850.18007  18718200.00407 -17975937.15248  18718197.00448
 -14757151.47707  19427696.93407 -11423223.94948  19427693.78548
  -6965443.97706  21882334.13706  -5419361.57047  21882329.53947
 -12490761.30507  21212587.98807  -9705164.24247  21212583.33647
   1968777.30107  20752658.19107   1548026.74248  20752653.91448
 -17767556.68006  19774135.93406 -13414718.01248  19774131.23848
  -6423813.55507  21450287.41807  -4971752.48847  21450282.84047
 -15691819.37507  20716078.07407 -12219429.87948  20716075.92648
 08 11 15  1 23 59.9960000  0  8  3  6  7 13 16 19 23 25
 -23380442.79707  18718277.66807 -17975619.71548  18718274.55948
 -14730098.77307  19432844.89507 -11402143.92248  19432841.89548
  -7066745.87106  21863056.67606  -5498298.10247  21863052.67247
 -12464647.86306  21217556.09006  -9684816.11747  21217554.34447
   2013693.00807  20761205.44107   1583025.97348  20761201.52348
 -17829498.87506  19762348.62106 -13462984.64148  19762343.53948
  -6357016.53506  21462997.53506  -4919702.89847  21462993.61747
 -15762371.09007  20702653.00407 -12274405.26248  20702649.03548
 08 11 15  1 24 29.9960000  0  8  3  6  7 13 16 19 23 25
 -23379492.35207  18718458.04307 -17974879.10948  18718455.47348
 -14702609.48407  19438076.05907 -11380723.69548  19438072.78548
  -7167781.93806  21843829.94906  -5577027.44547  21843826.50447
 -12437923.07006  21222642.09806  -9663991.62947  21222637.31347
   2058814.31607  20769791.77007   1618185.42648  20769786.91048
 -17890932.85506  19750659.08206 -13510855.28148  19750652.93848
  -6289814.29707  21475787.13707  -4867337.53147  21475780.39147
 -15832512.14807  20689305.53507 -12329060.60948  20689301.82048
 08 11 15  1 24 59.9960000  0  8  3  6  7 13 16 19 23 25
 -23377993.06607  18718743.40207 -17973710.84848  18718740.34848
 -14674678.73007  19443391.09007 -11358959.48048  19443387.87548
  -7268543.12106  21824655.51206  -5655542.64847  21824652.00847
 -12410582.14506  21227844.56606  -9642687.03147  21227841.56647
   2104147.97707  20778417.98107   1653510.34848  20778413.76648
 -17951851.62506  19739066.10606 -13558324.45748  19739061.64148
  -6222203.30107  21488653.00407  -4814653.62547  21488647.79347
 -15902233.69907  20676038.12107 -12383389.07848  20676035.12948
 08 11 15  1 25 29.9960000  0  8  3  6  7 13 16 19 23 25
 -23375946.60907  18719133.12907 -17972116.21148  18719129.85648
 -14646308.27007  19448789.65207 -11336852.64148  19448787.02048
  -7369026.66406  21805534.62106  -5733841.50047  21805530.55147
 -12382627.28506  21233164.30906  -9620904.01647  21233159.46947
   2149693.68807  20787085.22307   1689000.52348  20787081.44948
 -18012254.44506  19727571.77006 -13605391.54348  19727566.61748
  -6154187.09007  21501594.53507  -4761654.00447  21501591.06347
 -15971533.85207  20662850.51207 -12437389.20348  20662847.77048
 08 11 15  1 25 59.9960000  0  8  3  6  7 13 16 19 23 25
 -23373344.75407  18719628.46507 -17970088.79749  18719624.74649
 -14617490.73407  19454273.41007 -11314397.42248  19454270.09048
  -7469220.89106  21786468.20706  -5811914.94147  21786463.75847
 -12354050.91006  21238602.23106  -9598636.71547  21238597.59047
   2195460.69107  20795794.57407   1724663.09048  20795790.14148
 -18072131.32806  19716177.36306 -13652048.84848  19716171.94548
  -6085759.48007  21514616.52707  -4708333.84047  21514611.82447
 -16040400.93007  20649745.47307 -12491051.85248  20649742.27748
 08 11 15  1 26 29.9960000  0  8  3  6  7 13 16 19 23 25
 -23370190.98008  18720228.85608 -17967631.32849  18720225.14849
 -14588229.53907  19459841.40207 -11291596.50848  19459838.64848
  -7569125.37906  21767456.86306  -5889762.56347  21767452.49647
 -12324856.95306  21244157.02006  -9575888.20347  21244153.14547
   2241447.01207  20804545.79307   1760496.60248  20804541.73448
 -18131483.76206  19704882.31606 -13698297.48848  19704877.05948
  -6016925.12106  21527715.82406  -4654696.65247  21527709.48147
 -16108834.65607  20636723.30907 -12544376.85548  20636719.53548
 08 11 15  1 26 59.9960000  0  8  3  6  7 13 16 19 23 25
 -23366489.76607  18720933.09007 -17964747.26649  18720929.48149
 -14558530.00807  19465493.05107 -11268454.02048  19465490.41848
  -7668740.98006  21748500.59806  -5967385.11347  21748495.72747
 -12295050.97706  21249830.25406  -9552662.79347  21249826.86747
   2287649.16407  20813337.52707   1796498.27748  20813333.93048
 -18190314.89506  19693687.44906 -13744139.92248  19693681.89148
  -5947690.98406  21540889.41806  -4600748.01647  21540885.82847
 -16176836.44107  20623783.09007 -12597365.24248  20623778.70348
 08 11 15  1 27 29.9960000  0  8  3  6  7 13 16 19 23 25
 -23362252.78107  18721739.06607 -17961445.72349  18721736.18849
 -14528404.39807  19471225.59807 -11244979.52748  19471223.03548
  -7768075.87106  21729597.70706  -6044788.91447  21729592.78947
 -12264645.71506  21255615.00406  -9528970.45347  21255612.63347
   2334056.31607  20822168.44907   1832659.67648  20822164.10648
 -18248634.54306  19682589.83206 -13789583.80948  19682584.55148
  -5878070.87106  21554138.46506  -4546498.68447  21554133.85947
 -16244414.60907  20610923.64507 -12650023.55948  20610918.79748
 08 11 15  1 27 59.9960000  0  8  3  6  7 13 16 19 23 25
 -23357476.50007  18722647.60607 -17957723.94548  18722645.07048
 -14497849.56607  19477040.17607 -11221170.56348  19477037.58648
  -7867122.39806  21710749.82406  -6121967.99647  21710745.64547
 -12233638.03106  21261516.37906  -9504808.62947  21261512.79347
   2380673.68807  20831039.16807   1868984.87548  20831035.55948
 -18306437.19507  19671590.52707 -13834624.84048  19671585.11748
  -5808063.05107  21567460.97307  -4491947.16047  21567454.85247
 -16311562.02307  20598145.58207 -12702346.21148  20598141.86748
 08 11 15  1 28 29.9960000  0  8  3  6  7 13 16 19 23 25
 -23352169.57807  18723657.78507 -17953588.68048  18723654.98448
 -14466874.38307  19482935.03507 -11197034.06348  19482931.68048
  -7965884.76606  21691956.23806  -6198925.68447  21691951.69147
 -12202036.98006  21267529.50406  -9480184.47347  21267526.31647
   2427493.87907  20839948.63707   1905468.12948  20839944.98448
 -18363729.56307  19660688.21507 -13879268.24248  19660684.01648
  -5737677.82006  21580854.36306  -4437101.48046  21580847.78546
 -16378283.74207  20585448.71507 -12754337.15648  20585445.04348
 08 11 15  1 28 59.9960000  0  8  3  6  7 13 16 19 23 25
 -23346335.89507  18724768.48107 -17949042.98048  18724764.89148
 -14435483.69507  19488908.04307 -11172573.78548  19488904.79748
  -8064363.96106  21673216.05906  -6275662.70747  21673212.27047
 -12169847.82805  21273654.34805  -9455102.03147  21273650.37947
   2474513.78907  20848896.28507   1942106.99248  20848892.89148
 -18420514.35207  19649882.93407 -13923516.10248  19649878.41048
  -5666921.50006  21594318.83206  -4381966.73047  21594314.16047
 -16444580.47707  20572832.27007 -12805996.93848  20572829.32848
 08 11 15  1 29 29.9960000  0  8  3  6  7 13 16 19 23 25
 -23339976.92207  18725978.38707 -17944087.97348  18725974.71548
 -14403679.03907  19494960.71507 -11147790.95748  19494957.31648
  -8162557.38306  21654530.03506  -6352177.05147  21654526.21547
 -12137072.75805  21279891.69905  -9429563.07847  21279889.02047
   2521733.54307  20857882.39507   1978901.58248  20857878.54348
 -18476790.63307  19639174.05907 -13967367.74648  19639168.62148
  -5595797.14507  21607854.18407  -4326545.20347  21607849.61747
 -16510450.11307  20560298.09007 -12857323.94148  20560295.11748
 08 11 15  1 29 59.9960000  0  8  3  6  7 13 16 19 23 25
 -23333095.08607  18727287.66007 -17938725.52348  18727284.44948
 -14371463.45307  19501090.77007 -11122687.91048  19501087.65248
  -8260463.43406  21635899.29306  -6428467.47747  21635895.44147
 -12103714.93806  21286240.30106  -9403569.99647  21286236.22747
   2569151.75407  20866905.69107   2015850.83248  20866901.48448
 -18532559.34807  19628560.91807 -14010823.90248  19628555.88748
  -5524309.17207  21621457.56607  -4270840.33247  21621452.81647
 -16575891.60207  20547845.20707 -12908317.31648  20547841.75048
 08 11 15  1 30 29.9960000  0  8  3  6  7 13 16 19 23 25
 -23325696.95307  18728695.40207 -17932960.73848  18728691.98148
 -14338844.03107  19507298.03507 -11097270.18048  19507295.05148
  -8358084.98405  21617321.66005  -6504536.16847  21617318.90247
 -12069781.85906  21292696.03506  -9377128.67247  21292694.03147
   2616763.37907  20875966.13707   2052950.78948  20875961.37948
 -18587825.13306  19618044.08206 -14053888.17648  19618039.08648
  -5452466.05907  21635128.96507  -4214858.73047  21635122.94947
 -16640908.13307  20535472.70707 -12958979.54348  20535469.82448
 08 11 15  1 30 59.9960000  0  8  3  6  7 13 16 19 23 25
 -23317793.48407  18730199.66007 -17926802.19149  18730196.30549
 -14305831.50007  19513579.95707 -11071546.12548  19513576.46948
  -8455428.34806  21598798.93406  -6580388.16447  21598795.86747
 -12035284.71106  21299261.78506  -9350247.82447  21299258.42247
   2664559.09007  20885060.77707   2090194.16448  20885056.90648
 -18642596.88706  19607621.40206 -14096567.43848  19607616.18448
  -5380280.37507  21648865.94907  -4158610.16448  21648860.21148
 -16705506.52307  20523180.30107 -13009315.97748  20523176.65648
 08 11 15  1 31 29.9960000  0  8  3  6  7 13 16 19 23 25
 -23309387.14807  18731799.34007 -17920251.80948  18731795.75048
 -14272429.25407  19519936.44107 -11045518.41048  19519932.62148
  -8552492.50006  21580327.60606  -6656022.56347  21580325.63347
 -12000227.35506  21305932.96506  -9322930.44147  21305930.51647
   2712537.35907  20894191.35607   2127579.79348  20894186.38748
 -18696875.78107  19597292.26207 -14138862.67648  19597287.38348
  -5307756.57407  21662665.36307  -4102098.16847  21662661.01247
 -16769686.35907  20510967.28507 -13059326.23448  20510963.61348
 08 11 15  1 31 59.9960000  0  8  3  6  7 13 16 19 23 25
 -23300478.81307  18733494.08207 -17913310.27048  18733491.03148
 -14238638.85507  19526366.11307 -11019188.26248  19526363.31648
  -8649274.73806  21561910.98806  -6731437.31348  21561908.34848
 -11964611.75006  21312710.31606  -9295178.07847  21312708.43047
   2760698.39507  20903355.72307   2165107.86748  20903351.43448
 -18750660.91406  19587057.57406 -14180773.15248  19587052.05948
  -5234897.86306  21676529.62906  -4045325.18047  21676525.14147
 -16833445.20707  20498834.53507 -13109008.43448  20498830.71948
 08 11 15  1 32 29.9960000  0  8  3  6  7 13 16 19 23 25
 -23291067.13307  18735285.46507 -17905976.48448  18735281.86348
 -14204458.86707  19532870.50407 -10992554.51648  19532867.93448
  -8745769.25006  21543548.52006  -6806627.82848  21543546.13748
 -11928436.92606  21319593.87906  -9266989.91447  21319590.09047
   2809045.18407  20912555.56607   2202780.64848  20912552.40648
 -18803949.04306  19576917.04306 -14222296.35948  19576911.80948
  -5161704.54706  21690458.63706  -3988291.46147  21690453.46947
 -16896777.70307  20486782.80107 -13158358.44948  20486778.72348
 08 11 15  1 32 59.9960000  0  8  3  6  7 13 16 19 23 25
 -23281154.71507  18737171.44107 -17898252.51648  18737168.35948
 -14169892.50407  19539448.52707 -10965619.69148  19539445.85648
  -8841974.97706  21525241.40206  -6881593.33248  21525238.88348
 -11891706.30907  21326584.28507  -9238368.66047  21326580.52047
   2857576.26606  20921790.69106   2240597.04748  20921787.54348
 -18856740.90607  19566871.57407 -14263432.87148  19566865.48848
  -5088181.03906  21704449.49606  -3931000.41447  21704444.63347
 -16959683.22707  20474812.08207 -13207375.75448  20474808.54748
 08 11 15  1 33 29.9960000  0  8  3  6  7 13 16 19 23 25
 -23270736.25807  18739154.12907 -17890134.23448  18739151.05148
 -14134934.85907  19546101.03507 -10938379.96148  19546097.54748
  -8937882.44506  21506990.98806  -6956326.42648  21506987.98148
 -11854415.71506  21333679.58206  -9209311.02747  21333676.12547
   2906298.48407  20931062.94107   2278562.36348  20931059.59848
 -18909029.60206  19556921.19106 -14304177.30148  19556915.94148
  -5014323.94506  21718504.04306  -3873449.48447  21718500.11347
 -17022152.98407  20462924.15207 -13256053.46548  20462920.73848
 08 11 15  1 33 59.9960000  0  8  3  6  7 13 16 19 23 25
 -23259812.49607  18741233.02007 -17881622.21548  18741229.78148
 -14099586.67207  19552827.12107 -10910835.93048  19552824.05548
  -9033488.26607  21488798.47307  -7030824.45748  21488793.50448
 -11816566.36706  21340882.63706  -9179818.07847  21340880.54747
   2955212.93007  20940370.48107   2316677.48048  20940367.21548
 -18960813.80106  19547066.80906 -14344528.63348  19547062.07048
  -4940135.48806  21732621.88706  -3815640.35247  21732617.90647
 -17084183.71507  20451119.84807 -13304389.10248  20451116.53148
 08 11 15  1 34 29.9960000  0  8  3  6  7 13 16 19 23 25
 -23248380.59807  18743408.25407 -17872714.24648  18743405.07848
 -14063846.03507  19559628.52007 -10882986.07848  19559625.27348
  -9128785.99206  21470662.88706  -7105082.42247  21470658.44947
 -11778157.08206  21348191.55906  -9149888.82847  21348187.92647
   3004323.30907  20949715.98807   2354945.27748  20949712.36748
 -19012089.60906  19537308.99606 -14384483.78948  19537304.86348
  -4865615.21507  21746803.44107  -3757572.62147  21746798.51647
 -17145769.69506  20439400.52006 -13352378.18448  20439397.84848
 08 11 15  1 34 59.9960000  0  8  3  6  7 13 16 19 23 25
 -23236434.05507  18745681.67607 -17863405.25848  18745678.91448
 -14027706.76607  19566505.69907 -10854825.60548  19566502.93848
  -9223764.68807  21452589.19907  -7179091.73847  21452585.22747
 -11739181.73807  21355608.66807  -9119518.43047  21355604.57047
   3053637.57007  20959100.25407   2393371.95748  20959096.56648
 -19062848.37906  19527650.70706 -14424036.07848  19527645.98848
  -4790758.31606  21761047.62906  -3699242.59847  21761043.07047
 -17206900.81307  20427767.27707 -13400012.84848  20427765.25848
 08 11 15  1 35 29.9960000  0  8  3  6  7 13 16 19 23 25
 -23223977.68807  18748051.92607 -17853698.99648  18748048.91448
 -13991173.70707  19573457.62107 -10826358.28948  19573454.49248
  -9318425.09406  21434576.12106  -7252853.10547  21434571.89847
 -11699646.04306  21363131.59806  -9088711.43047  21363130.28947
   3103152.37507  20968522.26207   2431954.90248  20968519.47748
 -19113093.09406  19518088.87106 -14463187.80148  19518084.07848
  -4715571.29706  21775355.66006  -3640655.30947  21775349.90647
 -17267578.01607  20416221.53507 -13447293.81348  20416217.74248
 08 11 15  1 35 59.9960000  0  8  3  6  7 13 16 19 23 25
 -23211007.76607  18750520.32407 -17843592.56348  18750516.49648
 -13954244.00007  19580485.38707 -10797581.89148  19580481.91848
  -9412760.13306  21416624.42606  -7326360.89848  21416620.64848
 -11659547.68807  21370762.79307  -9057465.96947  21370758.25847
   3152872.49206  20977983.94906   2470697.80948  20977980.60248
 -19162818.84406  19508626.43406 -14501935.12148  19508621.94548
  -4640052.71107  21789726.48107  -3581809.64547  21789720.35647
 -17327794.70707  20404762.50407 -13494215.87948  20404758.32848
 08 11 15  1 36 29.9960000  0  8  3  6  7 13 16 19 23 25
 -23197531.15207  18753085.03507 -17833091.31648  18753081.53148
 -13916924.62107  19587586.92607 -10768501.85948  19587583.51248
  -9506772.25807  21398734.93407  -7399617.07048  21398730.89848
 -11618894.27707  21378498.60607  -9025787.97747  21378495.02347
   3202792.73807  20987483.38707   2509596.66448  20987479.77348
 -19212030.82807  19499261.34807 -14540282.12548  19499256.09448
  -4564211.32406  21804157.31606  -3522712.47347  21804152.80547
 -17387553.86707  20393391.23107 -13540781.46548  20393387.65248
 08 11 15  1 36 59.9960000  0  8  3  6  7 13 16 19 23 25
 -23183545.53907  18755745.98807 -17822193.43448  18755742.93848
 -13879213.28907  19594762.80107 -10739116.41048  19594759.71148
  -9600454.64106  21380907.56606  -7472616.35248  21380903.26248
 -11577683.91406  21386340.52006  -8993676.02047  21386336.39147
   3252917.33606  20997021.64506   2548654.78948  20997018.39148
 -19260724.24607  19489995.87907 -14578225.02748  19489990.44548
  -4488045.80105  21818651.67605  -3463362.77747  21818646.51247
 -17446849.21907  20382107.50407 -13586985.63348  20382104.19548
 08 11 15  1 37 29.9960000  0  8  3  6  7 13 16 19 23 25
 -23169056.53507  18758503.45707 -17810903.29748  18758500.03148
 -13841116.13307  19602012.64507 -10709430.32848  19602009.26648
  -9693809.35206  21363142.41006  -7545360.24248  21363139.68848
 -11535923.36706  21394286.78506  -8961135.40647  21394284.39147
   3303241.96507  21006597.84007   2587868.76648  21006595.24248
 -19308903.41407  19480827.92607 -14615767.25448  19480822.51648
  -4411563.86306  21833206.64506  -3403766.41846  21833199.89546
 -17505683.22307  20370911.93407 -13632830.28948  20370908.37548
 08 11 15  1 37 59.9960000  0  8  3  6  7 13 16 19 23 25
 -23154059.66807  18761356.91007 -17799217.43448  18761354.06648
 -13802628.71107  19609336.85607 -10679440.13748  19609334.37148
  -9786827.09006  21345441.45706  -7617841.60248  21345439.39848
 -11493609.09406  21402339.16806  -8928163.30947  21402337.35947
   3353772.95706  21016213.86306   2627243.51247  21016210.71547
 -19356561.78907  19471758.69107 -14652903.65648  19471753.51648
  -4334763.05106  21847821.16806  -3343921.60947  21847816.62147
 -17564047.62507  20359805.41007 -13678309.02348  20359802.12948
 08 11 15  1 38 29.9960000  0  8  3  6  7 13 16 19 23 25
 -23138558.51207  18764306.57407 -17787138.59448  18764303.68048
 -13763754.74607  19616733.83207 -10649148.73048  19616731.67248
  -9879507.11306  21327805.95706  -7690059.82447  21327801.36347
 -11450745.17206  21410496.33206  -8894762.84046  21410492.05546
   3404508.41006  21025868.97306   2666777.59048  21025866.16448
 -19403701.08607  19462788.04307 -14689635.57049  19462783.14149
  -4257648.04705  21862493.62105  -3283832.03946  21862491.81646
 -17621942.06607  20348788.57407 -13723421.59448  20348785.23148
 08 11 15  1 38 59.9960000  0  8  3  6  7 13 16 19 23 25
 -23122557.27007  18767351.77007 -17774670.09848  18767348.19948
 -13724499.62107  19624204.20707 -10618560.32448  19624201.02348
  -9971850.73006  21310232.75406  -7762015.87147  21310228.59447
 -11407337.78105  21418755.49605  -8860938.88746  21418751.99646
   3455444.18407  21035561.41007   2706467.78948  21035558.69148
 -19450324.80507  19453916.36307 -14725965.74648  19453911.54348
  -4180225.94904  21877228.24604  -3223503.14546  21877224.31346
 -17679368.29707  20337860.59007 -13768169.31348  20337857.43448
 08 11 15  1 39 29.9960000  0  8  3  6  7 13 16 19 23 25
 -23106064.65607  18770490.07407 -17761818.71948  18770487.01248
 -13684871.84407  19631744.80107 -10587681.56348  19631741.56348
 -10063861.78507  21292724.23107  -7833712.81347  21292719.48447
 -11363396.12105  21427118.41005  -8826698.68847  21427115.05547
   3506574.04706  21045290.92606   2746309.20348  21045288.03548
 -19496439.47307  19445140.84807 -14761899.23848  19445136.10648
  -4102506.84404  21892016.90204  -3162942.79746  21892013.53946
 -17736330.85907  20327020.30907 -13812555.73448  20327017.59448
 08 11 15  1 39 59.9960000  0  8  3  6  7 13 16 19 23 25
 -23089087.23407  18773721.05907 -17748589.55948  18773717.52348
 -13644878.06607  19639355.77007 -10556517.60548  19639352.45348
 -10155542.71906  21275277.09806  -7905152.47747  21275273.89547
 -11318927.73005  21435579.26205  -8792048.03947  21435578.64547
   3557893.14106  21055056.70706   2786298.09447  21055053.73447
 -19542049.66407  19436461.53507 -14797439.64148  19436456.14848
  -4024498.62103  21906861.06603  -3102157.18445  21906858.01245
 -17792832.55507  20316268.79307 -13856583.03548  20316265.95348
 08 11 15  1 40 29.9960000  0  9  3  6  7 13 16 19 23 25 27
 -23071627.94107  18777043.25407 -17734984.93848  18777039.95348
 -13604522.25007  19647034.69107 -10525071.52048  19647032.11348
 -10246892.73406  21257894.30106  -7976334.28947  21257890.53547
 -11273936.85205  21444141.71505  -8756990.29347  21444138.75047
   3609399.29706  21064858.41006   2826432.73847  21064855.00847
 -19587157.53907  19427877.59807 -14832588.62548  19427872.59848
  -3946206.59402  21921759.79302  -3041150.52346  21921756.50446
 -17848873.53107  20305604.49607 -13900251.36348  20305601.52748
   -130179.30116  22735296.20706    -94178.83657  22735292.54747
 08 11 15  1 40 59.9960000  0  9  3  6  7 13 16 19 23 25 27
 -23053689.95307  18780456.70707 -17721007.30948  18780454.39148
 -13563807.02707  19654782.53507 -10493345.35248  19654779.85948
 -10337910.12906  21240573.77706  -8047256.87147  21240570.76247
 -11228427.18806  21452803.06606  -8721528.21547  21452798.41447
   3661091.66006  21074695.41806   2866712.49647  21074691.05947
 -19631763.96107  19419389.09007 -14867346.85948  19419384.05548
  -3867635.30504  21936711.68404  -2979926.17246  21936707.59446
 -17904452.82007  20295028.39507 -13943559.90648  20295024.80948
   -225433.27006  22717169.96506   -168402.73847  22717167.19547
 08 11 15  1 41 29.9960000  0  9  3  6  7 13 16 19 23 25 27
 -23035279.97307  18783959.98107 -17706661.87948  18783957.67248
 -13522739.64507  19662597.71507 -10461344.79348  19662595.09048
 -10428597.45707  21223317.17607  -8117922.36747  21223313.69547
 -11182406.55505  21461558.97305  -8685668.05947  21461557.40247
   3712964.83206  21084566.59006   2907133.12147  21084562.83647
 -19675874.02007  19410995.41007 -14901718.33248  19410989.77748
  -3788793.50805  21951715.77005  -2918491.09046  21951710.84446
 -17959573.62508  20284539.56608 -13986511.17248  20284535.52048
   -320498.13706  22699079.98806   -242479.25447  22699077.34047
 08 11 15  1 41 59.9960000  0  9  3  6  7 13 16 19 23 25 27
 -23016401.61307  18787552.73107 -17691951.47748  18787550.19148
 -13481323.86307  19670478.77707 -10429072.76248  19670475.32048
 -10518954.44107  21206122.73807  -8188330.35547  21206118.99247
 -11135879.56305  21470413.95705  -8649413.28547  21470410.19947
   3765016.91806  21094471.65206   2947693.18847  21094467.53947
 -19719489.67207  19402696.23807 -14935704.55948  19402690.22748
  -3709686.27005  21966770.03505  -2856849.13746  21966763.42246
 -18014236.04307  20274137.68407 -14029105.25848  20274133.73148
   -415373.69506  22681026.22306   -316408.27347  22681023.46947
 08 11 15  1 42 29.9960000  0  9  3  6  7 13 16 19 23 25 27
 -22997051.35507  18791235.27707 -17676873.37949  18791231.70749
 -13439556.65208  19678426.77008 -10396526.91848  19678423.28548
 -10608973.47707  21188993.06607  -8258475.08248  21188989.11748
 -11088843.77306  21479364.18406  -8612762.10247  21479361.30947
   3817252.89806  21104411.35606   2988396.48848  21104408.75448
 -19762605.96907  19394490.92607 -14969301.67648  19394486.10948
  -3630311.92205  21981874.10605  -2794999.05546  21981866.81346
 -18068433.08207  20263824.32407 -14071336.72348  20263820.74248
   -510052.92206  22663008.98806   -390184.28147  22663006.99647
 08 11 15  1 42 59.9960000  0  9  3  6  7 13 16 19 23 25 27
 -22977227.37907  18795007.24607 -17661426.13748  18795003.63348
 -13397436.41407  19686442.16007 -10363705.96948  19686439.00048
 -10698648.35906  21171928.59806  -8328351.63348  21171923.62548
 -11041298.84406  21488411.29306  -8575714.12147  21488408.15647
   3869675.97306  21114388.05906   3029245.59448  21114383.43848
 -19805219.49207  19386381.67607 -15002507.00048  19386376.20348
  -3550669.92206  21997029.85606  -2732940.43847  21997023.17247
 -18122159.52307  20253600.17607 -14113201.47748  20253596.51648
   -604529.94506  22645030.87906   -463802.72347  22645028.89547
 08 11 15  1 43 29.9960000  0  9  3  6  7 13 16 19 23 25 27
 -22956921.56307  18798871.17607 -17645603.42248  18798867.89848
 -13354955.07007  19694526.15207 -10330603.62948  19694522.78148
 -10787966.78107  21154931.77007  -8397950.40248  21154927.63348
 -10993237.23405  21497557.13705  -8538263.55147  21497553.12947
   3922296.22706  21124401.01206   3070248.37947  21124395.78947
 -19847320.14107  19378370.52707 -15035312.69948  19378365.40648
  -3470754.58206  22012237.84006  -2670668.79346  22012231.60946
 -18175403.46107  20243468.05907 -14154690.24648  20243464.46948
   -698792.67606  22627092.91806   -537254.16847  22627089.73447
 08 11 15  1 43 59.9960000  0  9  3  6  7 13 16 19 23 25 27
 -22936141.35207  18802825.39507 -17629411.04748  18802822.07848
 -13312120.35907  19702677.51207 -10297225.94148  19702674.48448
 -10876931.99607  21138002.29307  -8467273.95748  21137997.63748
 -10944667.20306  21506800.30906  -8500416.80547  21506796.60647
   3975107.91406  21134450.27006   3111400.34047  21134446.01247
 -19888914.16007  19370455.29307 -15067723.62548  19370450.37548
  -3390575.06605  22027493.41005  -2608191.30146  22027489.66846
 -18228168.86707  20233427.27007 -14195806.14848  20233424.12948
   -792844.66806  22609195.80106   -610541.43847  22609192.07447
 08 11 15  1 44 29.9960000  0  9  3  6  7 13 16 19 23 25 27
 -22914892.03907  18806869.18407 -17612853.16048  18806866.14548
 -13268937.45707  19710894.48107 -10263576.94548  19710891.50048
 -10965544.43407  21121139.68407  -8536322.59848  21121135.85248
 -10895595.10906  21516137.91006  -8462178.78147  21516134.33647
   4028107.53506  21144535.99606   3152698.70747  21144532.17247
 -19930004.46107  19362635.64507 -15099742.03948  19362630.90248
  -3310137.82405  22042800.38705  -2545512.98046  22042795.99646
 -18280457.20707  20223477.03507 -14236550.32848  20223474.57048
   -886687.19906  22591336.30906   -683665.43047  22591333.86747
 08 11 15  1 44 59.9960000  0  9  3  6  7 13 16 19 23 25 27
 -22893172.57807  18811002.25407 -17595928.92648  18810998.89548
 -13225406.11707  19719178.39507 -10229656.44148  19719175.41848
 -11053799.85207  21104345.04307  -8605093.03548  21104341.41448
 -10846021.53505  21525571.98105  -8423550.06647  21525568.43047
   4081297.15606  21154657.86306   3194145.13747  21154654.87547
 -19970589.29707  19354913.07407 -15131366.58248  19354907.94548
  -3229444.10504  22058156.00404  -2482634.80946  22058152.12546
 -18332264.48807  20213618.41807 -14276919.64548  20213615.06648
   -980315.85206  22573520.82406   -756622.83247  22573516.13347
 08 11 15  1 45 29.9960000  0  9  3  6  7 13 16 19 23 25 27
 -22870986.23007  18815224.17607 -17578640.87548  18815221.04748
 -13181529.61307  19727527.74607 -10195466.96948  19727525.34448
 -11141696.65207  21087618.75407  -8673584.03948  21087614.71948
 -10795950.44106  21535099.34006  -8384533.66047  21535098.08647
   4134675.46506  21164815.31606   3235738.59848  21164812.92648
 -20010670.19507  19347286.14507 -15162598.45749  19347281.03149
  -3148498.52705  22073559.87905  -2419560.43046  22073556.41846
 -18383590.20707  20203851.88707 -14316913.71548  20203847.75848
  -1073729.73806  22555744.16006   -829412.84847  22555740.08247
 08 11 15  1 45 59.9960000  0  9  3  6  7 13 16 19 23 25 27
 -22848343.63707  18819532.88707 -17560997.30948  18819529.48848
 -13137318.65607  19735940.77707 -10161016.87948  19735938.29748
 -11229241.22306  21070959.14506  -8741800.57848  21070955.74248
 -10745393.78104  21544720.52704  -8345138.86346  21544718.30946
   4188233.42206  21175007.35606   3277472.03147  21175004.64547
 -20050256.02007  19339752.77007 -15193444.54749  19339747.71549
  -3067313.15603  22089008.13703  -2356299.17246  22089004.73146
 -18434441.39808  20194175.14508 -14356538.01648  20194171.34048
  -1166935.75805  22538006.89505   -902040.87147  22538004.76247
 08 11 15  1 46 29.9960000  0  9  3  6  7 13 16 19 23 25 27
 -22825249.86707  18823927.62907 -17543002.17248  18823924.86348
 -13092778.71507  19744416.03507 -10126310.44148  19744413.15648
 -11316434.44906  21054367.11306  -8809743.34448  21054363.18848
 -10694357.68005  21554431.98805  -8305370.50047  21554430.10647
   4241967.52706  21185232.70706   3319342.73847  21185229.30547
 -20089350.52007  19332313.55107 -15223907.79749  19332308.65649
  -2985895.46104  22104501.20704  -2292856.82846  22104496.70746
 -18484819.77307  20184588.47307 -14395793.91048  20184585.51648
  -1259935.11706  22520310.88706   -974507.90647  22520307.64847
 08 11 15  1 46 59.9960000  0  9  3  6  7 13 16 19 23 25 27
 -22801707.59007  18828407.55107 -17524657.54348  18828404.30548
 -13047912.59807  19752954.33207 -10091349.83648  19752951.19148
 -11403274.85207  21037841.69907  -8877411.21548  21037838.35948
 -10642845.95306  21564234.68406  -8265231.52047  21564230.97747
   4295876.94106  21195490.91006   3361350.05947  21195486.68847
 -20127954.68407  19324967.66007 -15253988.96549  19324962.71149
  -2904249.53506  22120039.46506  -2229236.63746  22120034.70746
 -18534724.45307  20175092.11307 -14434680.68848  20175088.57848
  -1352726.55106  22502653.16806  -1046812.91447  22502650.27047
 08 11 15  1 47 29.9960000  0  9  3  6  7 13 16 19 23 25 27
 -22777717.13707  18832972.61307 -17505963.70348  18832969.45748
 -13002720.53107  19761554.23107 -10056135.23848  19761551.96148
 -11489758.46107  21021384.59807  -8944801.00848  21021381.33248
 -10590859.68806  21574127.40206  -8224722.74247  21574124.01647
   4349963.06306  21205783.00406   3403495.10547  21205779.17247
 -20166067.36707  19317714.78507 -15283687.15249  19317709.64149
  -2822377.12105  22135617.93405  -2165439.97346  22135615.18846
 -18584151.98007  20165686.17607 -14473195.63748  20165681.64548
  -1445306.29706  22485035.87906  -1118952.97747  22485033.52347
 08 11 15  1 47 59.9960000  0  9  3  6  7 13 16 19 23 25 27
 -22753280.37107  18837622.80107 -17486922.06648  18837620.17248
 -12957204.89107  19770215.54307 -10020668.51648  19770212.84048
 -11575882.69507  21004996.24607  -9011910.79748  21004992.42648
 -10538401.99606  21584110.69106  -8183846.61347  21584106.14847
   4404225.60906  21216108.78506   3445777.58647  21216105.44147
 -20203688.77007  19310555.55107 -15313002.52049  19310550.54749
  -2740281.73404  22151239.42604  -2101469.62146  22151236.74246
 -18633100.91807  20156371.38707 -14511337.66848  20156367.30948
  -1537672.44106  22467458.92606  -1190926.56647  22467457.46147
 08 11 15  1 48 29.9960000  0  9  3  6  7 13 16 19 23 25 27
 -22728397.70307  18842357.62907 -17467532.95748  18842355.41048
 -12911365.98007  19778938.61307  -9984949.89148  19778935.14548
 -11661643.59807  20988676.51207  -9078737.47348  20988673.09848
 -10485474.62906  21594181.82406  -8142604.52347  21594177.39547
   4458665.77006  21226468.59006   3488198.45348  21226465.65648
 -20240817.57407  19303490.39507 -15341934.04749  19303485.02349
  -2657965.25804  22166905.33204  -2037326.91445  22166900.20745
 -18681568.21107  20147147.99607 -14549104.37548  20147144.67248
  -1629821.20706  22449923.92606  -1262730.79347  22449922.04347
 08 11 15  1 48 59.9960000  0  9  3  6  7 13 16 19 23 25 27
 -22703068.98407  18847177.51207 -17447796.28948  18847174.69948
 -12865204.21507  19787722.55907  -9948979.69548  19787719.32848
 -11747037.21107  20972426.40207  -9145277.91848  20972422.94548
 -10432078.59005  21604341.96505  -8100997.34446  21604339.21546
   4513285.17206  21236862.44906   3530758.97347  21236859.77747
 -20277452.64507  19296518.87907 -15370480.85249  19296513.60949
  -2575430.05105  22182611.41805  -1973013.75446  22182604.65646
 -18729550.39507  20138017.69907 -14586493.12948  20138014.61748
  -1721749.06606  22432430.84006  -1334362.90247  22432427.85647
 08 11 15  1 49 29.9960000  0  9  3  6  7 13 16 19 23 25 27
 -22677296.25807  18852082.32407 -17427713.65248  18852079.52048
 -12818721.66407  19796568.14507  -9912759.55548  19796564.61748
 -11832061.09407  20956247.12107  -9211530.29348  20956243.24248
 -10378217.16006  21614591.34806  -8059027.34047  21614587.90647
   4568084.14106  21247290.29306   3573459.45347  21247287.59047
 -20313594.32807  19289641.37907 -15398643.21149  19289635.69149
  -2492679.55903  22198357.79303  -1908532.91846  22198353.68846
 -18777045.94507  20128979.44107 -14623502.62948  20128975.88348
  -1813453.69906  22414980.45706  -1405821.04347  22414977.93447
 08 11 15  1 49 59.9960000  0  9  3  6  7 13 16 19 23 25 27
 -22651085.28507  18857069.89507 -17407289.51648  18857067.09448
 -12771923.85907  19805472.92607  -9876293.74248  19805470.27048
 -11916716.30507  20940137.61307  -9277495.37948  20940133.91848
 -10323896.44104  21624929.05904  -8016699.56347  21624926.75047
   4623058.16006  21257751.48106   3616296.35247  21257748.47347
 -20349246.64507  19282856.91007 -15426424.23449  19282851.32449
  -2409720.38703  22214144.17603  -1843889.50045  22214140.65645
 -18824056.69507  20120033.30107 -14660134.38748  20120030.16848
  -1904936.73406  22397570.55906  -1477106.50047  22397568.32847
 08 11 15  1 50 29.9960000  0  9  3  6  7 13 16 19 23 25 27
 -22624432.93407  18862141.80107 -17386521.44548  18862138.96948
 -12724807.91007  19814439.05907  -9839580.00848  19814436.64548
 -12000995.27707  20924100.05907  -9343167.32848  20924095.84048
 -10269114.95705  21635352.98805  -7974012.75047  21635350.94147
   4678212.28906  21268246.94906   3659273.58247  21268243.91047
 -20384404.90207  19276166.48107 -15453820.28549  19276160.79349
  -2326551.42604  22229975.79304  -1779082.56645  22229967.74645
 -18870576.12107  20111181.20707 -14696383.29748  20111177.92248
  -1996191.04706  22380206.19906  -1548213.78547  22380203.53947
 08 11 15  1 50 59.9960000  0  9  3  6  7 13 16 19 23 25 27
 -22597342.48407  18867297.16807 -17365411.99648  18867293.45748
 -12677377.34407  19823464.44907  -9802621.12948  19823462.73148
 -12084897.44507  20908134.09807  -9408545.65248  20908129.27748
 -10213877.26205  21645865.59005  -7930970.38347  21645862.73147
   4733544.97306  21278776.71506   3702389.91447  21278773.38347
 -20419071.40607  19269569.69907 -15480833.15249  19269563.94949
  -2243177.68401  22245838.44101         0.00000         0.00000
 -18916604.37907  20102422.58207 -14732249.46548  20102418.68848
  -2087216.09805  22362884.67605  -1619142.37547  22362881.79347
 08 11 15  1 51 29.9960000  0  9  3  6  7 13 16 19 23 25 27
 -22569819.91407  18872534.40207 -17343965.84448  18872530.85648
 -12629638.03507  19832548.85607  -9765421.68048  19832546.14148
 -12168424.14507  20892239.20707  -9473631.38748  20892235.03948
 -10158190.42606  21656461.71506  -7887578.07047  21656461.12947
   4789052.03906  21289339.05906   3745642.12547  21289335.67247
 -20453250.25007  19263065.67607 -15507465.99649  19263059.74649
  -2159606.61701  22261741.49601         0.00000         0.00000
 -18962143.81307  20093756.44107 -14767734.73848  20093753.48848
  -2178013.68806  22345606.09806  -1689893.70347  22345603.50847
 08 11 15  1 51 59.9960000  0  9  3  6  7 13 16 19 23 25 27
 -22541873.67607  18877852.11307 -17322189.56348  18877848.91448
 -12581598.68007  19841691.55107  -9727988.44148  19841688.26648
 -12251579.61307  20876415.05107  -9538427.83248  20876411.65648
 -10102064.03906  21667142.16806  -7843843.23846  21667139.97746
   4844726.80507  21299933.87907   3789025.02347  21299930.07447
 -20486948.18007  19256652.89507 -15533724.11348  19256647.41848
  -2075848.29711  22277684.87101         0.00000         0.00000
 -19007199.20707  20085183.04307 -14802842.83648  20085179.91048
  -2268588.10906  22328370.77006  -1760471.18047  22328368.46547
 08 11 15  1 52 29.9960000  0  9  3  6  7 13 16 19 23 25 27
 -22513507.88707  18883249.77707 -17300086.34848  18883247.02048
 -12533263.75407  19850889.11307  -9690324.87148  19850886.13748
 -12334363.76207  20860662.05107  -9602934.93848  20860658.22748
 -10045503.30905  21677904.99605  -7799769.95346  21677901.27046
   4900566.73807  21310560.53507   3832536.66847  21310555.74247
 -20520168.57007  19250331.44907 -15559610.13349  19250326.37549
  -1991908.94101  22293654.73101         0.00000         0.00000
 -19051771.57807  20076701.12907 -14837574.56348  20076697.55148
  -2358939.84006  22311176.84806  -1830875.10547  22311175.19547
 08 11 15  1 52 59.9960000  0  9  3  6  7 13 16 19 23 25 27
 -22484728.13707  18888726.71507 -17277660.57848  18888723.48448
 -12484638.52007  19860141.91807  -9652435.06648  19860138.75048
 -12416777.39807  20844979.34807  -9667153.35248  20844975.14148
  -9988514.97305  21688750.42605  -7755363.52046  21688748.80146
   4956568.36706  21321217.19906   3876174.29747  21321212.43447
 -20552914.84007  19244099.86307 -15585126.69949  19244095.34449
  -1907794.78911  22309657.86301         0.00000         0.00000
 -19095862.58207  20068310.85607 -14871931.18848  20068306.84048
  -2449070.12106  22294025.75406  -1901106.51247  22294024.25847
 08 11 15  1 53 29.9960000  0  9  3  6  7 13 16 19 23 25 27
 -22455538.15207  18894281.70707 -17254915.14848  18894278.23148
 -12435727.31307  19869449.65207  -9614322.47348  19869445.96148
 -12498820.83607  20829366.94107  -9731083.28148  20829362.63348
  -9931104.31605  21699675.03505  -7710627.98446  21699671.53546
   5012729.30106  21331903.17606   3919936.04347  21331899.87147
 -20585189.69907  19237958.62907 -15610275.93849  19237952.86349
  -1823511.88301  22325717.72301         0.00000         0.00000
 -19139473.26207  20060012.04307 -14905913.55948  20060008.53548
  -2538979.17605  22276916.33205  -1971165.50847  22276913.78147
 08 11 15  1 53 59.9960000  0  9  3  6  7 13 16 19 23 25 27
 -22425937.25407  18899914.44107 -17231849.52048  18899910.46948
 -12386529.43007  19878811.92607  -9575986.46548  19878808.74648
 -12580488.60207  20813826.06607  -9794720.51648  20813821.22348
  -9873271.69505  21710680.31605  -7665563.60946  21710676.69546
   5069051.77305  21342620.62905   3963823.60247  21342618.18847
 -20616991.33607  19231906.47307 -15635056.44549  19231900.69149
  -1739061.39102  22341767.15202         0.00000         0.00000
 -19182599.21507  20051805.70707 -14939518.19548  20051802.01248
  -2628662.02306  22259850.28506  -2041048.25047  22259847.98447
 08 11 15  1 54 29.9960000  0  9  3  6  7 13 16 19 23 25 27
 -22395924.84007  18905625.51207 -17208463.24248  18905622.11748
 -12337044.17607  19888228.02007  -9537426.53148  19888225.01248
 -12661775.28506  20798357.73106  -9858060.79748  20798353.23848
  -9815017.83205  21721766.34805  -7620171.07046  21721762.66846
   5125538.44506  21353370.54306   4007839.13747  21353366.78947
 -20648317.41807  19225945.48807 -15659466.36349  19225940.19549
  -1654443.69102  22357870.42602  -1692155.44555  22357866.72745
 -19225236.16807  20043691.80107 -14972741.78948  20043688.44948
  -2718114.02306  22242828.04306  -2110751.10547  22242825.86347
 08 11 15  1 54 59.9960000  0  9  3  6  7 13 16 19 23 25 27
 -22365504.34407  18911414.18407 -17184758.96148  18911410.82048
 -12287274.53507  19897699.05107  -9498645.02048  19897696.33648
 -12742680.12907  20782962.11307  -9921103.54748  20782958.19548
  -9756346.94104  21732929.94904  -7574453.52046  21732927.21546
   5182188.19906  21364150.77006   4051981.77347  21364146.32447
 -20679169.54307  19220074.86307 -15683506.98449  19220068.87149
  -1569663.19501  22374002.41001  -1626092.78945  22374000.56645
 -19267383.83207  20035671.27707 -15005584.12148  20035667.84448
  -2807334.14805  22225849.73805  -2180273.27047  22225848.24647
 08 11 15  1 55 29.9960000  0  9  3  6  7 13 16 19 23 25 27
 -22334669.70707  18917281.68407 -17160731.98848  18917279.04748
 -12237215.48407  19907225.13707  -9459637.95348  19907222.30948
 -12823193.21107  20767641.45707  -9983840.98448  20767635.91848
  -9697254.81604  21744175.74604  -7528407.70346  21744172.39146
   5239008.13306  21374963.69906   4096257.00847  21374958.77347
 -20709541.02007  19214294.86307 -15707173.06649  19214289.88749
  -1484716.49202  22390169.14502  -1559900.71945  22390165.93045
 -19309033.59807  20027745.39507 -15038038.50048  20027741.69148
  -2896312.72706  22208918.14506  -2249607.23047  22208915.00447
 08 11 15  1 55 59.9960000  0  9  3  6  7 13 16 19 23 25 27
 -22303424.92607  18923227.77707 -17136385.42248  18923224.77348
 -12186870.50407  19916805.23807  -9420408.10248  19916802.62948
 -12903313.97307  20752394.43407 -10046272.71548  20752389.74648
  -9637746.00803  21755498.65203  -7482037.31346  21755497.10646
   5295996.36306  21385808.31606   4140663.39547  21385804.08247
 -20739433.97707  19208606.57407 -15730466.28949  19208600.96949
  -1399608.84403  22406365.26203         0.00000         0.00000
 -19350185.57807  20019914.68407 -15070104.97348  20019910.80948
  -2985049.45306  22192031.74606  -2318752.72347  22192029.14847
 08 11 15  1 56 29.9960000  0  9  3  6  7 13 16 19 23 25 27
 -22271779.73807  18929249.38707 -17111726.82848  18929246.61348
 -12136249.58207  19926438.05107  -9380963.23448  19926435.29348
 -12983047.71107  20737222.04307 -10108402.93848  20737217.02748
  -9577831.93403  21766900.02003  -7435351.01646  21766897.64546
   5353145.09406  21396683.03506   4185194.87147  21396678.52347
 -20768856.96507  19203007.65207 -15753393.28549  19203002.54349
  -1314351.49601  22422587.77001         0.00000         0.00000
 -19390846.25807  20012177.35607 -15101788.60548  20012173.30148
  -3073550.21106  22175189.95706  -2387714.33247  22175187.97747
 08 11 15  1 56 59.9960000  0  9  3  6  7 13 16 19 23 25 27
 -22239729.78507  18935348.53507 -17086752.85548  18935345.16448
 -12085348.26607  19936124.19907  -9341299.88348  19936121.52348
 -13062385.63307  20722123.99607 -10170224.67648  20722119.75848
  -9517509.23805  21778379.80105  -7388346.35546  21778377.68446
   5410460.19506  21407589.43406   4229855.98447  21407585.85247
 -20797803.98407  19197499.09007 -15775949.39849  19197495.12149
  -1228941.52001  22438840.18401         0.00000         0.00000
 -19431007.66807  20004534.67607 -15133083.21148  20004531.17648
  -3161806.14805  22158395.21505  -2456485.16447  22158393.65647
 08 11 15  1 57 29.9960000  0  9  3  6  7 13 16 19 23 25 27
 -22207274.85507  18941524.45707 -17061463.30148  18941521.14848
 -12034166.34007  19945863.88707  -9301417.88348  19945861.42648
 -13141322.96107  20707102.86307 -10231734.28948  20707098.84848
  -9456779.02705  21789935.72305  -7341024.04746  21789933.85246
   5467943.68806  21418528.28506   4274648.28947  21418524.48447
 -20826273.69507  19192081.53507 -15798133.59049  19192076.94149
  -1143380.11702  22455122.56602         0.00000         0.00000
 -19470666.37107  19996988.19107 -15163986.12148  19996984.46148
  -3249813.22306  22141648.98806  -2525062.13347  22141646.63747
 08 11 15  1 57 59.9960000  0  9  3  6  7 13 16 19 23 25 27
 -22174417.69507  18947777.08207 -17035860.34048  18947773.53948
 -11982706.87107  19955656.41007  -9261319.63748  19955653.40648
 -13219858.70707  20692157.46507 -10292930.95348  20692153.50048
  -9395645.48005  21801570.09805  -7293387.60946  21801567.61746
   5525594.78506  21429498.95706   4319571.18447  21429495.11347
 -20854267.71107  19186754.25407 -15819947.12549  19186749.05549
  -1057671.81304  22471432.15204         0.00000         0.00000
 -19509821.85908  19989537.01208 -15194496.89548  19989533.10948
  -3337570.21506  22124949.09806  -2593444.22347  22124948.09847
 08 11 15  1 58 29.9960000  0  9  3  6  7 13 16 19 23 25 27
 -22141155.78507  18954106.42607 -17009941.96948  18954103.47748
 -11930967.16007  19965502.02007  -9221003.00848  19965498.57048
 -13297985.59007  20677290.71507 -10353809.06648  20677286.30548
  -9334107.24205  21813281.12905  -7245435.66046  21813277.15246
   5583417.87107  21440503.08207   4364628.10947  21440499.07047
 -20881782.15207  19181518.61307 -15841386.94949  19181513.22349
   -971815.39104  22487769.84004  -1494032.62155  22487763.70345
 -19548468.17207  19982182.05907 -15224610.89848  19982178.55548
  -3425070.36306  22108298.84806  -2661626.16047  22108297.80547
 08 11 15  1 58 59.9960000  0  9  3  6  7 13 16 19 23 25 27
 -22107492.67207  18960512.19907 -16983710.97748  18960509.32848
 -11878950.77707  19975400.40207  -9180470.78148  19975397.33648
 -13375702.98407  20662501.54307 -10414368.07448  20662497.90648
  -9272168.76605  21825067.73805  -7197172.05546  21825063.65246
   5641411.28107  21451538.86307   4409817.76648  21451535.56348
 -20908819.00807  19176373.95707 -15862454.61349  19176367.66049
   -885815.82403  22504134.69903  -1427020.09845  22504129.75045
 -19586605.48007  19974925.45707 -15254328.31348  19974921.26248
  -3512312.95306  22091696.67606  -2729607.37947  22091695.63347
 08 11 15  1 59 29.9960000  0  9  3  6  7 13 16 19 23 25 27
 -22073423.87107  18966995.15207 -16957163.87548  18966992.41848
 -11826653.26207  19985352.35607  -9139719.50848  19985349.80548
 -13453002.03507  20647792.05907 -10474601.10948  20647788.25048
  -9209827.43803  21836929.23103  -7148594.37546  21836926.77746
   5699581.12507  21462608.15207   4455144.88747  21462604.34847
 -20935372.80907  19171320.92607 -15883145.89849  19171315.02749
   -799670.34405  22520528.80105  -1359893.79346  22520523.87946
 -19624226.05507  19967766.17607 -15283643.03948  19967762.67648
  -3599289.58206  22075145.67606  -2797381.36747  22075143.92247
 08 11 15  1 59 59.9960000  0  9  3  6  7 13 16 19 23 25 27
 -22038948.00807  18973555.77707 -16930299.59048  18973553.00048
 -11774073.72707  19995357.74607  -9098748.44948  19995355.19548
 -13529877.39507  20633163.15207 -10534503.97348  20633158.66048
  -9147082.96505  21848871.97305  -7099702.67246  21848867.66046
   5757930.12107  21473711.71507   4500611.60247  21473708.25447
 -20961440.66807  19166360.48107 -15903458.50049  19166354.90249
   -713379.36304  22536947.96504  -1292654.04745  22536943.88345
 -19661325.66007  19960706.55107 -15312551.80548  19960702.83648
  -3685995.17606  22058646.31606  -2864944.18447  22058643.87947
 08 11 15  2  0 29.9960000  0  9  3  6  7 13 16 19 23 25 27
 -22004070.59807  18980192.55107 -16903122.38748  18980189.61748
 -11721217.01607  20005416.19907  -9057561.40648  20005413.41048
 -13606329.59807  20618614.55107 -10594077.07048  20618610.32048
  -9083942.35905  21860885.22305  -7050502.18046  21860881.75046
   5816455.31606  21484847.76206   4546215.64847  21484844.64147
 -20987026.60207  19161491.39507 -15923395.58649  19161486.12549
   -626949.43004  22553394.99604  -1225306.06346  22553391.88346
 -19697905.82807  19953745.57407 -15341055.83248  19953742.46548
  -3772430.30105  22042198.32405  -2932296.24647  22042195.72747
 08 11 15  2  0 59.9960000  0  9  3  6  7 13 16 19 23 25 27
 -21968789.76607  18986906.50407 -16875630.84448  18986903.36348
 -11668081.52307  20015527.99607  -9016157.14148  20015524.43848
 -13682352.58607  20604148.15207 -10653315.78548  20604144.55948
  -9020404.41004  21872975.88704  -7000992.12946  21872972.44146
   5875160.18406  21496019.05906   4591959.65647  21496016.04347
 -21012127.78507  19156714.67607 -15942954.95349  19156709.35249
   -540380.04303  22569868.65203  -1157849.48845  22569866.16445
 -19733961.63707  19946884.57407 -15369151.30948  19946881.64548
  -3858589.24606  22025802.64506  -2999433.05547  22025800.20747
 08 11 15  2  1 29.9960000  0  9  3  6  7 13 16 19 23 25 27
 -21933109.28107  18993696.19107 -16847827.87548  18993693.13748
 -11614670.68407  20025691.59807  -8974538.32448  20025688.53548
 -13757945.80507  20589763.65207 -10712219.56648  20589759.46148
  -8956474.37911  21885139.44901  -6951176.52055  21885139.31345
   5934042.98806  21507224.84006   4637842.32847  21507220.26247
 -21036746.67207  19152029.70707 -15962138.50849  19152024.85249
   -453676.51205  22586369.27705  -1090288.37146  22586365.57046
 -19769493.44107  19940123.31607 -15396838.41448  19940119.59448
  -3944471.49206  22009459.80906  -3066354.23847  22009457.07047
 08 11 15  2  1 59.9960000  0  9  3  6  7 13 16 19 23 25 27
 -21897031.41807  19000561.87907 -16819715.27048  19000558.84048
 -11560987.26607  20035907.07407  -8932707.09048  20035904.41848
 -13833107.42607  20575460.02007 -10770787.09448  20575455.81648
  -8892156.03911  21897381.16001  -6901058.66055  21897380.07845
   5993102.81307  21518463.52707   4683862.91847  21518459.37947
 -21060884.09807  19147436.82407 -15980946.90249  19147431.87949
   -366843.09804  22602892.44104  -1022625.96946  22602888.92646
 -19804500.51207  19933461.54307 -15424116.66448  19933458.32048
  -4030075.63706  21993169.94106  -3133058.75447  21993167.35247
 08 11 15  2  2 29.9960000  0  9  3  6  7 13 16 19 23 25 27
 -21860559.72707  19007501.76207 -16791295.78548  19007499.17648
 -11507034.79707  20046173.86307  -8890666.22348  20046171.30548
 -13907836.46907  20561239.73107 -10829017.50048  20561236.32048
  -8827454.49604  21909694.03504  -6850641.74645  21909689.40645
   6052338.54706  21529735.35606   4730020.58647  21529731.18447
 -21084542.49207  19142934.80907 -15999382.02049  19142929.98149
   -279884.21904  22619439.57404   -954865.85545  22619436.30945
 -19838983.02707  19926899.66007 -15450986.16848  19926896.32448
  -4115400.65206  21976933.32406  -3199545.75447  21976931.30547
 08 11 15  2  2 59.9960000  0  9  3  6  7 13 16 19 23 25 27
 -21823692.80508  19014517.82408 -16762568.32848  19014514.52748
 -11452811.71107  20056492.60607  -8848414.49248  20056489.37548
 -13982127.56307  20547101.84007 -10886906.66448  20547098.61748
  -8762369.60903  21922076.98103  -6799926.27745  21922076.15245
   6111752.73406  21541041.20706   4776317.32447  21541037.90247
 -21107719.53107  19138524.66007 -16017442.04749  19138519.48849
   -192800.60204  22636012.25404   -887008.53545  22636008.54745
 -19872936.67607  19920438.72307 -15477443.55148  19920435.10648
  -4200441.41006  21960750.11306  -3265811.28147  21960748.80947
 08 11 15  2  3 29.9960000  0  9  3  6  7 13 16 19 23 25 27
 -21786437.57807  19021607.36307 -16733538.28148  19021604.23848
 -11398324.85906  20066860.33206  -8805957.23048  20066857.76648
 -14055983.15607  20533047.67607 -10944456.49248  20533044.50848
  -8696909.51603  21934534.27003  -6748918.43446  21934532.94546
   6171340.54306  21552380.62106   4822749.34047  21552376.07447
 -21130421.04707  19134204.67607 -16035131.55149  19134198.50049
   -105600.10905  22652605.55905   -819060.21146  22652602.43846
 -19906364.98407  19914077.68407 -15503491.59048  19914073.00448
  -4285200.67205  21944620.33205  -3331857.44147  21944618.85247
 08 11 15  2  3 59.9960000  0  9  3  6  7 13 16 19 23 25 27
 -21748793.64507  19028770.36307 -16704205.33648  19028767.49248
 -11343573.52007  20077279.52007  -8763293.86348  20077276.88748
 -14129397.75007  20519077.88707 -11001662.68048  20519074.64548
  -8631074.73005  21947064.65205  -6697618.57446  21947060.57446
   6231104.78106  21563753.56606   4869318.85247  21563749.85947
 -21152644.52307  19129975.16007 -16052448.54749  19129969.56649
    -18283.54705  22669221.92605   -751021.36346  22669218.05146
 -19939263.79307  19907817.16007 -15529127.03148  19907812.92648
  -4369673.34806  21928546.80106  -3397680.32848  21928544.72348
 08 11 15  2  4 29.9960000  0  9  3  6  7 13 16 19 23 25 27
 -21710767.18807  19036006.59807 -16674574.31648  19036003.23848
 -11288564.14507  20087747.41807  -8720429.43848  20087744.82848
 -14202374.34007  20505191.12107 -11058527.54748  20505188.05948
  -8564873.11301  21959659.66001  -6646032.92246  21959658.07846
   6291040.47706  21575159.02706   4916021.98847  21575155.43447
 -21174395.56607  19125836.05907 -16069397.39849  19125830.80149
     69141.26205  22685857.64505   -682898.25046  22685853.36746
 -19971636.59407  19901656.13707 -15554352.58648  19901652.96948
  -4453861.81605  21912527.01205  -3463281.74647  21912524.64147
 08 11 15  2  4 59.9960000  0  9  3  6  7 13 16 19 23 25 27
 -21672361.81307  19043314.79307 -16644648.08648  19043312.18048
 -11233300.35207  20098263.88707  -8677366.77748  20098260.83248
 -14274911.55507  20491387.55107 -11115050.04348  20491384.14548
  -8498309.57804  21972328.00404  -6594165.37146  21972324.82846
   6351146.21106  21586596.25406   4962857.59447  21586594.04747
 -21195676.82407  19121786.27007 -16085980.19149  19121781.31349
    156669.08202  22702513.73102   -614694.73845  22702508.92645
 -20003483.83607  19895596.64507 -15579168.64848  19895592.37148
  -4537765.64106  21896559.62106  -3528661.28947  21896558.55547
 08 11 15  2  5 29.9960000  0  9  3  6  7 13 16 19 23 25 27
 -21633575.80107  19050695.46507 -16614425.22348  19050692.19148
 -11177780.00007  20108829.05107  -8634104.18448  20108825.98848
 -14347003.08607  20477669.00407 -11171225.29348  20477665.06648
  -8431383.85504  21985063.08204  -6542015.47746  21985060.63346
   6411425.56606  21598067.00406   5009828.46947  21598064.25847
 -21216484.48807  19117827.09807 -16102193.96149  19117821.78549
    244300.38304  22719188.34804   -546410.73446  22719184.84846
 -20034800.34807  19889637.61307 -15603571.12948  19889633.08248
  -4621378.61706  21880649.80906  -3593814.26647  21880647.13747
 08 11 15  2  5 59.9960000  0  9  3  6  7 13 16 19 23 25 27
 -21594408.06607  19058148.86307 -16583904.93448  19058146.64148
 -11122002.28907  20119443.52707  -8590641.02748  20119440.51648
 -14418644.20307  20464036.07407 -11227049.50848  20464032.32048
  -8364095.87505  21997868.36305  -6489583.30945  21997864.29745
   6471881.28906  21609571.05106   5056936.79747  21609568.76647
 -21236816.97707  19113957.66007 -16118037.46949  19113952.60649
    332034.70704  22735885.34004   -478046.34046  22735880.35646
 -20065582.14807  19883779.71507 -15627556.96548  19883775.75448
  -4704695.75006  21864793.84806  -3658736.70747  21864791.00447
 08 11 15  2  6 29.9960000  0  8  3  6  7 13 16 19 25 27
 -21554860.42207  19065674.77007 -16553088.58648  19065671.89148
 -11065968.87507  20130106.03507  -8546978.63348  20130102.78548
 -14489832.06307  20450489.84807 -11282520.55548  20450486.16848
  -8296449.36704  22010739.02704  -6436871.69545  22010735.89145
   6532513.49206  21621109.44906   5104182.61747  21621105.98447
 -21256675.01607  19110178.83207 -16133511.25449  19110173.71949
 -20095827.94907  19878023.48807 -15651125.11348  19878019.99648
  -4787714.65206  21848996.67606  -3723426.77347  21848993.00447
 08 11 15  2  6 59.9960000  0  8  3  6  7 13 16 19 25 27
 -21514927.81307  19073273.66007 -16521972.28948  19073270.21948
 -11009674.60507  20140819.06607  -8503112.97748  20140816.00048
 -14560557.45707  20437030.84807 -11337631.24648  20437026.62148
  -8228440.05904  22023682.88704  -6383877.52346  22023678.70746
   6593329.01606  21632682.87106   5151571.31347  21632679.31647
 -21276052.28907  19106491.85607 -16148610.44149  19106486.60949
 -20125529.42207  19872371.96507 -15674269.11748  19872367.77348
  -4870426.23006  21833256.77706  -3787877.31647  21833254.26247
 08 11 15  2  7 29.9960000  0  8  3  6  7 13 16 19 25 27
 -21474604.67207  19080946.99607 -16490551.65648  19080943.94148
 -10953113.83607  20151581.78507  -8459039.65648  20151579.07448
 -14630810.66007  20423662.54307 -11392373.97748  20423658.08248
  -8160064.18805  22036695.20705  -6330597.64546  22036689.99646
   6654335.26607  21644291.69907   5199108.65247  21644287.55147
 -21294942.01607  19102897.52007 -16163329.71149  19102891.69949
 -20154678.12507  19866825.37907 -15696982.37948  19866821.32448
  -4952820.73806  21817577.27706  -3852080.78147  21817574.66047
 08 11 15  2  7 59.9960000  0  8  3  6  7 13 16 19 25 27
 -21433890.55107  19088694.80107 -16458826.38748  19088691.29348
 -10896286.15607  20162395.87107  -8414758.35948  20162392.58248
 -14700586.75407  20410384.59807 -11446744.99248  20410381.10648
  -8091322.68005  22049776.09805  -6277032.93046  22049771.71946
   6715534.85906  21655938.07406   5246796.64547  21655933.39847
 -21313342.81307  19099395.31607 -16177668.00049  19099389.34449
 -20183270.41407  19861384.05107 -15719262.09448  19861380.32048
  -5034893.44906  21801960.04306  -3916033.57447  21801956.01247
 08 11 15  2  8 29.9960000  0  8  3  6  7 13 16 19 25 27
 -21392790.06307  19096516.05107 -16426800.03948  19096512.51248
 -10839196.14507  20173259.55907  -8370272.67248  20173256.50048
 -14769886.28507  20397197.22307 -11500744.61348  20397193.56648
  -8022221.33603  22062924.70703  -6223187.76245  22062920.15645
   6776924.38306  21667619.98806   5294632.60547  21667615.62147
 -21331258.34807  19095986.03507 -16191628.14549  19095980.31649
 -20211307.85907  19856048.89507 -15741109.44948  19856045.44548
  -5116644.81306  21786402.73106  -3979735.92247  21786399.46947
 08 11 15  2  8 59.9960000  0  8  3  6  7 13 16 19 25 27
 -21351305.58607  19104410.12107 -16394474.48048  19104406.86748
 -10781845.57007  20184172.69907  -8325583.93448  20184169.99648
 -14838706.74207  20384101.01207 -11554370.95348  20384096.98448
  -7952763.52701  22076141.27701  -6169064.83645  22076138.41845
   6838504.00406  21679338.23806   5342616.69147  21679334.07847
 -21348689.45307  19092669.16807 -16205210.82049  19092663.93449
 -20238789.44107  19850819.14507 -15762523.67248  19850815.74248
  -5198072.58606  21770907.61306  -4043186.12147  21770905.21147
 08 11 15  2  9 29.9960000  0  8  3  6  7 13 16 19 25 27
 -21309443.67207  19112376.09007 -16361854.81348  19112374.01648
 -10724241.30107  20195134.73807  -8280697.49248  20195131.92248
 -14907050.86307  20371095.78507 -11607626.12148  20371091.22748
  -7882957.89802  22089426.55902  -6114670.77745  22089423.16845
   6900268.93006  21691091.73106   5390745.14547  21691087.73447
 -21365641.76207  19089443.27707 -16218420.42249  19089437.10649
 -20265719.02307  19845694.30107 -15783507.77048  19845691.42248
  -5279179.50406  21755473.96506  -4106386.35247  21755470.57447
 08 11 15  2  9 59.9960000  0  8  3  6  7 13 16 19 25 27
 -21267208.89507  19120413.24607 -16328944.59848  19120410.31348
 -10666387.48007  20206143.67607  -8235616.62148  20206141.61348
 -14974918.76207  20358180.92607 -11660510.20748  20358177.23448
  -7812809.88301  22102776.30101         0.00000         0.00000
   6962216.57806  21702879.91006   5439015.98847  21702875.96547
 -21382118.47307  19086308.27007 -16231259.42649  19086302.55949
 -20292097.75807  19840674.78507 -15804062.66048  19840671.07048
  -5359965.91806  21740100.24606  -4169336.77347  21740096.64547
 08 11 15  2 10 29.9960000  0  9  3  6  7 11 13 16 19 25 27
 -21224605.51607  19128520.44107 -16295747.16848  19128517.70348
 -10608288.83607  20217199.88707  -8190344.95748  20217197.46548
 -15042311.10207  20345356.38707 -11713023.73048  20345352.88748
   -206906.60511  22821004.06601         0.00000         0.00000
  -7742325.64101  22116223.82401         0.00000         0.00000
   7024343.76206  21714701.87106   5487426.73447  21714697.37147
 -21398123.63308  19083262.55108 -16243730.96549  19083257.12549
 -20317927.71507  19835759.63707 -15824189.89148  19835755.83648
  -5440432.48406  21724788.27006  -4232038.03947  21724785.11747
 08 11 15  2 10 59.9960000  0  8  3  6  7 11 16 19 25 27
 -21181636.49207  19136697.06607 -16262264.80548  19136694.22348
 -10549947.94107  20228301.71507  -8144884.53548  20228299.22348
 -15109226.25807  20332622.62907 -11765165.41048  20332618.82848
   -324344.46902  22798658.24602         0.00000         0.00000
   7086649.86706  21726558.77706   5535976.92647  21726554.51247
 -21413658.68407  19080306.00407 -16255836.19949  19080300.77049
 -20343208.37507  19830948.99607 -15843889.12148  19830945.51648
  -5520577.78506  21709537.27706  -4294488.92647  21709534.63347
 08 11 15  2 11 29.9960000  0  9  3  6  7 11 13 16 19 25 27
 -21138300.63307  19144943.54307 -16228496.60948  19144940.68048
 -10491363.33207  20239450.22307  -8099234.18048  20239447.45348
 -15175658.56607  20319981.89507 -11816930.85948  20319977.79348
   -441685.60902  22776328.05102         0.00000         0.00000
  -7600368.86712  22143206.12102         0.00000         0.00000
   7149138.03106  21738449.49606   5584668.99247  21738445.44947
 -21428721.48007  19077439.80907 -16267573.43449  19077434.27349
 -20367935.47707  19826243.29307 -15863156.99648  19826240.26248
  -5600396.19906  21694347.86306  -4356685.07447  21694345.19547
 08 11 15  2 11 59.9960000  0  9  3  6  7 11 13 16 19 25 27
 -21094601.19107  19153259.15207 -16194445.10548  19153256.48848
 -10432538.16007  20250643.73107  -8053396.40648  20250641.67648
 -15241607.16407  20307431.61307 -11868319.35248  20307428.41048
   -558929.34801  22754017.05101         0.00000         0.00000
  -7528893.03902  22156805.62102         0.00000         0.00000
   7211806.69106  21750374.84806   5633501.68447  21750371.27347
 -21443314.19907  19074662.76207 -16278944.39549  19074657.41449
 -20392109.53107  19821643.60607 -15881993.94148  19821640.24248
  -5679886.89506  21679221.51206  -4418625.84847  21679218.43847
 08 11 15  2 12 29.9960000  0  9  3  6  7 11 13 16 19 25 27
 -21050530.80107  19161645.49607 -16160104.55148  19161643.26648
 -10373465.29307  20261885.18407  -8007365.62548  20261883.22348
 -15307060.55507  20294976.29307 -11919321.98448  20294972.26248
   -676063.85503  22731728.08203         0.00000         0.00000
  -7457084.49205  22170471.97305         0.00000         0.00000
   7274665.06306  21762336.87106   5682482.18847  21762332.89547
 -21457428.72307  19071976.86307 -16289942.72349  19071971.54349
 -20415720.28907  19817150.73107 -15900391.94548  19817147.09448
  -5759038.20306  21664160.29306  -4480302.20747  21664156.80147
 08 11 15  2 12 59.9960000  0  9  3  6  7 11 13 16 19 25 27
 -21006092.28507  19170102.19907 -16125477.14848  19170099.01648
 -10314146.97707  20273173.52007  -7961143.58648  20273171.37948
 -15372017.45707  20282614.91007 -11969937.75448  20282611.79748
   -793087.91402  22709458.50402         0.00000         0.00000
  -7384946.87501  22184195.91001         0.00000         0.00000
   7337712.15606  21774333.93406   5731609.75447  21774330.95747
 -21471066.59407  19069381.67607 -16300569.62549  19069376.30149
 -20438767.60207  19812764.80907 -15918350.90248  19812761.04748
  -5837849.16406  21649162.05106  -4541713.34447  21649159.85247
 08 11 15  2 13 29.9960000  0  9  3  6  7 11 13 16 19 25 27
 -20961291.49607  19178627.30907 -16090567.46548  19178624.39548
 -10254589.26207  20284507.08207  -7914734.99648  20284504.31648
 -15436479.27707  20270348.15207 -12020167.75448  20270344.99248
   -910002.73804  22687211.33204         0.00000         0.00000
  -7312487.56601  22197984.02701         0.00000         0.00000
   7400944.35506  21786366.14506   5780881.55147  21786363.65247
 -21484232.86707  19066876.23807 -16310829.05949  19066870.60949
 -20461254.35507  19808485.59807 -15935873.04348  19808481.69548
  -5916321.18006  21634229.16806  -4602860.37547  21634226.69147
 08 11 15  2 13 59.9960000  0  9  3  6  7 11 13 16 19 25 27
 -20916122.28507  19187222.63707 -16055370.70348  19187219.71948
 -10194785.70307  20295887.35607  -7868134.82048  20295883.82048
 -15500435.90607  20258178.23807 -12070004.07448  20258174.15248
  -1026798.02703  22664985.44903         0.00000         0.00000
  -7239701.80111  22211841.30901         0.00000         0.00000
   7464369.47306  21798435.87106   5830303.66047  21798433.49247
 -21496920.04307  19064461.75407 -16320715.17249  19064456.33649
 -20483171.59407  19804315.05907 -15952951.41448  19804311.08248
  -5994444.02006  21619363.33206  -4663735.29747  21619360.21147
 08 11 15  2 14 29.9960000  0  8  3  6  7 11 16 19 25 27
 -20870586.66807  19195888.08207 -16019888.42248  19195884.80148
 -10134738.25007  20307313.42607  -7821344.64148  20307309.95748
 -15563885.64107  20246103.84807 -12119445.42648  20246099.45348
  -1143471.29301  22642779.90201         0.00000         0.00000
   7527986.78506  21810541.44906   5879875.55947  21810539.63347
 -21509129.53507  19062138.58207 -16330229.08249  19062132.34049
 -20504518.56307  19800252.45707 -15969585.43448  19800249.53548
  -6072215.44906  21604564.06606  -4724336.40248  21604561.39148
 08 11 15  2 14 59.9960000  0  9  3  6  7 11 13 16 19 25 27
 -20824682.44507  19204623.45707 -15984118.91448  19204619.93448
 -10074444.50007  20318787.20707  -7774362.52048  20318783.39548
 -15626821.37107  20234128.05907 -12168486.25448  20234123.69948
  -1260016.35903  22620603.54303         0.00000         0.00000
  -7093159.22311  22239719.35601         0.00000         0.00000
   7591800.83606  21822685.77006   5929600.77347  21822683.37947
 -21520858.10507  19059907.02707 -16339368.24649  19059901.17249
 -20525290.05107  19796299.74607 -15985771.00848  19796296.84448
  -6149629.10206  21589832.77006  -4784658.73848  21589829.27748
 08 11 15  2 15 29.9960000  0  9  3  6  7 11 13 16 19 25 27
 -20778406.84807  19213429.05907 -15948060.02348  19213426.24248
 -10013901.54707  20330308.38707  -7727186.21148  20330304.54348
 -15689236.56607  20222250.87107 -12217121.46548  20222247.42648
  -1376426.10901  22598448.88701         0.00000         0.00000
  -7019402.14811  22253756.25401         0.00000         0.00000
   7655816.08206  21834867.46506   5979482.78947  21834864.93447
 -21532102.28507  19057766.91007 -16348129.95349  19057761.59449
 -20545480.77307  19792457.52707 -16001504.03548  19792454.41448
  -6226678.43406  21575170.12906  -4844697.14848  21575167.23848
 08 11 15  2 15 59.9960000  0  9  3  6  7 11 13 16 19 25 27
 -20731760.02707  19222305.58207 -15911711.85948  19222302.93048
  -9953109.37907  20341876.57407  -7679815.71548  20341873.72348
 -15751126.73807  20210473.57407 -12265347.56348  20210470.02348
  -1492696.23004  22576326.45704         0.00000         0.00000
  -6945321.88303  22267852.59003         0.00000         0.00000
   7720034.30506  21847087.32406   6029522.96147  21847084.77047
 -21542861.10907  19055719.47307 -16356513.46549  19055714.13749
 -20565087.89807  19788726.29307 -16016782.32048  19788723.63748
  -6303359.26206  21560578.36306  -4904448.44947  21560575.58647
 08 11 15  2 16 29.9960000  0  9  3  6  7 11 13 16 19 25 27
 -20684741.73007  19231252.37107 -15875074.23048  19231250.12148
  -9892067.28107  20353492.59007  -7632250.47348  20353490.39548
 -15812487.84807  20198796.91807 -12313161.42248  20198792.82048
  -1608822.16803  22554227.21503    -59253.16055  22554226.00045
  -6870919.14503  22282009.77003         0.00000         0.00000
   7784457.89806  21859346.74606   6079723.14547  21859344.03147
 -21553133.09407  19053764.85607 -16364517.60949  19053760.08649
 -20584108.16407  19785106.84007 -16031603.32048  19785104.09848
  -6379666.73806  21546057.99606  -4963908.80547  21546054.69947
 08 11 15  2 16 59.9960000  0  9  3  6  7 11 13 16 19 25 27
 -20637357.52707  19240269.56607 -15838151.48448  19240267.31348
  -9830781.10507  20365155.28507  -7584495.02348  20365152.70748
 -15873321.66807  20187220.44107 -12360564.39548  20187216.74248
  -1724805.56304  22532157.56604   -149629.84445  22532155.89145
  -6796201.68402  22296229.05102         0.00000         0.00000
   7849082.59406  21871644.86306   6130080.03947  21871641.82047
 -21562923.64807  19051901.91807 -16372146.62149  19051896.52349
 -20602544.89507  19781598.76207 -16045969.60548  19781595.93848
  -6455602.80106  21531607.32406  -5023079.76648  21531604.75448
 08 11 15  2 17 29.9960000  0  9  3  6  7 11 13 16 19 25 27
 -20589606.11307  19249356.59807 -15800942.59848  19249354.21148
  -9769249.06607  20376863.97307  -7536547.98448  20376862.34848
 -15933622.41007  20175745.59007 -12407551.98448  20175741.67248
  -1840640.39503  22510114.41003         0.00000         0.00000
  -6721169.09804  22310508.57404         0.00000         0.00000
   7913911.61306  21883981.61306   6180596.10247  21883978.28147
 -21572230.11707  19050130.98807 -16379398.41049  19050125.12149
 -20620393.73407  19778202.19907 -16059877.78548  19778199.27748
  -6531162.01206  21517229.16806  -5081957.07847  21517226.32847
 08 11 15  2 17 59.9960000  0  9  3  6  7 11 13 16 19 25 27
 -20541486.16407  19258513.65207 -15763446.53948  19258510.66848
  -9707469.89107  20388620.09807  -7488408.37948  20388618.65248
 -15993384.88307  20164372.92607 -12454120.15248  20164369.46148
  -1956320.99203  22488101.34003         0.00000         0.00000
  -6645821.58603  22324845.98803         0.00000         0.00000
   7978948.48806  21896357.49606   6231274.12147  21896354.66447
 -21581050.30107  19048452.69107 -16386271.27049  19048446.23849
 -20637650.65607  19774918.82407 -16073324.75448  19774915.69948
  -6606338.75006  21502923.34806  -5140536.32847  21502920.64847
 08 11 15  2 18 29.9960000  0  9  3  6  7 11 13 16 19 25 27
 -20493001.13307  19267739.87107 -15725666.00048  19267736.16848
  -9645446.60507  20400422.53507  -7440078.55148  20400420.78148
 -16052608.40207  20153103.38707 -12500268.36748  20153099.69948
  -2071846.79302  22466118.12102         0.00000         0.00000
  -6570164.14105  22339242.94905  -6014318.77355  22339243.44145
   8044191.20706  21908773.27006   6282112.56647  21908770.19947
 -21589386.69507  19046866.44107 -16392767.16849  19046860.40649
 -20654316.39508  19771747.67608 -16086311.05949  19771743.70749
  -6681132.36306  21488690.37906  -5198817.04747  21488687.70747
 08 11 15  2 18 59.9960000  0  9  3  6  7 11 13 16 19 25 27
 -20444150.01607  19277036.17607 -15687600.21148  19277032.56648
  -9583178.41007  20412272.05107  -7391557.90248  20412269.96948
 -16111288.03507  20141936.61307 -12545992.73848  20141932.96948
  -2187212.50001  22444163.62101         0.00000         0.00000
  -6494197.75404  22353700.10604  -5955124.24245  22353698.78945
   8109642.64506  21921227.47306   6333113.65647  21921225.14147
 -21597238.14107  19045372.21507 -16398885.17249  19045366.94549
 -20670387.71108  19768689.23808 -16098834.14848  19768685.32048
  -6755537.96906  21474531.47306  -5256795.42647  21474529.02347
 08 11 15  2 19 29.9960000  0  9  3  6  7 11 13 16 19 25 27
 -20394940.02007  19286401.07407 -15649254.80148  19286397.26648
  -9520671.88707  20424166.80907  -7342851.54748  20424163.83648
 -16169426.68807  20130873.65207 -12591295.60548  20130869.69548
  -2302420.85901  22422239.63701         0.00000         0.00000
  -6417930.38311  22368210.65201         0.00000         0.00000
   8175297.60506  21933721.50406   6384273.34447  21933717.98147
 -21604610.40607  19043969.13707 -16404629.78949  19043964.14549
 -20685868.68407  19765743.06607 -16110897.26648  19765739.20748
  -6829558.25806  21460446.46506  -5314473.56348  21460443.27748
 08 11 15  2 19 59.9960000  0  8  3  6  7 13 16 19 25 27
 -20345371.91807  19295833.30107 -15610630.31348  19295829.58248
  -9457927.58607  20436106.86307  -7293959.88748  20436103.13348
 -16227021.10207  20119913.91807 -12636174.35948  20119909.77048
     20043.47712  22382831.92602         0.00000         0.00000
   8241157.16006  21946253.75406   6435592.48846  21946250.78546
 -21611503.39507  19042657.50407 -16410000.96149  19042652.38349
 -20700757.46507  19762909.99607 -16122498.93848  19762906.49648
  -6903190.02306  21446434.13706  -5371848.93847  21446430.23147
 08 11 15  2 20 29.9960000  0  9  3  6  7 11 13 16 19 25 27
 -20295448.33607  19305333.05107 -15571728.82448  19305329.71948
  -9394948.40607  20448091.69907  -7244885.21148  20448087.44948
 -16284070.05907  20109057.35607 -12680628.08648  20109054.01648
    -79174.65611  22378491.58201         0.00000         0.00000
     96903.98411  22397413.08201         0.00000         0.00000
   8307220.14506  21958825.34806   6487070.15246  21958821.98446
 -21617919.22307  19041437.04307 -16415000.32449  19041431.30949
 -20715054.29307  19760189.10607 -16133639.32848  19760185.29748
  -6976432.05906  21432497.52706  -5428920.68447  21432494.50447
 08 11 15  2 20 59.9960000  0  7  3  6  7 16 19 25 27
 -20245171.21507  19314900.41807 -15532551.84048  19314897.53548
  -9331735.85907  20460120.31607  -7195628.68448  20460116.59848
 -16340571.61707  20098305.48107 -12724655.28548  20098302.16048
   8373486.80906  21971435.77006   6538706.51246  21971432.25046
 -21623858.82807  19040306.85607 -16419628.60949  19040300.93049
 -20728758.65607  19757581.22307 -16144318.06348  19757578.05148
  -7049282.21506  21418634.00406  -5485686.99647  21418630.77747
 08 11 15  2 21 29.9960000  0  7  3  6  7 16 19 25 27
 -20194542.11707  19324534.75407 -15493100.60948  19324532.10948
  -9268291.46107  20472193.28507  -7146191.49248  20472189.43448
 -16396523.60507  20087657.97307 -12768254.23448  20087654.12548
   8439957.17206  21984084.36306   6590501.53946  21984080.45746
 -21629323.44108  19039266.55108 -16423886.75449  19039260.89849
 -20741869.68007  19755086.15207 -16154534.44148  19755082.39848
  -7121738.00806  21404846.30906  -5542146.08248  21404842.54348
 08 11 15  2 21 59.9960000  0  7  3  6  7 16 19 25 27
 -20143563.52007  19334235.80107 -15453377.02748  19334233.24248
  -9204616.96907  20484310.20707  -7096575.01248  20484306.85648
 -16451923.64107  20077115.94907 -12811423.08248  20077112.48848
   8506630.85505  21996772.00405   6642455.07447  21996769.04747
 -21634314.07007  19038316.77007 -16427775.52749  19038311.61349
 -20754386.59007  19752703.93407 -16164287.89848  19752701.44548
  -7193797.27306  21391134.09006  -5598296.18048  21391130.73448
 08 11 15  2 22 29.9960000  0  9  3  6  7 11 13 16 19 25 27
 -20092237.53907  19344002.57407 -15413382.78548  19344000.16448
  -9140714.50407  20496470.45707  -7046780.91448  20496467.22748
 -16506770.22707  20066678.69907 -12854160.68448  20066675.57448
   -288228.07413  22291358.77003         0.00000         0.00000
         0.00000  22456459.77701         0.00000         0.00000
   8573507.32006  22009499.18406   6694566.56647  22009494.99647
 -21638832.27307  19037457.09807 -16431296.20749  19037451.53549
 -20766309.46907  19750435.69907 -16173578.46548  19750432.55148
  -7265458.52006  21377496.43406  -5654136.08247  21377494.98447
 08 11 15  2 22 59.9960000  0  8  3  6  7 11 16 19 25 27
 -20040563.65207  19353836.05107 -15373117.43848  19353832.87148
  -9076583.45707  20508674.02007  -6996808.69148  20508670.87148
 -16561059.19507  20056348.55107 -12896463.77348  20056343.63348
         0.00000  22269657.09001         0.00000  22269654.59040
   8640588.75406  22022263.70706   6746837.71947  22022260.07847
 -21642877.03107  19036687.19907 -16434447.96549  19036681.96149
 -20777635.34807  19748280.04307 -16182403.81648  19748276.96948
  -7336716.92206  21363936.89506  -5709662.12148  21363933.44148
 08 11 15  2 23 29.9960000  0  8  3  6  7 11 16 19 25 27
 -19988545.65607  19363735.07407 -15332583.94948  19363731.57848
  -9012227.56607  20520920.44107  -6946661.25448  20520917.05148
 -16614790.55907  20046123.37907 -12938332.36348  20046120.07048
   -516120.47712  22247990.48802         0.00000         0.00000
   8707872.90206  22035067.72306   6799266.84447  22035064.12947
 -21646451.64807  19036006.88707 -16437233.38349  19036001.66449
 -20788365.60907  19746238.22307 -16190765.06648  19746236.00848
  -7407572.50806  21350453.53506  -5764874.24247  21350449.85647
 08 11 15  2 23 59.9960000  0  8  3  6  7 11 16 19 25 27
 -19936188.29707  19373698.13707 -15291786.00448  19373695.19548
  -8947651.24607  20533208.87907  -6896342.06648  20533205.70348
 -16667964.98807  20036004.27707 -12979766.99648  20036001.76248
   -629801.60902  22226357.90202         0.00000         0.00000
   8775357.21506  22047910.30906   6851851.96947  22047906.15247
 -21649559.80907  19035415.92607 -16439655.34049  19035410.35949
 -20798502.59007  19744309.41007 -16198664.02048  19744306.17248
  -7478025.78106  21337047.35606  -5819772.88748  21337043.36748
 08 11 15  2 24 29.9960000  0  8  3  6  7 11 16 19 25 27
 -19883490.37507  19383726.38707 -15250722.70748  19383723.79348
  -8882852.68006  20545539.12906  -6845849.69148  20545536.46948
 -16720576.84406  20025992.38706 -13020763.27048  20025988.99648
   -743300.31302  22204759.39502         0.00000         0.00000
   8843044.93407  22060790.33207   6904595.61347  22060786.66047
 -21652199.55507  19034913.15207 -16441712.29349  19034907.91449
 -20808042.26607  19742493.94907 -16206097.52348  19742490.67248
  -7548071.23406  21323717.47306  -5874353.75447  21323714.77347
 08 11 15  2 24 59.9960000  0 10  3  6  7  8 11 13 16 19 25 27
 -19830455.05507  19393818.74607 -15209396.49648  19393815.88348
  -8817834.97706  20557911.95706  -6795186.55548  20557909.19148
 -16772625.65207  20016087.94907 -13061320.77748  20016084.15648
   -208423.08615  22981609.33205   -154581.82056  22981606.46146
   -856615.77703  22183196.37903         0.00000         0.00000
     44483.36311  22531455.92601         0.00000         0.00000
   8910934.54307  22073709.55907   6957496.58247  22073706.05947
 -21654373.03907  19034499.45707 -16443405.91049  19034494.32049
 -20816985.48407  19740792.59007 -16213066.26648  19740789.64848
  -7617708.05506  21310466.01206  -5928616.23847  21310463.69947
 08 11 15  2 25 29.9960000  0 10  3  6  7  8 11 13 16 19 25 27
 -19777086.42607  19403974.19907 -15167810.57048  19403971.66448
  -8752601.82406  20570325.31606  -6744355.55548  20570322.70348
 -16824111.61707  20006291.11307 -13101439.72348  20006287.24648
   -318558.63305  22960651.27705   -240401.71546  22960648.04346
   -969747.43404  22161667.22304         0.00000         0.00000
    124094.60903  22546607.29303         0.00000         0.00000
   8979023.74606  22086666.86306   7010553.07847  22086662.85947
 -21656083.68007  19034174.01207 -16444738.89149  19034168.62949
 -20825333.96107  19739203.83207 -16219571.60548  19739200.41448
  -7686936.32006  21297291.67606  -5982560.28147  21297288.75847
 08 11 15  2 25 59.9960000  0  9  3  6  7  8 11 16 19 25 27
 -19723392.19107  19414191.68407 -15125970.91448  19414189.13748
  -8687161.11707  20582778.35607  -6693362.80548  20582776.25848
 -16875039.11307  19996600.19907 -13141123.46148  19996596.65648
   -428477.35206  22939734.82406   -326052.61746  22939731.09446
  -1082699.20702  22140172.85602         0.00000         0.00000
   9047306.33206  22099660.63706   7063760.26247  22099656.65247
 -21657339.00808  19033935.66808 -16445717.05149  19033930.52049
 -20833093.39107  19737727.37907 -16225617.89848  19737723.50848
  -7755759.84006  21284194.98106  -6036189.02747  21284191.85647
 08 11 15  2 26 29.9960000  0 10  3  6  7  8 11 13 16 19 25 27
 -19669364.51207  19424473.33207 -15083871.42248  19424469.90648
  -8621504.87907  20595272.19107  -6642202.13748  20595270.62548
 -16925396.57807  19987017.46507 -13180363.03548  19987013.71148
   -538167.45706  22918861.66006   -411525.39546  22918858.49246
  -1195459.13302  22118715.02002         0.00000         0.00000
    284065.87911  22577047.47301         0.00000         0.00000
   9115791.59806  22112692.44906   7117125.39547  22112689.24247
 -21658130.85508  19033784.74608 -16446334.09049  19033778.48849
 -20840253.78907  19736364.36307 -16231197.43448  19736361.10948
  -7824167.11306  21271177.53506  -6089493.43047  21271175.50447
 08 11 15  2 26 59.9960000  0 10  3  6  7  8 11 13 16 19 25 27
 -19615011.09007  19434816.37907 -15041518.11748  19434813.41448
  -8555640.33206  20607806.19106  -6590879.14548  20607803.94148
 -16975187.57407  19977542.63707 -13219161.20348  19977539.42248
   -647631.25806  22898032.16006   -496821.85947  22898028.37147
  -1308030.73001  22097294.48801         0.00000         0.00000
    364423.31301  22592339.80101         0.00000         0.00000
   9184473.84406  22125762.35606   7170643.98847  22125759.74647
 -21658465.96108  19033720.78508 -16446595.19949  19033715.50849
 -20846820.24207  19735114.67607 -16236314.18048  19735111.13748
  -7892161.87106  21258238.43406  -6142476.30947  21258236.56347
 08 11 15  2 27 29.9960000  0  9  3  6  7  8 13 16 19 25 27
 -19560339.22307  19445219.81607 -14998916.68048  19445216.68848
  -8489574.69107  20620377.94907  -6539399.46148  20620375.82048
 -17024415.86307  19968174.14507 -13257520.89848  19968170.95348
   -756871.68006  22877243.62106   -581944.23846  22877240.84446
    445016.80901  22607676.68401         0.00000         0.00000
   9253347.74206  22138868.93406   7224311.94146  22138865.08246
 -21658350.96108  19033742.62908 -16446505.59049  19033737.38349
 -20852797.96107  19733977.73107 -16240972.14548  19733973.80548
  -7959747.07406  21245378.74606  -6195140.12548  21245375.21948
 08 11 15  2 27 59.9960000  0 10  3  6  7  8 11 13 16 19 25 27
 -19505352.28907  19455683.63707 -14956069.73448  19455680.31348
  -8423310.63707  20632987.82407  -6487765.16048  20632984.99248
 -17073080.50007  19958913.87107 -13295441.37548  19958911.09848
   -865887.22706  22856498.52006   -666891.38346  22856496.04746
    -18029.28112  22054557.16002         0.00000         0.00000
    525841.43801  22623057.35601         0.00000         0.00000
   9322411.70706  22152010.88706   7278127.96946  22152008.47346
 -21657788.07008  19033849.24608 -16446066.98049  19033844.42249
 -20858187.72707  19732952.20707 -16245171.98448  19732948.34048
  -8026921.71506  21232595.37906  -6247483.94948  21232592.44548
 08 11 15  2 28 29.9960000  0 10  3  6  7  8 11 13 16 19 25 27
 -19450063.77307  19466204.62907 -14912987.80148  19466201.31348
  -8356861.45307  20645632.91807  -6435986.61748  20645630.54348
 -17121191.20307  19949758.39507 -13332930.27048  19949755.23448
   -974686.85505  22835793.97305   -751670.32846  22835793.21946
   -130050.66001  22033240.06601         0.00000         0.00000
    606882.38702  22638478.92602         0.00000         0.00000
   9391653.66005  22165186.19905   7332082.69946  22165184.43046
 -21656790.64807  19034039.64507 -16445289.77049  19034034.56349
 -20863000.80507  19732036.21507 -16248922.44548  19732032.57048
  -8093695.52006  21219888.80106  -6299515.49248  21219886.66848
 08 11 15  2 28 59.9960000  0 10  3  6  7  8 11 13 16 19 25 27
 -19394477.14107  19476782.59007 -14869673.55948  19476779.15648
  -8290230.64507  20658311.94907  -6384066.51247  20658309.85947
 -17168748.32007  19940708.73807 -13369987.74248  19940705.12548
  -1083269.47705  22815130.59805   -836280.13746  22815131.10246
   -241893.68401  22011956.27701         0.00000         0.00000
    688134.18803  22653942.62103         0.00000         0.00000
   9461072.05105  22178397.42605   7386174.94546  22178395.42646
 -21655361.55107  19034311.58207 -16444176.17249  19034306.38749
 -20867238.72707  19731228.96507 -16252224.74248  19731225.57048
  -8160068.32006  21207258.67606  -6351234.55548  21207256.32448
 08 11 15  2 29 29.9960000  0 10  3  6  7  8 11 13 16 19 25 27
 -19338593.24207  19487416.65207 -14826127.70348  19487413.69148
  -8223418.67607  20671026.01207  -6332005.26248  20671023.52348
 -17215748.77007  19931764.88707 -13406611.48848  19931761.01248
  -1191631.27705  22794510.71505   -920717.90646  22794510.67246
   -353555.22702  21990707.87902         0.00000         0.00000
    769594.65202  22669442.22302         0.00000         0.00000
   9530667.68805  22191640.69105   7440405.27346  22191638.05946
 -21653501.18808  19034665.50408 -16442726.54349  19034660.75049
 -20870900.27007  19730532.65207 -16255077.90248  19730528.99248
  -8226037.14806  21194704.91006  -6402638.84048  21194702.50048
 08 11 15  2 29 59.9960000  0 10  3  6  7  8 11 13 16 19 25 27
 -19282415.66407  19498106.77707 -14782352.99248  19498103.60248
  -8156428.87507  20683773.72307  -6279805.41047  20683770.84447
 -17262192.50007  19922927.06607 -13442801.41448  19922923.87948
  -1299771.39805  22773933.75405  -1004982.93847  22773931.84847
   -465034.08204  21969494.18404         0.00000         0.00000
    851258.53503  22684980.60603         0.00000         0.00000
   9600438.93406  22204917.87106   7494772.45746  22204915.61346
 -21651212.22308  19035101.50408 -16440942.93849  19035095.80149
 -20873986.66807  19729944.84807 -16257482.88748  19729941.71548
  -8291601.21506  21182228.72306  -6453727.72748  21182225.65248
 08 11 15  2 30 29.9960000  0 10  3  6  7  8 11 13 16 19 25 27
 -19225951.36707  19508851.66807 -14738354.84048  19508848.35648
  -8089268.26606  20696554.11306  -6227472.48447  20696550.87547
 -17308082.80107  19914194.09807 -13478560.09448  19914190.77048
  -1407692.46905  22753396.68405  -1089077.25047  22753394.46147
   -576334.00805  21948315.95705         0.00000         0.00000
    933117.07401  22700557.08201         0.00000         0.00000
   9670380.25805  22218227.50405   7549272.12546  22218224.64146
 -21648501.68007  19035616.62107 -16438830.82449  19035611.23449
 -20876503.03907  19729466.39507 -16259443.71148  19729462.93848
  -8356763.96106  21169828.66806  -6504503.89548  21169824.68848
 08 11 15  2 30 59.9960000  0  9  3  6  7  8 11 16 19 25 27
 -19169193.38307  19519652.05907 -14694127.86748  19519649.51648
  -8021929.25806  20709368.09806  -6175000.54347  20709364.60647
 -17353409.09807  19905569.52707 -13513879.29348  19905565.32448
  -1515382.43806  22732903.89506  -1172991.47347  22732901.49247
   -687443.24603  21927171.67603   -363291.76255  21927168.77745
   9740500.27005  22231571.17605   7603911.06646  22231568.14546
 -21645361.50808  19036214.41808 -16436383.93849  19036209.25849
 -20878440.32407  19729097.88707 -16260953.28148  19729094.80148
  -8421514.00806  21157507.41806  -6554958.48848  21157504.15648
 08 11 15  2 31 29.9960000  0 10  3  6  7  8 11 13 16 19 25 27
 -19112141.64507  19530509.11307 -14649671.98848  19530506.50848
  -7954411.38706  20722215.98106  -6122389.24247  20722213.18847
 -17398167.53507  19897052.37907 -13548755.98848  19897048.14548
  -1622836.78505  22712455.24605  -1256722.08647  22712453.84047
   -798357.16803  21906066.10603   -449718.20745  21906062.55545
     51111.41413  22731827.48803         0.00000         0.00000
   9810801.02305  22244948.93405   7658690.81646  22244945.69546
 -21641791.15607  19036893.48807 -16433601.85249  19036888.48849
 -20879795.98407  19728839.84807 -16262009.62948  19728837.48448
  -8485847.28906  21145264.72306  -6605088.30948  21145262.39148
 08 11 15  2 31 59.9960000  0 10  3  6  7  8 11 13 16 19 25 27
 -19054795.14807  19541422.19907 -14604986.41048  19541419.24648
  -7886713.03106  20735098.84006  -6069637.28947  20735096.58647
 -17442353.38707  19888643.51207 -13583186.50848  19888640.18848
  -1730049.56304  22692054.68404  -1340264.52046  22692051.66446
   -909069.93005  21884998.33205   -535987.78145  21884994.96545
    133568.21111  22747516.21501         0.00000         0.00000
   9881285.28505  22258361.87905   7713613.55946  22258358.03546
 -21637788.70707  19037655.23807 -16430483.06349  19037650.95749
 -20880566.80907  19728693.32407 -16262610.28548  19728690.57448
  -8549758.89106  21133102.59006  -6654889.53548  21133099.32448
 08 11 15  2 32 29.9960000  0 10  3  6  7  8 11 13 16 19 25 27
 -18997160.76607  19552389.56607 -14560076.52048  19552386.95348
  -7818841.28106  20748014.67606  -6016750.22347  20748012.92647
 -17485970.00807  19880343.69907 -13617173.48848  19880340.05948
  -1837023.09806  22671697.38706  -1423620.52046  22671695.58646
  -1019584.99204  21863967.58204   -622103.47745  21863964.23145
    216215.02301  22763249.87101         0.00000         0.00000
   9951947.70705  22271808.37905   7768675.14146  22271804.67646
 -21633361.01607  19038498.23107 -16427032.91849  19038492.66849
 -20880758.02707  19728656.78507 -16262759.30148  19728653.84848
  -8613252.10506  21121020.25406  -6704364.76248  21121018.03948
 08 11 15  2 32 59.9960000  0 10  3  6  7  8 11 13 16 19 25 27
 -18939244.28507  19563410.61307 -14514946.78148  19563408.15248
  -7750801.93406  20760962.46506  -5963732.55147  20760960.69947
 -17529019.84807  19872151.62107 -13650718.81648  19872147.55148
  -1943758.98805  22651384.55105  -1506791.25846  22651384.48446
  -1129904.17205  21842974.29305   -708066.46945  21842970.81345
    299043.65611  22779004.66001         0.00000         0.00000
  10022783.82805  22285288.31605   7823872.02346  22285283.77746
 -21628513.59007  19039420.67607 -16423255.70349  19039415.01249
 -20880373.59407  19728730.00407 -16262459.74648  19728726.25048
  -8676329.18406  21109016.84006  -6753515.71948  21109015.19548
 08 11 15  2 33 29.9960000  0 10  3  6  7  8 11 13 16 19 25 27
 -18881047.23007  19574485.16807 -14469598.44548  19574482.19948
  -7682595.57006  20773941.30106  -5910584.73447  20773939.20347
 -17571500.68407  19864067.73107 -13683820.75048  19864063.56648
  -2050253.60505  22631120.75405  -1589774.08646  22631118.93446
  -1240024.10904  21822018.87104         0.00000         0.00000
    382052.11312  22794803.24602         0.00000         0.00000
  10093794.26205  22298800.74605   7879204.80945  22298796.88345
 -21623246.93008  19040422.61308 -16419151.83649  19040416.96549
 -20879412.71107  19728913.13707 -16261711.01248  19728909.66448
  -8738987.35506  21097093.19106  -6802340.28548  21097091.25048
 08 11 15  2 33 59.9960000  0 10  3  6  7  8 11 13 16 19 25 27
 -18822567.17607  19585613.53507 -14424029.58648  19585610.16848
  -7614220.04306  20786952.28506  -5857305.15247  20786950.84047
 -17613407.00007  19856093.00407 -13716475.03948  19856089.92648
  -2156500.04705  22610902.00405  -1672563.48446  22610900.66046
  -1349938.60203  21801101.70703         0.00000         0.00000
    465240.80105  22810635.30905         0.00000         0.00000
  10164982.94502  22312346.37102   7934676.45745  22312344.37945
 -21617558.35507  19041504.69107 -16414719.17649  19041500.11749
 -20877871.35207  19729206.30907 -16260509.95348  19729202.94948
  -8801220.47706  21085250.94106  -6850833.62148  21085248.04348
 08 11 15  2 34 29.9960000  0 10  3  6  7  8 11 13 16 19 25 27
 -18763802.57807  19596795.97307 -14378239.00448  19596792.91448
  -7545673.57406  20799996.46506  -5803892.35247  20799993.97347
 -17654734.00007  19848228.58207 -13748677.91448  19848224.96148
  -2262492.53106  22590732.99606  -1755155.04347  22590730.65647
  -1459641.76604  21780226.45704   -801776.96955  21780221.97345
    548609.45302  22826495.62102         0.00000         0.00000
  10236352.88304  22325927.84004   7990289.30945  22325925.82845
 -21611446.27007  19042667.97307 -16409956.51249  19042662.80549
 -20875746.21907  19729610.44107 -16258854.00048  19729606.87948
  -8863023.21506  21073490.36306  -6898991.60548  21073487.43848
 08 11 15  2 34 59.9960000  0 10  3  6  7  8 11 13 16 19 25 27
 -18704760.69107  19608031.48107 -14332232.33648  19608028.60248
  -7476962.75806  20813071.59006  -5750351.48447  20813069.57447
 -17695484.29707  19840474.12907 -13780431.39848  19840470.51648
  -2368233.18806  22570611.89506  -1837550.33646  22570607.91446
  -1569136.62105  21759390.84005   -887097.59846  21759386.66446
    632149.77002  22842394.39502         0.00000         0.00000
  10307898.97304  22339542.55104   8046039.58645  22339541.10645
 -21604916.87507  19043910.76207 -16404868.67249  19043905.69149
 -20873042.32407  19730124.84007 -16256747.09848  19730122.10948
  -8924398.53507  21061811.38707  -6946816.53948  21061808.91448
 08 11 15  2 35 29.9960000  0 10  3  6  7  8 11 13 16 19 25 27
 -18645444.05107  19619318.92607 -14286011.59848  19619316.25448
  -7408089.60906  20826178.52706  -5696684.12947  20826175.01647
 -17735657.50807  19832829.84807 -13811735.19948  19832825.43048
  -2473719.96906  22550538.32406  -1919747.79346  22550533.85246
  -1678421.20303  21738592.96503   -972254.34045  21738590.00845
    715857.42605  22858327.40205         0.00000         0.00000
  10379619.96903  22353192.24603   8101925.96145  22353190.02345
 -21597972.37907  19045232.34807 -16399457.40649  19045227.03949
 -20869760.25407  19730749.35607 -16254189.67248  19730746.50848
  -8985345.21907  21050213.43407  -6994307.44548  21050210.46148
 08 11 15  2 35 59.9960000  0 10  3  6  7  8 11 13 16 19 25 27
 -18585847.11707  19630659.64507 -14239572.45348  19630656.98848
  -7339048.75006  20839316.16006  -5642886.06347  20839313.11347
 -17775244.99207  19825296.31607 -13842582.58248  19825292.19148
  -2578942.73006  22530514.74606  -2001739.49647  22530510.69947
  -1787485.94905  21717840.11305  -1057239.83245  21717835.73145
    799736.19501  22874295.55901         0.00000         0.00000
  10451523.01605  22366874.87105   8157954.31345  22366872.09445
 -21590607.04307  19046633.96507 -16393718.16849  19046629.35249
 -20865892.88307  19731485.07407 -16251176.11748  19731482.05548
  -9045854.43407  21038699.14507  -7041457.47348  21038696.04748
 08 11 15  2 36 29.9960000  0 10  3  6  7  8 11 13 16 19 25 27
 -18525974.27307  19642053.20707 -14192918.31348  19642050.65248
  -7269843.93006  20852485.52706  -5588960.26647  20852482.82047
 -17814247.55507  19817874.76207 -13872974.18848  19817870.98448
  -2683900.88306  22510542.04306  -2083525.06646  22510537.91846
  -1896331.16005  21697126.74605  -1142054.23046  21697122.27046
    883780.34401  22890277.85601         0.00000         0.00000
  10523605.41004  22380591.50404   8214122.34845  22380588.82045
 -21582824.36308  19048114.91008 -16387653.75849  19048109.84449
 -20861442.58207  19732332.22307 -16247708.37548  19732329.35948
  -9105926.33607  21027268.42607  -7088266.73048  21027264.88348
 08 11 15  2 36 59.9960000  0  9  3  6  7  8 11 16 19 25 27
 -18465831.74607  19653497.99607 -14146054.01648  19653495.76248
  -7200481.16806  20865684.53506  -5534911.38747  20865681.92647
 -17852667.79307  19810563.40207 -13902912.03948  19810559.64148
  -2788596.60206  22490618.56606  -2165106.10546  22490615.75046
  -2004958.70705  21676455.92605  -1226699.04746  21676451.95346
  10595862.80502  22394341.46502   8270426.78545  22394340.62145
 -21574630.18808  19049674.47308 -16381268.68849  19049668.87949
 -20856413.95707  19733289.19907 -16243789.97348  19733286.00848
  -9165563.57407  21015918.85607  -7134737.28548  21015915.80148
 08 11 15  2 37 29.9960000  0  9  3  6  7  8 11 16 19 25 27
 -18405415.61307  19664994.99607 -14098976.52748  19664992.55548
  -7130956.15206  20878914.22306  -5480736.05947  20878912.64147
 -17890498.57007  19803364.32407 -13932390.55148  19803360.46548
  -2893021.18806  22470747.40206  -2246475.90247  22470745.45747
  -2113360.35905  21655827.54305  -1311167.87146  21655823.35646
  10668300.58604  22408127.09804   8326871.83645  22408125.89845
 -21566020.62907  19051312.85607 -16374559.95349  19051307.39549
 -20850801.11707  19734357.44907 -16239416.34448  19734354.31348
  -9224758.19906  21004654.56606  -7180862.98048  21004651.89848
 08 11 15  2 37 59.9960000  0  9  3  6  7  8 11 16 19 25 27
 -18344726.90207  19676543.73107 -14051686.63348  19676541.35648
  -7061269.80105  20892175.02705  -5426435.03947  20892173.03947
 -17927737.83207  19796277.68407 -13961408.17248  19796274.18048
  -2997170.94906  22450927.85606  -2327631.55547  22450925.93447
  -2221533.15605  21635243.30905  -1395458.35546  21635239.67646
  10740919.11702  22421944.89502         0.00000         0.00000
 -21556996.31307  19053029.52007 -16367528.01249  19053025.02349
 -20844603.62907  19735536.64507 -16234587.14548  19735533.49648
  -9283507.78107  20993475.21507  -7226641.84048  20993472.04748
 08 11 15  2 38 29.9960000  0  9  3  6  7  8 11 16 19 25 27
 -18283771.90607  19688143.03507 -14004189.23048  19688141.02748
  -6991427.93806  20905466.47306  -5372012.84447  20905463.65247
 -17964388.38307  19789303.21507 -13989967.03948  19789300.43048
  -3101046.92606  22431161.52706  -2408573.90247  22431158.58247
  -2329479.05105  21614701.22305  -1479572.01246  21614698.59446
  10813714.05901  22435793.98101         0.00000         0.00000
 -21547562.94907  19054824.91007 -16360177.34449  19054819.72349
 -20837826.03906  19736826.14506 -16229305.90648  19736823.24648
  -9341814.59806  20982379.34806  -7272075.73848  20982376.18448
 08 11 15  2 38 59.9960000  0  9  3  6  7  8 11 16 19 25 27
 -18222551.60507  19699792.06607 -13956485.11348  19699790.36748
  -6921431.47306  20918786.15206  -5317470.17247  20918783.68447
 -18000448.07407  19782441.70707 -14018065.52348  19782438.76648
  -3204646.55106  22411446.91006  -2489300.84447  22411444.10247
  -2437195.11705  21594203.91005  -1563506.59447  21594201.38347
  10886685.25803  22449685.03503         0.00000         0.00000
 -21537721.39107  19056697.84007 -16352508.60249  19056692.27749
 -20830467.89507  19738226.80107 -16223572.31348  19738223.02048
  -9399676.43806  20971368.13706  -7317162.85948  20971365.51248
 08 11 15  2 39 29.9960000  0  9  3  6  7  8 11 16 19 25 27
 -18161078.38307  19711490.08207 -13908583.94148  19711487.73848
  -6851292.17606  20932133.78506  -5262816.17247  20932131.17647
 -18035925.71907  19775690.05907 -14045710.42648  19775686.81648
  -3307977.10206  22391784.16806  -2569818.09447  22391780.55547
  -2544689.21106  21573748.41806  -1647268.26247  21573745.91047
  10959822.61301  22463600.97301         0.00000         0.00000
 -21527483.22707  19058645.91807 -16344530.82449  19058640.89549
 -20822539.65207  19739735.28507 -16217394.47348  19739732.07448
  -9457101.55507  20960440.95707  -7361909.71948  20960438.52348
 08 11 15  2 39 59.9960000  0  9  3  6  7  8 11 16 19 25 27
 -18099355.06307  19723236.07407 -13860487.84848  19723232.98448
  -6781012.78906  20945506.97306  -5208053.09047  20945504.71147
 -18070821.33207  19769049.99607 -14072901.80548  19769046.71948
  -3411036.84406  22372172.62106  -2650124.39147  22372169.06347
  -2651960.61705  21553334.98105  -1730856.35546  21553332.32046
  11033124.88301  22477547.47301         0.00000         0.00000
 -21516851.48407  19060668.84007 -16336246.32449  19060663.27049
 -20814042.67607  19741352.52007 -16210773.47748  19741349.54748
  -9514089.26206  20949596.84806  -7406315.73848  20949594.31348
 08 11 15  2 40 29.9960000  0  9  3  6  7  8 11 16 19 25 27
 -18037394.86307  19735027.30907 -13812207.20348  19735023.23148
  -6710606.29706  20958904.91006  -5153190.91847  20958902.24247
 -18105144.86307  19762518.78507 -14099647.40648  19762515.32048
  -3513834.49206  22352610.39506  -2730226.40647  22352608.26247
  -2759018.18005  21532962.57405  -1814277.81346  21532959.28146
     28622.73812  22491529.71502         0.00000         0.00000
 -21505838.87507  19062764.90207 -16327665.06649  19062759.16449
 -20804988.71907  19743075.56607 -16203718.45348  19743072.26648
  -9570649.28107  20938833.29307  -7450388.45748  20938831.61348
 08 11 15  2 40 59.9960000  0  9  3  6  7  8 11 16 19 25 27
 -17975196.06307  19746862.79307 -13763740.62948  19746859.12948
  -6640070.19106  20972327.91006  -5098227.75447  20972324.97747
 -18138891.06607  19756097.22307 -14125943.11748  19756093.27348
  -3616363.09406  22333099.57406  -2810118.81347  22333098.02047
  -2865855.41405  21512632.91005  -1897527.62147  21512629.44547
    102234.21111  22505536.73801         0.00000         0.00000
 -21494443.01207  19064933.60607 -16318785.18449  19064927.84449
 -20795374.16407  19744905.02007 -16196226.59448  19744901.63748
  -9626775.67207  20928152.85607  -7494123.32448  20928150.75048
 08 11 15  2 41 29.9960000  0  8  3  6  7  8 11 19 25 27
 -17912764.71907  19758743.42607 -13715092.85948  19758740.26648
  -6569410.62106  20985773.73106  -5043168.34847  20985770.22747
 -18172063.24207  19749784.59007 -14151791.58248  19749781.08648
  -3718624.66406  22313639.83206  -2889803.08647  22313638.75047
  -2972474.94506  21492344.45706  -1980607.77047  21492340.37147
 -21482670.06307  19067174.08207 -16309611.45349  19067168.78149
 -20785203.81607  19746839.94107 -16188301.66848  19746836.88348
  -9682471.18007  20917554.53507  -7537522.40648  20917551.49248
 08 11 15  2 41 59.9960000  0  9  3  6  7  8 11 16 19 25 27
 -17850103.73007  19770667.16807 -13666266.12548  19770664.27048
  -6498629.97305  20999242.17605  -4988014.60547  20999238.65247
 -18204660.82407  19743581.40207 -14177192.30148  19743577.94548
  -3820617.10205  22294232.34005  -2969277.77047  22294229.93047
  -3078875.21906  21472096.23806  -2063517.05547  21472092.31347
     17751.05911  22533644.30101         0.00000         0.00000
 -21470522.25807  19069485.79307 -16300145.64549  19069480.34449
 -20774478.91007  19748881.31607 -16179944.60948  19748877.98448
  -9737734.92606  20907037.94106  -7580585.05948  20907035.51648
 08 11 15  2 42 29.9960000  0  8  3  6  7  8 11 19 25 27
 -17787210.15207  19782635.23107 -13617258.14848  19782632.89148
  -6427725.00805  21012735.08205  -4932764.00047  21012732.25847
 -18236677.97307  19737488.55907 -14202140.73848  19737485.76648
  -3922333.19106  22274875.37906  -3048537.02347  22274874.68447
  -3185049.32406  21451892.25406  -2146250.10947  21451886.99647
 -21457996.79307  19071868.82407 -16290385.53149  19071863.63749
 -20763195.27007  19751028.72307 -16171152.15648  19751025.93448
  -9792560.63307  20896605.22307  -7623306.41448  20896602.77748
 08 11 15  2 42 59.9960000  0  8  3  6  7  8 11 19 25 27
 -17724078.38307  19794648.64507 -13568064.56648  19794646.35948
  -6356689.93805  21026252.80905  -4877412.02747  21026249.94947
 -18268106.21507  19731507.62107 -14226630.28148  19731503.77048
  -4023762.67606  22255573.79306  -3127572.93847  22255573.04347
  -3290987.55506  21431733.45706  -2228799.38347  21431728.24247
 -21445087.79707  19074325.25407 -16280326.57049  19074320.31649
 -20751345.77307  19753282.98807 -16161918.78548  19753280.31648
  -9846939.02007  20886257.30907  -7665679.19148  20886254.96948
 08 11 15  2 43 29.9960000  0  8  3  6  7  8 11 19 25 27
 -17660716.18407  19806706.14507 -13518691.42248  19806704.15248
  -6285531.96505  21039794.24605  -4821964.27046  21039790.26246
 -18298950.11307  19725638.44907 -14250664.50048  19725634.33248
  -4124908.53506  22236326.87106  -3206387.88747  22236325.07847
  -3396693.27306  21411617.06606  -2311167.44947  21411613.41847
 -21431802.43007  19076853.31607 -16269974.32049  19076848.16049
 -20738936.69507  19755644.50407 -16152249.37548  19755641.65248
  -9900874.07406  20875993.73106  -7707706.51248  20875990.75048
 08 11 15  2 43 59.9960000  0  8  3  6  7  8 11 19 25 27
 -17597122.44507  19818808.08207 -13469137.89848  19818805.51648
  -6214249.61705  21053358.25405  -4766419.60946  21053354.94146
 -18329205.27007  19719881.27007 -14274239.93848  19719877.82048
  -4225764.84006  22217135.16806  -3284977.16847  22217132.17247
  -3502161.41006  21391548.06606  -2393350.43047  21391543.85247
 -21418139.35907  19079453.32407 -16259327.78549  19079447.87149
 -20725965.40607  19758112.65207 -16142141.87148  19758109.35248
  -9954360.96907  20865815.44107  -7749384.62948  20865812.70748
 08 11 15  2 44 29.9960000  0  8  3  6  7  8 11 19 25 27
 -17533298.99607  19830953.54307 -13419405.34048  19830950.82448
  -6142844.17205  21066947.01205  -4710779.05146  21066942.00846
 -18358870.53507  19714235.80107 -14297355.73448  19714232.71148
  -4326328.96506  22197998.59006  -3363338.81647  22197995.81647
  -3607389.72306  21371523.80906  -2475346.50047  21371519.28147
 -21404099.89507  19082125.14507 -16248387.93449  19082119.98149
 -20712432.33207  19760688.27007 -16131596.62148  19760685.09448
 -10007397.84806  20855723.18406  -7790712.07048  20855720.19148
 08 11 15  2 44 59.9960000  0  8  3  6  7  8 11 19 25 27
 -17469242.51207  19843142.69107 -13369491.18848  19843140.44548
  -6071312.30906  21080559.44906  -4655039.94947  21080555.46947
 -18387939.81607  19708703.78507 -14320007.12148  19708700.47348
  -4426592.96906  22178918.35606  -3441466.55147  22178915.29347
  -3712370.75006  21351546.49606  -2557149.86747  21351542.86347
 -21389680.72708  19084869.22308 -16237152.23049  19084862.96149
 -20698332.95707  19763371.34807 -16120610.08248  19763368.32848
 -10059978.17207  20845717.49607  -7831683.77048  20845714.15248
 08 11 15  2 45 29.9960000  0  8  3  6  7  8 11 19 25 27
 -17404952.19507  19855376.80107 -13319394.86348  19855374.41848
  -5999652.98005  21094195.66005  -4599201.56347  21094193.10947
 -18416409.64107  19703286.51207 -14342191.39848  19703282.84848
  -4526551.75006  22159896.39506  -3519356.46947  22159893.40247
  -3817099.86706  21331616.81606  -2638756.94147  21331613.46547
 -21374881.28508  19087685.75408 -16225620.19149  19087679.46149
 -20683665.46507  19766161.73107 -16109180.87548  19766159.36348
 -10112098.14807  20835799.69107  -7872296.72748  20835796.61348
 08 11 15  2 45 59.9960000  0  8  3  6  7  8 11 19 25 27
 -17340429.64807  19867655.21507 -13269117.57048  19867651.85948
  -5927867.28505  21107856.54305  -4543264.67647  21107853.75847
 -18444278.53107  19697983.09007 -14363907.42648  19697980.34448
  -4626201.96506  22140934.04306  -3597005.94947  22140930.65647
  -3921574.42606  21311735.98806  -2720165.67247  21311732.52347
 -21359702.69508  19090573.82408 -16213792.72749  19090568.19949
 -20668429.88707  19769061.22307 -16097309.02348  19769058.52748
 -10163755.31607  20825969.75407  -7912549.05148  20825966.49248
 08 11 15  2 46 29.9960000  0  8  3  6  7  8 11 19 25 27
 -17275673.57807  19879978.05907 -13218658.32048  19879974.14548
  -5855953.78505  21121540.36305  -4487228.22347  21121538.87547
 -18471542.50407  19692795.40207 -14385152.08248  19692791.80548
  -4725538.08206  22122031.16006  -3674410.69947  22122028.50047
  -4025789.41006  21291905.21506  -2801372.10547  21291900.68847
 -21344143.39508  19093534.32408 -16201668.61349  19093529.73149
 -20652624.05107  19772069.62907 -16084992.78948  19772066.15648
 -10214945.12507  20816228.69907  -7952437.18848  20816225.70348
 08 11 15  2 46 59.9960000  0  8  3  6  7  8 11 19 25 27
 -17210685.06607  19892344.92607 -13168017.93848  19892340.44948
  -5783912.93005  21135248.78505  -4431092.53947  21135247.76647
 -18498199.19907  19687722.84807 -14405923.52748  19687719.31648
  -4824556.33206  22103188.12906  -3751567.77747  22103186.65647
  -4129741.28106  21272123.63706  -2882373.52047  21272119.94947
 -21328204.07408  19096567.44108 -16189248.35549  19096562.71149
 -20636247.49207  19775185.77707 -16072231.83648  19775182.39848
 -10265664.97307  20806576.51207  -7991959.12548  20806573.48848
 08 11 15  2 47 29.9960000  0  8  3  6  7  8 11 19 25 27
 -17145466.38707  19904755.43407 -13117198.23048  19904752.15648
  -5711746.59406  21148982.65206  -4374859.03147  21148980.57047
 -18524248.36307  19682765.71507 -14426221.58648  19682762.14148
  -4923254.27006  22084406.49606  -3828475.26247  22084406.23147
  -4233428.53106  21252392.31606  -2963168.75047  21252388.39847
 -21311887.02707  19099672.41007 -16176533.76649  19099667.42249
 -20619301.24207  19778410.33207 -16059026.96148  19778406.96948
 -10315913.65607  20797014.66007  -8031113.93048  20797011.83248
 08 11 15  2 47 59.9960000  0  8  3  6  7  8 11 19 25 27
 -17080017.78507  19917210.07407 -13066199.32848  19917206.41448
  -5639454.76606  21162738.59006  -4318527.78947  21162737.18047
 -18549687.50807  19677924.81607 -14446044.30548  19677921.28948
  -5021627.65606  22065686.73106  -3905129.85547  22065685.75047
  -4336847.52706  21232712.05906  -3043754.96947  21232709.04347
 -21295192.28907  19102848.98107 -16163524.87549  19102844.52049
 -20601784.59807  19781743.68407 -16045377.63348  19781740.59848
 -10365688.12907  20787542.66007  -8069899.25048  20787540.03948
 08 11 15  2 48 29.9960000  0  8  3  6  7  8 11 19 25 27
 -17014338.71107  19929708.17607 -13015020.83648  19929705.02048
  -5567036.80106  21176519.19906  -4262098.22347  21176517.69147
 -18574513.34807  19673201.10607 -14465389.12948  19673197.82848
  -5119671.43006  22047029.42606  -3981527.59047  22047028.73447
  -4439993.64506  21213084.35606  -3124128.55147  21213081.06647
 -21278119.21907  19106098.51207 -16150221.20349  19106093.19949
 -20583695.82807  19785186.13707 -16031282.49648  19785183.01648
 -10414984.45307  20778161.98107  -8108311.97748  20778159.48148
 08 11 15  2 48 59.9960000  0  8  3  6  7  8 11 19 25 27
 -16948431.97308  19942250.02708 -12963664.96148  19942246.68848
  -5494494.95305  21190323.86305  -4205572.13747  21190322.48447
 -18598725.83607  19668593.24607 -14484256.00848  19668590.27048
  -5217383.96106  22028435.14506  -4057667.19547  22028434.16047
  -4542865.90606  21193508.32406  -3204288.71547  21193505.23147
 -21260670.82007  19109418.91807 -16136625.05949  19109413.03149
 -20565036.75007  19788736.52707 -16016742.95748  19788733.08648
 -10463802.16407  20768872.08207  -8146351.76248  20768870.28148
 08 11 15  2 49 29.9960000  0  8  3  6  7  8 11 19 25 27
 -16882299.30107  19954834.54307 -12912133.02348  19954831.39148
  -5421831.08606  21204151.49606  -4148950.94547  21204149.60947
 -18622324.74207  19664102.65207 -14502644.78148  19664098.93448
  -5314762.99206  22009904.03506  -4133546.88746  22009902.91046
  -4645461.71506  21173984.10606  -3284233.44147  21173981.79747
 -21242848.53508  19112810.64508 -16122737.56649  19112804.73449
 -20545808.35907  19792396.14507 -16001759.80948  19792392.83248
 -10512139.96907  20759674.47307  -8184017.57448  20759671.32048
 08 11 15  2 49 59.9960000  0  8  3  6  7  8 11 19 25 27
 -16815945.37507  19967461.09807 -12860428.66848  19967458.57048
  -5349048.66806  21218001.13706  -4092237.41447  21217999.31647
 -18645311.02007  19659728.05107 -14520556.15648  19659725.44948
  -5411807.36306  21991437.50406  -4209165.89547  21991434.57047
  -4747781.58206  21154513.75406  -3363963.20747  21154510.47347
 -21224656.09807  19116272.54307 -16108561.65249  19116266.62949
 -20526013.51207  19796162.99607 -15986335.26648  19796159.78148
 -10559998.58207  20750566.83207  -8221310.00448  20750564.31348
 08 11 15  2 50 29.9960000  0  8  3  6  7  8 11 19 25 27
 -16749376.58607  19980128.62107 -12808556.91048  19980126.41048
  -5276153.68405  21231871.59005  -4035436.11746  21231870.89846
 -18667688.37507  19655469.93407 -14537993.09448  19655466.84448
  -5508519.28906  21973034.18406  -4284525.81347  21973030.83247
  -4849827.95306  21135095.77706  -3443479.89847  21135091.83247
 -21206099.93407  19119803.64507 -16094102.32449  19119798.25849
 -20505657.65207  19800036.38707 -15970473.56348  19800033.06348
 -10607381.04307  20741550.29307  -8258231.40248  20741547.71148
 08 11 15  2 50 59.9960000  0  8  3  6  7  8 11 19 25 27
 -16682592.41407  19992837.76207 -12756517.30948  19992835.57048
  -5203145.55505  21245765.37105  -3978546.68846  21245762.91846
 -18689454.03507  19651328.08207 -14554953.34448  19651324.32448
  -5604893.71906  21954695.17606  -4359622.81347  21954691.39147
  -4951596.50406  21115729.80106  -3522780.03947  21115726.00047
 -21187179.81308  19123403.83208 -16079359.37149  19123398.69949
 -20484739.37907  19804017.12907 -15954173.61748  19804013.47748
 -10654283.34007  20732625.41807  -8294778.65648  20732622.20348
 08 11 15  2 51 29.9960000  0  8  3  6  7  8 11 19 25 27
 -16615597.60207  20005586.18407 -12704313.56648  20005584.15248
  -5130029.18005  21259678.91005  -3921572.91846  21259676.52046
 -18710610.76207  19647301.99607 -14571439.09848  19647298.33648
  -5700931.48006  21936419.39506  -4434457.38747  21936417.55547
  -5053088.34806  21096415.98106  -3601864.50847  21096412.75047
 -21167900.95308  19127072.34808 -16064336.87949  19127066.98449
 -20463263.14107  19808103.39507 -15937438.88348  19808099.53148
 -10700707.77007  20723790.85607  -8330953.51248  20723787.78548
 08 11 15  2 51 59.9960000  0  8  3  6  7  8 11 19 25 27
 -16548389.50407  20018375.56607 -12651943.63348  20018373.32848
  -5056800.92205  21273614.10605  -3864511.93847  21273611.99247
 -18731152.68007  19643393.25407 -14587445.79748  19643389.47748
  -5796624.90606  21918210.37106  -4509023.66447  21918208.75447
  -5154296.39106  21077156.51206  -3680727.86747  21077153.27347
 -21148259.84007  19130809.41807 -16049032.13349  19130804.92649
 -20441224.77007  19812297.46507 -15920266.14548  19812293.77748
 -10746647.77307  20715049.02007  -8366750.92648  20715045.27748
 08 11 15  2 52 29.9960000  0  8  3  6  7  8 11 19 25 27
 -16480972.43407  20031203.80107 -12599410.84048  20031201.62148
  -4983465.00005  21287569.85605  -3807367.07446  21287567.08646
 -18751081.67607  19639601.14507 -14602974.89548  19639597.16848
  -5891974.05906  21900065.84006  -4583321.67247  21900063.46947
  -5255221.52306  21057951.73806  -3759370.80147  21057947.59847
 -21128260.91007  19134615.54307 -16033448.54749  19134609.93049
 -20418628.05907  19816597.59007 -15902658.33648  19816594.41848
 -10792104.84807  20706398.41007  -8402172.02748  20706395.02048
 08 11 15  2 52 59.9960000  0  8  3  6  7  8 11 19 25 27
 -16413349.73407  20044072.66807 -12546717.84848  20044069.34848
  -4910024.35906  21301545.52006  -3750140.62547  21301542.33647
 -18770398.73407  19635924.91807 -14618027.13348  19635921.01248
  -5986977.59006  21881987.31606  -4657350.36347  21881983.86347
  -5355862.96506  21038800.14506  -3837792.71947  21038795.72747
 -21107907.20308  19138488.76208 -16017588.53149  19138483.14849
 -20395475.17207  19821003.42607 -15884617.13748  19821000.67248
 -10837078.63707  20697840.24607  -8437216.54748  20697836.76248
 08 11 15  2 53 29.9960000  0  8  3  6  7  8 11 19 25 27
 -16345521.94907  20056979.94907 -12493865.05948  20056976.73148
  -4836479.12505  21315539.70705  -3692832.69547  21315537.99647
 -18789101.76607  19632366.13707 -14632600.92248  19632361.99648
  -6081631.25006  21863974.24606  -4731106.42647  21863970.80147
  -5456217.21106  21019702.95706  -3915990.80947  21019698.82447
 -21087199.44107  19142429.51207 -16001452.60949  19142424.22749
 -20371765.95307  19825514.95707 -15866142.43448  19825512.23848
 -10881566.68807  20689374.47307  -8471882.55548  20689370.87148
 08 11 15  2 53 59.9960000  0  8  3  6  7  8 11 19 25 27
 -16277492.12907  20069925.94107 -12440854.82048  20069922.15248
  -4762832.02305  21329555.31605  -3635445.40247  21329552.51247
 -18807191.51207  19628923.37107 -14646696.82448  19628919.31348
  -6175933.37905  21846029.20705  -4804588.60547  21846026.00047
  -5556283.50006  21000660.82406  -3993964.50047  21000657.00847
 -21066140.75808  19146436.85608 -15985043.23849  19146431.25449
 -20347502.56607  19830132.45707 -15847235.88748  19830129.04748
 -10925568.92207  20681000.98807  -8506170.00448  20680997.75048
 08 11 15  2 54 29.9960000  0  8  3  6  7  8 11 19 25 27
 -16209261.82807  20082909.29307 -12387688.36748  20082905.63348
  -4689084.18805  21343589.28505  -3577979.57446  21343584.69946
 -18824667.09807  19625598.17607 -14660314.18448  19625594.30148
  -6269881.58205  21828151.40205  -4877794.97347  21828148.94947
  -5656059.34006  20981673.12106  -4071711.83647  20981670.24247
 -21044732.31607  19150510.79307 -15968361.33649  19150504.70349
 -20322685.86707  19834854.62907 -15827898.20348  19834851.80148
 -10969083.55107  20672719.76207  -8540077.51248  20672717.41448
 08 11 15  2 54 59.9960000  0  8  3  6  7  8 11 19 25 27
 -16140833.64507  20095931.45707 -12334367.73848  20095927.58648
  -4615237.64106  21357641.80106  -3520436.86747  21357636.70747
 -18841528.57807  19622389.24607 -14673453.00848  19622385.96148
  -6363473.66006  21810341.47306  -4950723.87147  21810339.01247
  -5755543.42206  20962742.63706  -4149231.84847  20962739.44547
 -21022976.77707  19154650.27007 -15951408.99649  19154644.78549
 -20297317.47707  19839682.37907 -15808130.64548  19839679.05148
 -11012109.84806  20664532.73106  -8573604.53548  20664529.39548
 08 11 15  2 55 29.9960000  0  8  3  6  7  8 11 19 25 27
 -16072207.76207  20108990.24607 -12280893.05548  20108986.86348
  -4541292.50006  21371712.60606  -3462817.30547  21371708.50847
 -18857773.91007  19619297.87907 -14686111.69148  19619294.58248
  -6456705.55906  21792600.19106  -5023372.09047  21792598.42247
  -5854732.35906  20943868.26206  -4226521.90647  20943864.31347
 -21000874.44907  19158856.37907 -15934186.40249  19158851.12549
 -20271397.12907  19844614.39507 -15787932.98848  19844611.14148
 -11054645.30107  20656439.15207  -8606749.05948  20656435.32448
 08 11 15  2 55 59.9960000  0  8  3  6  7  8 11 19 25 27
 -16003384.71907  20122087.16807 -12227264.73848  20122083.68448
  -4467248.77306  21385802.56606  -3405120.91047  21385799.37547
 -18873401.10907  19616324.19107 -14698288.75048  19616321.02348
  -6549572.80506  21774928.21506  -5095736.16447  21774926.95347
  -5953622.33607  20925050.30907  -4303579.01647  20925046.23147
 -20978425.42207  19163127.89507 -15916693.66049  19163122.95349
 -20244924.35907  19849651.79307 -15767304.85548  19849648.66048
 -11096687.13306  20648438.28506  -8639508.92648  20648435.75448
 08 11 15  2 56 29.9960000  0  8  3  6  7  8 11 19 25 27
 -15934367.47307  20135220.48807 -12173485.08248  20135217.21548
  -4393109.28506  21399910.48106  -3347349.94947  21399908.44947
 -18888411.61307  19613467.72307 -14709985.23848  19613464.04748
  -6642074.86306  21757325.78506  -5167815.67247  21757323.87947
  -6052213.23006  20906288.45706  -4380403.08247  20906285.60947
 -20955633.38307  19167465.55107 -15898933.64849  19167459.43049
 -20217902.09807  19854794.32407 -15746248.56648  19854791.82048
 -11138235.65206  20640532.05106  -8671884.41448  20640528.82448
 08 11 15  2 56 59.9960000  0  8  3  6  7  8 11 19 25 27
 -15865155.10907  20148390.87907 -12119553.40248  20148387.96548
  -4318872.50406  21414037.62106  -3289503.16847  21414035.42647
 -18902801.76207  19610729.16807 -14721198.33648  19610725.68048
  -6734205.68006  21739794.92606  -5239605.95747  21739791.13347
  -6150499.89106  20887585.08206  -4456990.08648  20887582.54348
 -20932496.93007  19171868.09807 -15880905.24649  19171862.31649
 -20190328.28907  19860041.53507 -15724762.51248  19860038.57448
 -11179286.32006  20632720.39506  -8703871.95348  20632717.25048
 08 11 15  2 57 29.9960000  0  8  3  6  7  8 11 19 25 27
 -15795749.27307  20161598.12907 -12065470.95348  20161595.75448
  -4244539.96506  21428182.79306  -3231581.71947  21428180.55947
 -18916570.79707  19608109.05907 -14731927.44948  19608105.27048
  -6825962.47707  21722332.87907  -5311104.71547  21722330.44947
  -6248480.41807  20868940.35607  -4533338.53948  20868937.57048
 -20909017.98807  19176336.00407 -15862609.96549  19176330.36349
 -20162204.21907  19865393.42607 -15702847.65248  19865389.62548
 -11219838.15206  20625002.49606  -8735470.76648  20625000.94548
 08 11 15  2 57 59.9960000  0  8  3  6  7  8 11 19 25 27
 -15726151.65607  20174841.98107 -12011239.05148  20174839.53948
  -4170112.71106  21442344.91806  -3173586.44147  21442342.68447
 -18929718.66007  19605607.32407 -14742172.54748  19605603.37148
  -6917342.48006  21704944.52706  -5382309.92247  21704941.50847
  -6346152.44507  20850353.08207  -4609446.57848  20850351.03148
 -20885198.10507  19180868.87107 -15844049.02349  19180863.71949
 -20133530.92607  19870850.01207 -15680504.82448  19870846.57448
 -11259889.60906  20617381.77706  -8766679.72348  20617379.43048
 08 11 15  2 58 29.9960000  0  8  3  6  7  8 11 19 25 27
 -15656363.41007  20188122.55107 -11956858.62948  20188120.55548
  -4095591.36705  21456525.55905  -3115517.89146  21456523.56346
 -18942244.03907  19603224.07407 -14751932.58248  19603219.56648
  -7008342.64106  21687628.29306  -5453219.11347  21687624.98147
  -6443513.09806  20831826.26206  -4685311.99247  20831823.41047
 -20861038.08207  19185466.58207 -15825223.03149  19185461.64149
 -20104308.84007  19876410.94907 -15657734.38348  19876407.23848
 -11299438.72706  20609855.59806  -8797497.20748  20609853.64548
 08 11 15  2 58 59.9960000  0  8  3  6  7  8 11 19 25 27
 -15586388.85507  20201438.31607 -11902333.02048  20201435.99648
  -4020980.46106  21470724.09806  -3057379.52747  21470721.69947
 -18954149.34807  19600958.66007 -14761209.44148  19600953.87148
  -7098962.95306  21670382.90206  -5523832.29747  21670379.79347
  -6540563.52006  20813358.55906  -4760935.71548  20813355.20348
 -20836542.83607  19190127.41807 -15806135.84049  19190122.61349
 -20074542.14807  19882074.67607 -15634539.57448  19882071.89548
 -11338487.35906  20602425.26206  -8827924.70348  20602422.84448
 08 11 15  2 59 29.9960000  0  8  3  6  7  8 11 19 25 27
 -15516228.28107  20214789.59007 -11847662.47748  20214787.29748
  -3946279.26606  21484939.94106  -2999170.86347  21484937.78947
 -18965432.51607  19598811.25407 -14770001.52048  19598806.98848
  -7189198.77706  21653211.85606  -5594145.91447  21653209.24647
  -6637299.57407  20794950.80107  -4836314.44948  20794946.63348
 -20811712.34407  19194852.43407 -15786787.41049  19194847.90649
 -20044230.21107  19887843.07407 -15610919.89848  19887839.97748
 -11377032.41407  20595090.56607  -8857959.84048  20595087.37948
 08 11 15  2 59 59.9960000  0  8  3  6  7  8 11 19 25 27
 -15445883.32007  20228175.81607 -11792848.23848  20228173.32448
  -3871489.53106  21499171.98106  -2940893.19547  21499169.94947
 -18976093.42607  19596782.56607 -14778308.76648  19596779.37548
  -7279047.93406  21636114.16806  -5664158.25447  21636110.94947
  -6733720.04306  20776601.69106  -4911447.25848  20776598.54348
 -20786548.58207  19199641.12907 -15767179.25049  19199636.36749
 -20013374.54307  19893714.24607 -15586876.52748  19893711.84848
 -11415072.78507  20587851.79307  -8887601.66448  20587848.50848
 08 11 15  3  0 29.9960000  0  8  3  6  7  8 11 19 25 27
 -15375357.16007  20241596.33207 -11737892.79748  20241593.29748
  -3796613.84406  21513420.29306  -2882548.53947  21513418.73447
 -18986133.24207  19594872.23807 -14786131.99248  19594868.02048
  -7368508.90606  21619089.19106  -5733868.07047  21619085.88347
  -6829823.59406  20758313.55906  -4986333.12548  20758310.14848
 -20761054.67207  19204493.08207 -15747313.88349  19204486.93049
 -19981977.83207  19899689.11307 -15562411.56648  19899686.92648
 -11452608.82806  20580708.54306  -8916850.52348  20580706.26648
 08 11 15  3  0 59.9960000  0  8  3  6  7  8 11 19 25 27
 -15304649.46107  20255051.16007 -11682795.97348  20255048.41048
  -3721651.31606  21527685.58206  -2824136.22347  21527683.66447
 -18995549.28907  19593079.99607 -14793469.17648  19593076.46548
  -7457576.98006  21602140.12906  -5803271.74247  21602137.22347
  -6925606.03106  20740087.25406  -5060968.78948  20740083.66448
 -20735230.01607  19209406.88707 -15727190.78149  19209401.78149
 -19950039.08207  19905766.83207 -15537524.23448  19905763.88348
 -11489636.95306  20573662.61306  -8945703.63748  20573660.38348
 08 11 15  3  1 29.9960000  0  8  3  6  7  8 11 19 25 27
 -15233761.39807  20268541.26207 -11627558.55148  20268537.34448
  -3646603.06306  21541966.09806  -2765657.16447  21541964.12947
 -19004341.18407  19591407.16807 -14800320.04348  19591403.64548
  -7546248.99206  21585267.01206  -5872366.81647  21585263.50047
  -7021065.35206  20721921.77006  -5135352.63748  20721919.36348
 -20709076.41007  19214383.87907 -15706811.35549  19214378.66449
 -19917559.53907  19911947.77007 -15512215.49648  19911945.14848
 -11526155.95307  20566713.39507  -8974160.01648  20566711.14548
 08 11 15  3  1 59.9960000  0  8  3  6  7  8 11 19 25 27
 -15162695.07407  20282064.59007 -11572182.23448  20282061.32848
  -3571470.56305  21556263.02005  -2707112.42247  21556261.00447
 -19012509.09807  19589852.94907 -14806684.64548  19589849.66048
  -7634522.54706  21568469.33206  -5941151.43047  21568465.42247
  -7116199.84406  20703818.15206  -5209483.38348  20703815.41448
 -20682595.47707  19219423.16807 -15686176.87149  19219418.13749
 -19884540.66407  19918231.20707 -15486486.52348  19918228.25848
 -11562164.85906  20559860.60606  -9002218.90648  20559859.11348
 08 11 15  3  2 29.9960000  0  8  3  6  7  8 11 19 25 27
 -15091454.43807  20295621.33207 -11516670.07848  20295619.16048
  -3496257.59006  21570575.16006  -2648505.00047  21570573.33247
 -19020054.51207  19588417.13707 -14812564.19548  19588413.97748
  -7722397.30906  21551746.65206  -6009625.26647  21551744.43047
  -7211009.69106  20685776.83206  -5283361.21148  20685772.86348
 -20655791.66807  19224523.60607 -15665290.80549  19224518.37549
 -19850986.13707  19924616.03507 -15460340.14548  19924612.87548
 -11597664.85906  20553104.96506  -9029881.26648  20553102.70348
 08 11 15  3  2 59.9960000  0  8  3  6  7  8 11 19 25 27
 -15020043.60207  20309210.34007 -11461025.30148  20309208.59048
  -3420967.89106  21584904.12106  -2589837.73047  21584899.92247
 -19026980.44507  19587098.75407 -14817961.04348  19587095.50048
  -7809873.42606  21535101.16806  -6077788.46947  21535097.78947
  -7305495.51606  20667797.52006  -5356986.51647  20667792.47747
 -20628669.78107  19229684.46507 -15644156.88349  19229679.55149
 -19816900.11707  19931102.69907 -15433779.63748  19931100.12148
 -11632657.54706  20546446.74606  -9057148.30148  20546443.66848
 08 11 15  3  3 29.9960000  0  8  3  6  7  8 11 19 25 27
 -14948462.19507  20322831.53507 -11405247.62548  20322829.74648
  -3345600.65606  21599245.58206  -2531110.03947  21599241.63347
 -19033284.64507  19585899.16807 -14822873.40248  19585896.26648
  -7896945.78906  21518531.40206  -6145637.04747  21518527.28547
  -7399653.23407  20649879.93407  -5430356.12548  20649875.07048
 -20601228.62907  19234906.41007 -15622774.18049  19234901.11349
 -19782281.78907  19937690.66807 -15406804.34048  19937687.70348
 -11667139.62507  20539885.21507  -9084017.43448  20539881.78148
 08 11 15  3  3 59.9960000  0  8  3  6  7  8 11 19 25 27
 -14876712.14107  20336485.28507 -11349338.50848  20336483.58248
  -3270157.32406  21613601.09806  -2472323.05147  21613598.80947
 -19038966.96507  19584818.12907 -14827301.18448  19584814.21148
  -7983612.20306  21502039.87106  -6213169.28947  21502036.27047
  -7493481.27006  20632023.41006  -5503468.84847  20632020.17247
 -20573470.35207  19240188.91007 -15601144.37949  19240184.13349
 -19747132.71107  19944379.12107 -15379415.45348  19944376.11748
 -11701110.17207  20533420.80107  -9110487.99648  20533417.49648
 08 11 15  3  4 29.9960000  0  8  3  6  7  8 11 19 25 27
 -14804795.12107  20350170.87907 -11293299.30148  20350169.13748
  -3194638.94505  21627972.65205  -2413477.59047  21627970.28547
 -19044027.38307  19583855.49607 -14831244.37148  19583851.85648
  -8069869.88306  21485624.55106  -6280383.02747  21485622.15647
  -7586977.08606  20614232.92606  -5576322.71548  20614228.57048
 -20545396.70707  19245531.00407 -15579268.81349  19245526.19149
 -19711454.20707  19951168.09007 -15351614.02748  19951165.07848
 -11734568.07007  20527053.67607  -9136559.09048  20527050.64148
 08 11 15  3  4 59.9960000  0  8  3  6  7  8 11 19 25 27
 -14732715.98807  20363886.66807 -11237133.72747  20363884.93047
  -3119050.37506  21642356.78506  -2354577.45347  21642355.04747
 -19048469.11707  19583010.28507 -14834705.48448  19583006.76248
  -8155719.46106  21469288.56606  -6347278.83247  21469286.04347
  -7680142.28906  20596503.64506  -5648918.93048  20596499.36348
 -20517012.76607  19250932.38707 -15557151.44549  19250927.21949
 -19675251.25407  19958057.71507 -15323403.93048  19958054.57448
 -11767515.69107  20520783.85607  -9162232.57848  20520781.52048
 08 11 15  3  5 29.9960000  0  8  3  6  7  8 11 19 25 27
 -14660474.57007  20377634.22307 -11180841.69947  20377632.40647
  -3043391.02706  21656754.41006  -2295622.12547  21656752.93447
 -19052290.12507  19582283.12107 -14837682.91448  19582279.16848
  -8241156.46106  21453030.52706  -6413853.06347  21453028.01247
  -7772973.28507  20578838.71507  -5721254.72748  20578834.27748
 -20488318.83207  19256392.70707 -15534792.52749  19256386.85649
 -19638523.65207  19965046.45707 -15294785.02748  19965043.03148
 -11799950.34406  20514611.81606  -9187506.34848  20514608.82448
 08 11 15  3  5 59.9960000  0  8  3  6  7  8 11 19 25 27
 -14588075.21107  20391411.55907 -11124426.62147  20391409.07847
  -2967664.68405  21671164.62905  -2236614.59847  21671162.74647
 -19055493.12907  19581673.58207 -14840178.76648  19581669.69948
  -8326180.81306  21436851.09806  -6480105.82447  21436848.21947
  -7865470.69906  20561236.82406  -5793330.60948  20561233.16048
 -20459318.93807  19261911.23107 -15512195.21549  19261905.59049
 -19601275.21107  19972134.02707 -15265760.27048  19972131.16848
 -11831873.43807  20508536.89507  -9212381.46948  20508534.14548
 08 11 15  3  6 29.9960000  0  8  3  6  7  8 11 19 25 27
 -14515517.35907  20405218.44107 -11067888.07447  20405216.00047
  -2891870.23806  21685588.48106  -2177554.00847  21685585.88347
 -19058075.78507  19581181.77007 -14842191.24248  19581177.35948
  -8410787.82406  21420750.27706  -6546033.35947  21420747.98847
  -7957630.02706  20543700.02706  -5865143.06348  20543695.97348
 -20430012.58607  19267487.89507 -15489359.10549  19267482.27049
 -19563505.20307  19979321.70707 -15236329.12548  19979319.14548
 -11863281.82807  20502560.11307  -9236855.53948  20502558.35648
 08 11 15  3  6 59.9960000  0  8  3  6  7  8 11 19 25 27
 -14442805.10506  20419054.76206 -11011229.20747  20419052.25047
  -2816011.44106  21700024.01206  -2118443.27747  21700021.45347
 -19060040.55507  19580807.91807 -14843722.24248  19580803.64548
  -8494977.14806  21404730.14506  -6611635.43047  21404727.06347
  -8049452.17207  20526226.29307  -5936692.73048  20526222.53548
 -20400404.15207  19273122.40207 -15466287.63349  19273116.89849
 -19525217.98407  19986608.56607 -15206494.93048  19986605.48848
 -11894176.99607  20496681.53507  -9260929.71548  20496678.27748
 08 11 15  3  7 29.9960000  0  8  3  6  7  8 11 19 25 27
 -14369939.71907  20432921.05107 -10954451.00847  20432917.36347
  -2740089.55106  21714471.75406  -2059283.38747  21714469.12147
 -19061387.69507  19580551.67607 -14844771.98448  19580547.38748
  -8578746.44106  21388788.48106  -6676910.14147  21388785.48847
  -8140935.00807  20508817.72307  -6007978.03148  20508813.70348
 -20370495.48007  19278813.67607 -15442982.19149  19278808.19549
 -19486414.91407  19993991.94107 -15176258.77348  19993989.40248
 -11924558.05507  20490899.86307  -9284603.25848  20490896.89848
 08 11 15  3  7 59.9960000  0  8  3  6  7  8 11 19 25 27
 -14296921.87107  20446816.16807 -10897554.01247  20446811.65247
  -2664104.84405  21728929.90205  -2000074.56647  21728928.28147
 -19062116.23007  19580412.94907 -14845339.68448  19580408.50448
  -8662091.99207  21372929.33207  -6741854.74247  21372926.51247
  -8232075.74206  20491473.94906  -6078996.78948  20491469.41048
 -20340287.28507  19284561.94907 -15419443.36349  19284556.23849
 -19447096.55507  20001473.95707 -15145621.10248  20001470.94948
 -11954422.85207  20485216.63707  -9307874.54348  20485214.19548
 08 11 15  3  8 29.9960000  0  8  3  6  7  8 11 19 25 27
 -14223750.56306  20460740.30106 -10840537.43047  20460736.02047
  -2588055.69904  21743401.38704  -1940815.56347  21743399.94947
 -19062223.57807  19580392.28507 -14845423.33648  19580388.75448
  -8745008.53906  21357150.91006  -6806465.03147  21357147.41847
  -8322869.73406  20474196.00406  -6149745.33647  20474192.39847
 -20309778.63307  19290367.85607 -15395670.39549  19290362.81349
 -19407262.08607  20009054.93407 -15114581.26248  20009051.05548
 -11983768.12507  20479632.74607  -9330741.02048  20479629.74648
 08 11 15  3  8 59.9960000  0  8  3  6  7  8 11 19 25 27
 -14150426.61707  20474693.36307 -10783401.90247  20474688.84847
  -2511942.77705  21757885.09005  -1881506.79346  21757882.69546
 -19061709.19107  19580490.21507 -14845022.53148  19580487.40248
  -8827492.39506  21341455.18406  -6870738.21147  21341451.62547
  -8413314.45306  20456985.47306  -6220221.68048  20456981.35248
 -20278970.67207  19296230.51207 -15371664.19549  19296224.88749
 -19366912.20307  20016732.40207 -15083139.79748  20016729.49648
 -12012592.07407  20474148.02707  -9353201.24248  20474145.22348
 08 11 15  3  9 29.9960000  0  8  3  6  7  8 11 19 25 27
 -14076948.47306  20488675.27006 -10726146.23047  20488672.47347
  -2435764.10204  21772381.25404  -1822146.79346  21772378.55546
 -19060570.28107  19580707.06607 -14844135.09048  19580703.79348
  -8909538.23806  21325841.13706  -6934670.00847  21325838.38347
  -8503404.90606  20439842.25406  -6290422.02048  20439838.04748
 -20247861.89507  19302150.08207 -15347423.59449  19302144.91449
 -19326045.55507  20024508.94107 -15051295.66847  20024505.06647
 -12040890.80507  20468762.59007  -9375252.21148  20468760.47748
 08 11 15  3  9 59.9960000  0  8  3  6  7  8 11 19 25 27
 -14003321.33606  20502686.26206 -10668774.47347  20502683.75447
  -2359524.29305  21786889.84805  -1762739.19546  21786886.91446
 -19058810.42207  19581041.56607 -14842763.76248  19581038.38748
  -8991146.88306  21310312.02006  -6998261.11747  21310308.93847
  -8593142.53906  20422765.37106  -6360347.44548  20422761.18048
 -20216457.93007  19308126.17607 -15322952.95349  19308121.14149
 -19284667.46507  20032383.75407 -15019052.99648  20032379.37148
 -12068667.27007  20463476.87107  -9396896.23048  20463474.17248
 08 11 15  3 10 29.9960000  0  8  3  6  7  8 11 19 25 27
 -13929546.44106  20516724.91006 -10611287.54747  20516723.30547
  -2283224.14506  21801409.19906  -1703284.53147  21801407.12947
 -19056429.29307  19581495.02707 -14840908.32848  19581491.50848
  -9072315.23806  21294866.05906  -7061509.22347  21294862.55547
  -8682525.13706  20405755.82406  -6429996.20348  20405751.78148
 -20184759.76607  19314157.97307 -15298253.06649  19314152.82849
 -19242779.01207  20040355.00407 -14986412.66048  20040351.64848
 -12095919.95707  20458291.02707  -9418132.07848  20458288.36348
 08 11 15  3 10 59.9960000  0  8  3  6  7  8 11 19 25 27
 -13855625.97706  20530791.19906 -10553687.19147  20530789.26247
  -2206865.43005  21815939.16805  -1643784.26246  21815938.46546
 -19053428.00807  19582065.98107 -14838569.67248  19582063.17248
  -9153041.56307  21279504.11307  -7124412.84047  21279501.75447
  -8771551.41806  20388814.48106  -6499367.30548  20388811.10648
 -20152769.94107  19320245.37107 -15273325.93848  19320240.22348
 -19200382.60507  20048422.35607 -14953376.53548  20048419.89548
 -12122648.59407  20453204.69107  -9438959.57048  20453201.87548
 08 11 15  3 11 29.9960000  0  8  3  6  7  8 11 19 25 27
 -13781561.12907  20544885.54307 -10495974.37147  20544883.47747
  -2130449.17206  21830481.05906  -1584239.16847  21830479.68047
 -19049806.36307  19582755.26207 -14835747.61348  19582751.85248
  -9233323.03107  21264228.30107  -7186969.85548  21264224.99648
  -8860219.37506  20371941.31606  -6568459.18048  20371938.52048
 -20120489.86307  19326388.26207 -15248172.63349  19326382.70749
 -19157479.81607  20056586.22307 -14919945.83648  20056583.57448
 -12148852.24606  20448218.23106  -9459377.99648  20448215.44548
 08 11 15  3 11 59.9960000  0  8  3  6  7  8 11 19 25 27
 -13707354.99607  20559007.16807 -10438151.43047  20559004.76647
  -2053977.54706  21845033.59006  -1524650.91847  21845031.35947
 -19045566.20707  19583562.94907 -14832443.59848  19583558.91848
  -9313158.18806  21249035.15206  -7249179.02347  21249032.09447
  -8948528.30507  20355137.30107  -6637271.32848  20355133.45748
 -20087922.52307  19332585.80107 -15222795.51248  19332580.15648
 -19114073.41006  20064846.55106 -14886122.67648  20064844.13348
 -12174531.24606  20443331.25406  -9479387.60248  20443329.21148
 08 11 15  3 12 29.9960000  0  8  3  6  7  8 11 19 25 27
 -13633005.75407  20573155.76207 -10380216.95747  20573153.24647
  -1977449.02706  21859596.12106  -1465018.32447  21859594.29347
 -19040704.52307  19584487.96507 -14828655.28948  19584484.20748
  -9392541.54707  21233928.91807  -7311036.17647  21233925.46947
  -9036473.49206  20338401.75406  -6705800.05148  20338397.77048
 -20055066.76607  19338837.74607 -15197193.64549  19338832.39849
 -19070162.50007  20073202.37107 -14851906.40247  20073199.66447
 -12199682.14507  20438545.11307  -9498985.72748  20438542.71948
 08 11 15  3 12 59.9960000  0  8  3  6  7  8 11 19 25 27
 -13558513.80107  20587330.83207 -10322171.30547  20587327.80547
  -1900863.54706  21874169.88706  -1405341.39147  21874168.09447
 -19035220.84807  19585530.56607 -14824382.31348  19585527.55548
  -9471469.62106  21218909.95706  -7372538.54347  21218906.06347
  -9124052.21107  20321736.44107  -6774043.18848  20321733.00448
 -20021923.54707  19345144.75407 -15171367.77048  19345139.65648
 -19025747.74606  20081653.74606 -14817297.50447  20081651.06347
 -12224303.10907  20433860.02707  -9518170.88348  20433857.14848
 08 11 15  3 13 29.9960000  0  8  3  6  7  8 11 19 25 27
 -13483880.52006  20601532.92606 -10264015.52347  20601530.30147
  -1824221.71106  21888754.59006  -1345620.52047  21888752.25447
 -19029115.04307  19586693.17607 -14819624.55548  19586689.61348
  -9549939.60507  21203977.31607  -7433683.94548  21203974.95748
  -9211262.27307  20305140.96507  -6841999.04348  20305137.91848
 -19988494.21107  19351506.21507 -15145318.95349  19351501.14149
 -18980830.58606  20090201.02706 -14782297.12547  20090198.67247
 -12248392.98007  20429275.94107  -9536942.21148  20429272.12148
 08 11 15  3 13 59.9960000  0  8  3  6  7  8 11 19 25 27
 -13409108.61306  20615761.66006 -10205751.73447  20615758.59847
  -1747525.93006  21903349.34006  -1285857.61347  21903347.03147
 -19022388.90607  19587973.46507 -14814383.41848  19587969.11748
  -9627949.61306  21189132.88706  -7494471.00447  21189129.58247
  -9298102.73807  20288615.83207  -6909666.89548  20288612.45748
 -19954781.30907  19357921.27707 -15119049.16448  19357915.62548
 -18935413.82006  20098843.94906 -14746907.44547  20098840.30947
 -12271952.09806  20424792.66806  -9555299.95348  20424790.03948
 08 11 15  3 14 29.9960000  0  8  3  6  7  8 11 19 25 27
 -13334204.48007  20630015.42607 -10147384.91447  20630012.95347
  -1670782.19506  21917953.06606  -1226057.34047  21917949.01247
 -19015047.59807  19589369.87907 -14808662.92248  19589366.86748
  -9705502.56306  21174374.66806  -7554901.88347  21174371.94547
  -9384576.61707  20272160.52707  -6977049.13748  20272156.35948
 -19920791.71907  19364389.66807 -15092563.78549  19364383.77049
 -18889504.44907  20107580.70707 -14711133.91047  20107577.05947
 -12294984.73406  20420410.31606  -9573247.51648  20420407.48448
 08 11 15  3 14 59.9960000  0  8  3  6  7  8 11 19 25 27
 -13259171.04706  20644294.02706 -10088917.32847  20644292.02347
  -1593993.19906  21932566.04306  -1166221.75847  21932561.74247
 -19007093.35907  19590883.19107 -14802464.81648  19590880.41848
  -9782597.41806  21159703.59006  -7614975.77047  21159700.94947
  -9470684.03907  20255774.19107  -7044145.79748  20255770.02748
 -19886528.85207  19370909.45707 -15065865.44949  19370904.29749
 -18843105.97307  20116409.69107 -14674979.25847  20116406.68847
 -12317492.07407  20416127.29307  -9590785.68848  20416124.32048
 08 11 15  3 15 29.9960000  0  8  3  6  7  8 11 19 25 27
 -13184009.66806  20658596.84006 -10030350.00447  20658594.87147
  -1517159.96906  21947186.80906  -1106351.76247  21947184.14147
 -18998526.23407  19592513.87907 -14795789.15648  19592510.93048
  -9859231.13306  21145120.91006  -7674690.37947  21145118.47747
  -9556422.88707  20239458.90207  -7110955.30548  20239454.60648
 -19851994.09807  19377481.40207 -15038955.24649  19377476.17649
 -18796219.89106  20125331.17606 -14638444.69147  20125329.50847
 -12339473.05907  20411944.54307  -9607913.74248  20411941.70348
 08 11 15  3 15 59.9960000  0  8  3  6  7  8 11 19 25 27
 -13108717.70706  20672924.38706  -9971680.96547  20672922.18447
  -1440279.35506  21961816.77006  -1046444.87547  21961814.88747
 -18989342.79307  19594261.66007 -14788633.22348  19594258.10948
  -9935397.82006  21130627.11306  -7734041.02747  21130625.23847
  -9641787.38707  20223214.60607  -7177473.08248  20223211.24248
 -19817185.19107  19384105.09807 -15011831.42649  19384100.06349
 -18748844.21106  20134347.30906 -14601528.60547  20134344.31647
 -12360923.17207  20407862.74607  -9624628.11348  20407859.95348
 08 11 15  3 16 29.9960000  0  8  3  6  7  8 11 19 25 27
 -13033305.69507  20687274.80107  -9912918.35947  20687272.87547
  -1363361.46506  21976454.02706   -986508.92647  21976451.73847
 -18979552.52307  19596124.36307 -14781004.45748  19596121.57448
 -10011103.64506  21116219.98106  -7793032.57847  21116217.41047
  -9726784.73007  20207040.61307  -7243704.76648  20207037.20348
 -19782113.02007  19390779.19907 -14984502.46549  19390774.14149
 -18700989.64506  20143454.18406 -14564239.34447  20143450.64547
 -12381850.59807  20403879.99607  -9640935.21948  20403877.28148
 08 11 15  3 16 59.9960000  0  8  3  6  7  8 11 19 25 27
 -12957778.45707  20701647.18407  -9854065.98847  20701645.39147
  -1286410.66806  21991097.29306   -926547.30946  21991094.36346
 -18969159.17207  19598102.24607 -14772905.74248  19598098.69148
 -10086349.06306  21101902.71506  -7851665.37147  21101898.48147
  -9811416.24207  20190935.21507  -7309651.37548  20190932.41848
 -19746782.53107  19397502.35607 -14956972.22349  19397497.46549
 -18652661.68406  20152650.12106 -14526581.20347  20152647.12947
 -12402258.30907  20399996.84807  -9656837.34448  20399993.65648
 08 11 15  3 17 29.9960000  0  8  3  6  7  8 11 19 25 27
 -12882139.66807  20716040.99607  -9795126.72347  20716039.09447
  -1209430.57806  22005745.74606   -866562.82046  22005741.93446
 -18958165.89507  19600194.37107 -14764339.56348  19600190.30148
 -10161134.43007  21087670.73807  -7909939.68447  21087667.35647
  -9895682.93407  20174899.77707  -7375313.71548  20174896.71948
 -19711198.00407  19404274.20707 -14929244.02749  19404268.93849
 -18603864.47706  20161935.79306 -14488557.41047  20161933.67247
 -12422148.04707  20396211.50407  -9672335.84848  20396208.64848
 08 11 15  3 17 59.9960000  0  8  3  6  7  8 11 19 25 27
 -12806385.25806  20730456.39506  -9736097.35547  20730453.25447
  -1132416.47705  22020401.77005   -806551.83246  22020398.86346
 -18946567.84807  19602401.76207 -14755302.13348  19602397.30148
 -10235451.87107  21073528.19907  -7967849.35547  21073526.21547
  -9979577.60207  20158934.85607  -7440686.19548  20158931.56648
 -19675355.27707  19411094.20707 -14901314.63348  19411089.12948
 -18554594.69506  20171311.52706 -14450165.37147  20171309.44947
 -12441513.92207  20392526.59007  -9687426.15248  20392523.87548
 08 11 15  3 18 29.9960000  0  8  3  6  7  8 11 19 25 27
 -12730518.69506  20744893.25406  -9676980.55147  20744888.74247
  -1055371.52306  22035063.27706   -746516.88747  22035060.86347
 -18934367.46107  19604723.29307 -14745795.35548  19604719.33248
 -10309300.38706  21059475.53506  -8025393.62947  21059472.69947
 -10063099.92207  20143041.52707  -7505768.52348  20143038.13348
 -19639258.10907  19417963.05107 -14873186.98848  19417957.92248
 -18504856.02006  20180776.08206 -14411407.96947  20180773.62147
 -12460357.06607  20388940.84807  -9702109.12948  20388937.55548
 08 11 15  3 18 59.9960000  0  8  3  6  7  8 11 19 25 27
 -12654538.12506  20759351.30906  -9617774.94147  20759348.56347
   -978293.46506  22049730.50406   -686456.13747  22049728.57447
 -18921562.48807  19607160.05907 -14735817.44148  19607156.34048
 -10382674.87506  21045512.67606  -8082568.55547  21045509.22347
 -10146245.62907  20127219.19107  -7570557.36348  20127215.88348
 -19602905.57807  19424881.00407 -14844860.36348  19424875.31348
 -18454647.52706  20190330.60606 -14372284.46147  20190327.85647
 -12478673.88307  20385455.15207  -9716381.98448  20385452.92648
 08 11 15  3 19 29.9960000  0  8  3  6  7  8 11 19 25 27
 -12578448.10506  20773830.57406  -9558484.04747  20773828.60247
   -901186.43005  22064403.42605   -626372.75846  22064401.48446
 -18908156.25807  19609710.66807 -14725371.04748  19609707.12148
 -10455575.50007  21031641.04307  -8139374.25447  21031637.17647
 -10229015.70707  20111468.55107  -7635053.48448  20111464.91848
 -19566302.00007  19431847.05107 -14816338.12548  19431841.10648
 -18403974.13306  20199973.15206 -14332798.69547  20199970.21947
 -12496466.78507  20382069.52007  -9730246.60948  20382066.64148
 08 11 15  3 19 59.9960000  0  8  3  6  7  8 11 19 25 27
 -12502245.37906  20788331.63706  -9499105.32447  20788328.91047
   -824046.28104  22079082.12904   -566263.60546  22079080.33246
 -18894144.84007  19612376.70707 -14714453.07848  19612373.41848
 -10527995.43006  21017859.62106  -8195805.35947  21017857.57847
 -10311402.95707  20095790.99607  -7699251.32848  20095786.34448
 -19529443.94907  19438860.91807 -14787617.57448  19438855.80948
 -18352832.91806  20209705.16806 -14292948.41447  20209702.40647
 -12513730.56607  20378784.44907  -9743698.91448  20378780.86748
 08 11 15  3 20 29.9960000  0  8  3  6  7  8 11 19 25 27
 -12425931.24206  20802854.20706  -9439639.77747  20802851.45747
   -746874.53104  22093767.51204   -506129.91046  22093765.32046
 -18879528.92607  19615158.64507 -14703064.07448  19615155.37948
 -10599932.38707  21004170.20707  -8251860.09448  21004168.00848
 -10393406.61707  20080186.48107  -7763150.27348  20080181.84048
 -19492333.51607  19445922.57407 -14758700.35548  19445917.28148
 -18301226.57006  20219525.89506 -14252735.68447  20219522.60647
 -12530465.20707  20375600.16807  -9756738.89548  20375595.99248
 08 11 15  3 20 59.9960000  0  8  3  6  7  8 11 19 25 27
 -12349502.77006  20817397.55106  -9380085.17647  20817395.08247
   -669667.82003  22108460.14503   -445968.88746  22108456.71946
 -18864305.36707  19618055.32407 -14691201.56348  19618052.45348
 -10671379.50006  20990573.98106  -8307533.18447  20990572.32447
 -10475020.63707  20064655.63707  -7826745.60547  20064651.61747
 -19454968.09807  19453033.06607 -14729584.44949  19453028.01649
 -18249152.39806  20229434.47306 -14212158.44147  20229432.00047
 -12546665.66007  20372517.14507  -9769362.61348  20372513.76248
 08 11 15  3 21 29.9960000  0  8  3  6  7  8 11 19 25 27
 -12272968.84006  20831962.05106  -9320448.37947  20831959.54347
   -592434.29304  22123156.71504   -385786.89846  22123154.03546
 -18848482.04307  19621066.31607 -14678871.72348  19621063.82448
 -10742341.45306  20977070.18406  -8362828.20347  20977067.61747
 -10556250.64107  20049197.81607  -7890041.69548  20049194.24648
 -19417356.83607  19460190.28507 -14700276.97749  19460185.64849
 -18196619.77006  20239432.00406 -14171224.00847  20239428.71947
 -12562338.80507  20369534.37907  -9781575.46948  20369531.93048
 08 11 15  3 21 59.9960000  0  8  3  6  7  8 11 19 25 27
 -12196329.87506  20846546.24606  -9260729.74647  20846543.40647
   -515174.42204  22137858.21504   -325584.44546  22137857.18446
 -18832059.05107  19624191.95707 -14666074.59848  19624188.55548
 -10812815.49606  20963659.69906  -8417743.04747  20963657.44147
 -10637094.18407  20033814.05907  -7953036.64148  20033810.42648
 -19379500.81607  19467393.79307 -14670778.78149  19467389.27749
 -18143630.40606  20249516.52706 -14129933.62147  20249512.11347
 -12577483.78907  20366652.59007  -9793376.74648  20366649.75448
 08 11 15  3 22 29.9960000  0  8  3  6  7  8 11 19 25 27
 -12119585.25406  20861149.80106  -9200928.79747  20861147.75447
   -437886.93802  22152564.98102   -265360.47746  22152565.38346
 -18815035.18407  19627431.44107 -14652809.25048  19627427.74248
 -10882797.18406  20950342.41006  -8472274.24247  20950340.29747
 -10717547.67607  20018504.47307  -8015727.68448  20018501.27048
 -19341399.80907  19474644.33207 -14641089.68449  19474639.05549
 -18090184.19906  20259686.60606 -14088287.20747  20259682.08647
 -12592098.13307  20363871.43407  -9804764.54348  20363869.27748
 08 11 15  3 22 59.9960000  0  8  3  6  7  8 11 19 25 27
 -12042741.59806  20875773.34806  -9141050.66847  20875770.68847
   -360578.51204  22167276.52704   -205120.15646  22167277.02346
 -18797416.84407  19630784.01207 -14639080.66848  19630780.39548
 -10952289.50807  20937118.55107  -8526424.10247  20937115.50047
 -10797615.00807  20003267.86307  -8078117.81348  20003264.54748
 -19303060.50807  19481940.15207 -14611214.93449  19481934.19549
 -18036288.82406  20269941.48806 -14046290.81347  20269937.90247
 -12606186.83207  20361189.99607  -9815742.76248  20361188.48448
 08 11 15  3 23 29.9960000  0  8  3  6  7  8 11 19 25 27
 -11965796.01606  20890415.02006  -9081093.14547  20890412.20747
   -283245.37904  22181992.97304   -144860.63346  22181992.64546
 -18779200.49207  19634250.15207 -14624886.12148  19634247.43448
 -11021285.58606  20923989.56606  -8580187.28548  20923986.69548
 -10877289.91007  19988105.69907  -8140202.13348  19988103.07048
 -19264480.55107  19489281.57407 -14581152.64149  19489276.57049
 -17981941.99206  20280283.34006 -14003942.66447  20280280.55547
 -12619745.38706  20358610.14506  -9826307.88748  20358607.23148
 08 11 15  3 23 59.9960000  0  8  3  6  7  8 11 19 25 27
 -11888752.05507  20905076.78507  -9021058.91447  20905072.78947
   -205890.82805  22196712.65205    -84584.39146  22196711.87146
 -18760389.34407  19637829.19907 -14610228.09448  19637826.43848
 -11089785.81606  20910953.44906  -8633564.02347  20910951.82847
 -10956573.02707  19973018.91807  -8201981.15648  19973015.46148
 -19225663.55107  19496668.20707 -14550905.63748  19496663.48848
 -17927148.05506  20290709.80106 -13961246.12147  20290708.29747
 -12632775.56307  20356130.74607  -9836461.27348  20356127.35248
 08 11 15  3 24 29.9960000  0  8  3  6  7  8 11 19 25 27
 -11811611.26206  20919755.55106  -8960949.24247  20919752.27047
   -128515.75805  22211438.11305    -24292.14847  22211436.21147
 -18740984.28107  19641522.48807 -14595107.28148  19641518.68848
 -11157787.63306  20898012.81606  -8686552.45747  20898010.54347
 -11035462.55507  19958007.16807  -8263453.53148  19958001.83648
 -19186611.47707  19504099.59007 -14520475.45348  19504094.65648
 -17871909.30105  20301221.73105 -13918202.98847  20301219.44947
 -12645277.16007  20353751.95707  -9846202.78948  20353748.24648
 08 11 15  3 24 59.9960000  0  8  3  6  7  8 11 19 25 27
 -11734372.27706  20934453.17606  -8900763.04347  20934451.42247
    -51118.41805  22226166.16005     36017.42247  22226164.96947
 -18720983.67207  19645328.84807 -14579522.39148  19645324.76648
 -11225286.01606  20885168.98106  -8739148.60247  20885165.85947
 -11113954.44507  19943070.58207  -8324616.04748  19943065.66048
 -19147323.22707  19511575.77707 -14489861.24248  19511569.78548
 -17816225.14806  20311818.98806 -13874812.75847  20311816.06347
 -12657247.02007  20351474.30107  -9855529.94548  20351471.17248
 08 11 15  3 25 29.9960000  0  8  3  6  7  8 11 19 25 27
 -11657035.32806  20949169.99606  -8840500.53147  20949169.05947
     26301.01205  22240898.23105     96344.19146  22240897.16846
 -18700387.26207  19649247.90207 -14563473.23048  19649244.58648
 -11292277.88307  20872421.34007  -8791350.03548  20872418.61748
 -11192046.22307  19928209.87107  -8385466.78148  19928205.24248
 -19107799.24607  19519097.12907 -14459063.35248  19519091.32848
 -17760096.99206  20322500.01206 -13831076.53547  20322496.80547
 -12668684.19907  20349297.83207  -9864442.05148  20349295.12548
 08 11 15  3 25 59.9960000  0  8  3  6  7  8 11 19 25 27
 -11579597.19905  20963905.93405  -8780159.18447  20963904.71947
    103746.22305  22255635.61305    156691.02346  22255633.80946
 -18679192.18407  19653280.87107 -14546957.60948  19653277.84848
 -11358756.30506  20859770.64506  -8843151.37948  20859768.27348
 -11269731.90207  19913426.28507  -8446001.05948  19913422.55548
 -19068037.02007  19526663.38707 -14428079.80948  19526658.12548
 -17703522.55106  20333266.00406 -13786992.56347  20333262.71147
 -12679584.30107  20347223.52707  -9872935.66048  20347220.75048
 08 11 15  3 26 29.9960000  0  8  3  6  7  8 11 19 25 27
 -11502056.12106  20978661.28506  -8719737.59847  20978659.75447
    181219.53105  22270378.84805    217059.78546  22270375.10646
 -18657395.86707  19657429.03507 -14529973.50048  19657425.36748
 -11424715.65206  20847218.66806  -8894548.29748  20847216.27748
 -11347006.69907  19898721.91007  -8506215.12948  19898718.32848
 -19028035.09407  19534275.96507 -14396909.49248  19534269.67248
 -17646500.97706  20344117.38706 -13742560.16447  20344112.93447
 -12689943.85507  20345252.17607  -9881008.03148  20345248.73148
 08 11 15  3 26 59.9960000  0  8  3  6  7  8 11 19 25 27
 -11424413.11706  20993436.62106  -8659236.57047  20993434.50847
    258720.10205  22285126.58205    277449.84846  22285122.58246
 -18634999.10507  19661691.02707 -14512521.47748  19661687.07448
 -11490153.75006  20834766.23806  -8945539.00848  20834764.29748
 -11423868.88707  19884095.49607  -8566107.72748  19884091.66848
 -18987795.02307  19541933.05907 -14365553.59848  19541927.21148
 -17589034.34805  20355051.98805 -13697780.95747  20355048.52747
 -12699762.38307  20343383.84007  -9888658.82048  20343381.23448
 08 11 15  3 27 29.9960000  0  8  3  6  7  8 11 19 25 27
 -11346670.64806  21008230.94906  -8598658.02047  21008228.61747
    336245.81606  22299878.66006    337859.49646  22299876.13346
 -18612004.69107  19666067.06607 -14494603.75848  19666063.21548
 -11555069.87506  20822413.34006  -8996123.00448  20822410.48848
 -11500318.08207  19869547.35607  -8625678.55148  19869543.41448
 -18947319.54707  19549635.04307 -14334014.26248  19549629.73848
 -17531126.04705  20366070.32405 -13652657.62146  20366068.12146
 -12709040.87507  20341617.80907  -9895888.82848  20341616.00048
 08 11 15  3 27 59.9960000  0  8  3  6  7  8 11 19 25 27
 -11268827.54706  21023042.69906  -8538001.07047  21023042.66847
    413798.43005  22314635.84805    398290.05146  22314633.86346
 -18588411.09807  19670556.99607 -14476219.14548  19670552.75048
 -11619459.16006  20810160.55906  -9046296.48048  20810157.96948
 -11576350.28506  19855078.85606  -8684924.44148  19855076.05148
 -18906607.93407  19557382.22307 -14302290.94548  19557377.81348
 -17472775.89506  20377175.19906 -13607190.02746  20377171.87146
 -12717776.84807  20339955.69907  -9902696.06648  20339953.99648
 08 11 15  3 28 29.9960000  0  8  3  6  7  8 11 19 25 27
 -11190885.84806  21037875.68406  -8477267.33247  21037874.40647
    491375.96105  22329398.48105    458740.00846  22329397.24646
 -18564220.41807  19675159.71507 -14457369.27348  19675156.85248
 -11683320.46107  20798007.74607  -9096058.50048  20798005.05548
 -11651964.88307  19840689.87907  -8743844.85948  19840687.16848
 -18865662.57007  19565174.04307 -14270385.48049  19565169.01649
 -17413987.32406  20388362.50406 -13561380.76246  20388358.28146
 -12725971.03907  20338396.59807  -9909081.14848  20338394.50048
 08 11 15  3 28 59.9960000  0  8  3  6  7  8 11 19 25 27
 -11112848.12106  21052725.84806  -8416458.73447  21052724.69947
    568976.92605  22344166.30905    519208.23046  22344164.73846
 -18539434.53507  19679876.36307 -14438055.61348  19679872.96148
 -11746652.05106  20785956.43406  -9145407.80948  20785953.66848
 -11727161.14507  19826381.33207  -8802439.35248  19826376.93448
 -18824485.88307  19573009.75407 -14238299.75849  19573004.88749
 -17354763.27006  20399632.42606 -13515232.14846  20399628.12146
 -12733624.09007  20336939.85607  -9915044.57048  20336937.70348
 08 11 15  3 29 29.9960000  0  8  3  6  7  8 11 19 25 27
 -11034720.06606  21067592.74606  -8355579.75847  21067591.93047
    646595.55505  22358936.62105    579690.19547  22358935.33647
 -18514059.52307  19684705.29307 -14418282.88748  19684701.93848
 -11809456.62106  20774005.09006  -9194346.40648  20774002.41848
 -11801942.46907  19812150.66007  -8860710.53548  19812146.50048
 -18783084.42607  19580887.86307 -14206038.88749  19580883.39149
 -17295110.79306  20410984.03506 -13468749.70346  20410979.87546
 -12740740.95707  20335585.64507  -9920590.16848  20335583.34048
 08 11 15  3 29 59.9960000  0  8  3  6  7  8 11 19 25 27
 -10956505.05906  21082476.91006  -8294633.06647  21082475.57447
    724228.82805  22373709.05105    640183.62946  22373708.90646
 -18488098.73007  19689645.07407 -14398053.71548  19689642.07448
 -11871734.47306  20762154.31606  -9242874.60948  20762151.80548
 -11876309.73807  19797998.69107  -8918659.03148  19797995.18848
 -18741461.78907  19588808.64507 -14173605.68449  19588804.10249
 -17235034.74606  20422416.26206 -13421937.23447  20422412.48447
 -12747323.63306  20334332.35606  -9925719.55948  20334330.39148
 08 11 15  3 30 29.9960000  0  8  3  6  7  8 11 19 25 27
 -10878201.46106  21097377.24606  -8233617.27747  21097375.96547
    801878.44105  22388485.29305    700689.73846  22388484.63746
 -18461550.96907  19694697.06607 -14377367.14848  19694693.59848
 -11933480.79306  20750404.62906  -9290988.62548  20750401.87148
 -11950258.62107  19783926.94907  -8976281.51248  19783923.34048
 -18699617.47707  19596771.65207 -14140999.73449  19596766.92249
 -17174534.82406  20433928.77706 -13374794.48847  20433926.21547
 -12753369.56607  20333181.94907  -9930430.70348  20333180.28548
 08 11 15  3 30 59.9960000  0  8  3  6  7  8 11 19 25 27
 -10799811.69106  21112295.45706  -8172534.36747  21112292.70347
    879543.06606  22403264.96506    761207.59047  22403263.19547
 -18434417.69907  19699860.31607 -14356224.34848  19699856.81348
 -11994693.85507  20738755.72307  -9338687.10248  20738752.71948
 -12023788.00007  19769934.79307  -9033577.12948  19769930.85248
 -18657553.57407  19604775.74607 -14108222.68848  19604770.57848
 -17113613.82006  20445522.16006 -13327323.55947  20445518.60647
 -12758879.19507  20332133.97307  -9934723.93448  20332130.93848
 08 11 15  3 31 29.9960000  0  8  3  6  7  8 11 19 25 27
 -10721329.09406  21127229.47306  -8111379.10547  21127228.28947
    957229.32806  22418049.23806    821742.31647  22418046.82447
 -18406693.06307  19705136.02007 -14334620.74648  19705132.80548
 -12055363.89807  20727210.35607  -9385962.46148  20727207.59448
 -12096889.56607  19756023.79307  -9090539.39148  19756020.39848
 -18615263.75807  19612823.29307 -14075269.60548  19612817.90248
 -17052266.68806  20457195.37906 -13279520.57846  20457191.60246
 -12763845.20307  20331189.10607  -9938593.55148  20331185.48848
 08 11 15  3 31 59.9960000  0  8  3  6  7  8 11 19 25 27
 -10642758.49206  21142180.62106  -8050155.25047  21142179.45747
   1034932.61306  22432835.35606    882290.30547  22432833.39547
 -18378382.10507  19710523.84007 -14312560.27348  19710520.51248
 -12115493.02707  20715768.23807  -9432816.32448  20715766.07848
 -12169565.29307  19742193.49607  -9147169.80148  19742191.22348
 -18572753.57807  19620912.65207 -14042144.79748  19620907.75448
 -16990499.69905  20468949.02005 -13231390.46947  20468947.36347
 -12768271.44506  20330346.55106  -9942042.59048  20330343.75448
 08 11 15  3 32 29.9960000  0  8  3  6  7  8 11 19 25 27
 -10564101.34006  21157149.32406  -7988864.00847  21157147.89147
   1112652.22706  22447624.17606    942851.01247  22447622.71947
 -18349486.37907  19716022.38707 -14290044.12548  19716019.27048
 -12175079.19907  20704429.84007  -9479247.10548  20704426.69548
 -12241813.90607  19728445.04307  -9203467.39848  19728442.38348
 -18530024.96107  19629043.96507 -14008849.80148  19629038.40248
 -16928315.29305  20480783.12905 -13182935.12146  20480780.85246
 -12772158.11307  20329607.93407  -9945071.18848  20329604.54748
 08 11 15  3 32 59.9960000  0  8  3  6  7  8 11 19 25 27
 -10485358.65206  21172133.38706  -7927506.12547  21172132.73847
   1190387.19506  22462416.52006   1003423.65647  22462415.96547
 -18320006.93807  19721632.02007 -14267073.14148  19721629.12548
 -12234120.13706  20693194.65206  -9525253.04348  20693191.73448
 -12313633.78907  19714778.91007  -9259430.93848  19714775.79348
 -18487079.47707  19637216.27707 -13975385.81348  19637211.22748
 -16865715.89105  20492695.22305 -13134156.42646  20492692.84046
 -12775505.38307  20328970.37907  -9947679.44548  20328967.46948
 08 11 15  3 33 29.9960000  0  8  3  6  7  8 11 19 25 27
 -10406540.32406  21187132.82406  -7866089.30147  21187131.13347
   1268128.43005  22477210.40205   1064001.20346  22477209.54746
 -18289953.74207  19727351.46507 -14243655.05948  19727348.25448
 -12292622.34807  20682061.49607  -9570839.12948  20682058.65248
 -12385032.27307  19701191.84007  -9315066.12948  19701188.57848
 -18443926.93807  19645428.28507 -13941760.46548  19645422.99648
 -16802712.35206  20504684.11306 -13085062.73447  20504682.30947
 -12778321.60207  20328434.44907  -9949873.89548  20328431.59848
 08 11 15  3 33 59.9960000  0  8  3  6  7  8 11 19 25 27
 -10327650.44906  21202144.54306  -7804616.69947  21202142.35947
   1345871.88706  22492004.77706   1124580.51246  22492003.26246
 -18259331.37107  19733178.07407 -14219793.47748  19733175.12148
 -12350586.61306  20671031.22306  -9616006.11348  20671029.18848
 -12456010.98007  19687685.10607  -9370374.18848  19687681.29748
 -18400572.04707  19653678.14507 -13907977.43448  19653673.51648
 -16739310.04705  20516748.59805 -13035658.39547  20516748.17647
 -12780609.91407  20327998.62907  -9951656.99248  20327996.79748
 08 11 15  3 34 29.9960000  0  8  3  6  7  8 11 19 25 27
 -10248691.11706  21217169.15206  -7743089.97747  21217167.74647
   1423615.72705  22506799.48805   1185160.09046  22506797.54346
 -18228142.29307  19739113.77707 -14195490.30548  19739110.31348
 -12408012.04307  20660103.69907  -9660753.19948  20660101.47348
 -12526569.60507  19674258.94907  -9425354.91448  19674254.53948
 -18357017.28107  19661965.92607 -13874038.66448  19661960.95748
 -16675512.84005  20528889.09005 -12985946.34046  20528887.20746
 -12782371.74207  20327663.37907  -9953029.85948  20327661.07048
 08 11 15  3 34 59.9960000  0  8  3  6  7  8 11 19 25 27
 -10169659.22706  21232208.81606  -7681506.73447  21232207.00447
   1501364.11705  22521594.04305   1245743.21546  22521592.73146
 -18196383.26207  19745157.02707 -14170743.00848  19745153.44948
 -12464892.27707  20649279.60607  -9705075.43448  20649276.92648
 -12596701.84007  19660912.87907  -9480003.39548  19660909.32448
 -18313259.93407  19670292.64507 -13839942.04748  19670287.50848
 -16611318.31305  20541105.45705 -12935924.66046  20541102.25046
 -12783602.31607  20327429.36307  -9953988.75048  20327426.62948
 08 11 15  3 35 29.9960000  0  8  3  6  7  8 11 19 25 27
 -10090556.08206  21247263.09006  -7619867.98047  21247259.80547
   1579115.62105  22536388.91005   1306328.71946  22536387.80946
 -18164056.32806  19751308.62906 -14145553.19548  19751305.23148
 -12521225.49606  20638560.27706  -9748971.48848  20638557.03948
 -12666407.20307  19647648.38707  -9534319.24248  19647644.80548
 -18269301.75007  19678657.67607 -13805688.93048  19678653.02048
 -16546729.55505  20553396.87105 -12885595.75447  20553393.30947
 -12784302.31307  20327296.19107  -9954534.19148  20327293.65648
 08 11 15  3 35 59.9960000  0  8  3  6  7  8 11 19 25 27
 -10011379.55506  21262329.50406  -7558172.02347  21262327.00047
   1656872.87505  22551186.08205   1366918.70346  22551184.27046
 -18131159.87907  19757568.30107 -14119919.59848  19757564.51248
 -12577006.60207  20627945.53507  -9792437.28548  20627942.93048
 -12735680.84807  19634466.86307  -9588298.71948  19634462.44548
 -18225141.03107  19687061.16007 -13771277.97348  19687056.88348
 -16481745.78104  20565761.53504 -12834959.06646  20565759.35946
 -12784468.60907  20327264.60607  -9954663.82848  20327261.69548
 08 11 15  3 36 29.9960000  0  8  3  6  7  8 11 19 25 27
  -9932131.07806  21277409.46506  -7496419.99247  21277407.26247
   1734634.78905  22565984.54305   1427512.32846  22565982.12946
 -18097695.28907  19763936.34807 -14093843.29348  19763933.17648
 -12632234.18406  20617435.11306  -9835471.71948  20617433.23848
 -12804521.86707  19621366.20707  -9641941.06348  19621362.14848
 -18180779.70707  19695503.08207 -13736710.70348  19695497.87548
 -16416369.66003  20578201.55103 -12784016.65646  20578198.99646
 -12784102.10207  20327333.97307  -9954378.23448  20327331.33648
 08 11 15  3 36 59.9960000  0  8  3  6  7  8 11 19 25 27
  -9852809.98404  21292502.69104  -7434611.39846  21292502.16446
   1812402.00806  22580782.85606   1488110.12146  22580780.91846
 -18063663.14107  19770412.49607 -14067324.76248  19770409.44148
 -12686904.62106  20607032.61306  -9878072.08648  20607029.40648
 -12872927.44107  19608348.69907  -9695244.10948  19608345.36748
 -18136217.91807  19703983.16807 -13701987.24648  19703978.03948
 -16350602.52705  20590718.15205 -12732769.54346  20590715.27046
 -12783201.56307  20327505.73107  -9953676.52348  20327503.63748
 08 11 15  3 37 29.9960000  0  8  3  6  7  8 11 19 25 27
  -9773417.97704  21307611.81604  -7372747.60246  21307609.17646
   1890173.55506  22595581.64506   1548711.27346  22595579.80946
 -18029064.86307  19776996.46507 -14040365.10548  19776993.64548
 -12741016.42606  20596735.08206  -9920237.12148  20596732.66048
 -12940896.60907  19595414.79307  -9748207.08648  19595410.89848
 -18091457.39107  19712500.55907 -13667108.92648  19712495.95748
 -16284447.09006  20603307.26206 -12681219.83246  20603304.19946
 -12781767.55507  20327778.38707  -9952559.14148  20327776.00048
 08 11 15  3 37 59.9960000  0  8  3  6  7  8 11 19 25 27
  -9693956.33206  21322733.20706  -7310829.44147  21322730.10947
   1967948.90206  22610382.93406   1609315.36346  22610380.44146
 -17993902.06307  19783688.17607 -14012965.55548  19783684.35948
 -12794567.52306  20586544.37106  -9961965.23448  20586541.45348
 -13008427.97707  19582563.38707  -9800828.91848  19582560.22348
 -18046499.88707  19721056.07407 -13632077.12148  19721050.34448
 -16217905.70706  20615969.54306 -12629369.38746  20615966.27746
 -12779799.96907  20328153.09007  -9951025.98048  20328149.82448
 08 11 15  3 38 29.9960000  0  8  3  6  7  8 11 19 25 27
  -9614424.10506  21337867.41006  -7248856.26647  21337865.71547
   2045728.76206  22625183.59006   1669923.00046  22625181.69146
 -17958175.11707  19790486.73107 -13985126.36348  19790483.10648
 -12847554.34807  20576460.97307 -10003253.66848  20576459.43048
 -13075518.68007  19569796.64507  -9853107.37548  19569793.21148
 -18001344.85907  19729648.68407 -13596891.38748  19729643.19948
 -16150979.47706  20628705.73106 -12577219.05547  20628702.64547
 -12777297.71106  20328629.19106  -9949076.16048  20328625.77048
 08 11 15  3 38 59.9960000  0  8  3  6  7  8 11 19 25 27
  -9534825.27706  21353014.30906  -7186831.20747  21353013.19947
   2123510.21105  22639985.19105   1730531.84446  22639982.61746
 -17921887.84407  19797391.84807 -13956850.59048  19797388.75448
 -12899977.25807  20566485.45707 -10044102.69548  20566483.13348
 -13142169.89507  19557113.81607  -9905043.38348  19557109.46548
 -17955996.14807  19738278.48807 -13561554.73048  19738272.91848
 -16083673.19506  20641512.88706 -12524772.66047  20641511.01647
 -12774263.66407  20329206.98107  -9946711.99648  20329203.99648
 08 11 15  3 39 29.9960000  0  8  3  6  7  8 11 19 25 27
  -9455158.07405  21368172.97305  -7124752.91447  21368173.31347
   2201295.32405  22654787.30905   1791143.56647  22654785.88747
 -17885039.23007  19804403.91807 -13928137.38748  19804401.23448
 -12951832.30907  20556617.79307 -10084509.24248  20556615.78548
 -13208377.43807  19544514.87907  -9956633.68848  19544511.07448
 -17910452.70707  19746944.82407 -13526066.35248  19746939.79348
 -16015986.79306  20654393.20706 -12472030.07047  20654390.42647
 -12770695.49207  20329885.43407  -9943931.61348  20329883.51248
 08 11 15  3 39 59.9960000  0  8  3  6  7  8 11 19 25 27
  -9375423.30504  21383346.08204  -7062622.03546  21383346.59846
   2279082.52306  22669589.85606   1851756.91446  22669588.32046
 -17847631.55107  19811521.80907 -13898988.55948  19811519.20348
 -13003117.93407  20546858.79307 -10124472.07048  20546856.30948
 -13274140.89107  19532000.76207 -10007877.95748  19531996.55148
 -17864716.85507  19755648.05907 -13490428.03148  19755643.45748
 -15947923.58206  20667345.84006 -12418993.80547  20667342.00447
 -12766594.16407  20330665.80107  -9940735.79348  20330662.73148
 08 11 15  3 40 29.9960000  0  8  3  6  7  8 11 19 25 27
  -9295619.96905  21398532.91005  -7000437.66046  21398532.42246
   2356874.04305  22684392.37905   1912373.64147  22684390.82047
 -17809663.95707  19818747.10607 -13869403.42648  19818743.80148
 -13053829.56607  20537208.48807 -10163987.58248  20537205.57048
 -13339456.62507  19519570.45707 -10058773.30548  19519567.40648
 -17818787.42607  19764387.96507 -13454638.86748  19764383.38748
 -15879483.54706  20680369.59806 -12365663.89147  20680366.64847
 -12761957.34407  20331548.51207  -9937122.70348  20331545.65648
 08 11 15  3 40 59.9960000  0  8  3  6  7  8 11 19 25 27
  -9215752.10206  21413732.86306  -6938202.94147  21413730.34447
   2434666.47705  22699196.64505   1972991.06346  22699194.39146
 -17771140.74607  19826078.17607 -13839385.36748  19826074.43048
 -13103967.99606  20527667.16006 -10203056.49648  20527665.43048
 -13404325.79307  19507227.27707 -10109320.71548  19507223.00448
 -17772668.34007  19773164.12107 -13418701.93048  19773159.55948
 -15810671.74206  20693463.60606 -12312044.34447  20693461.10947
 -12756788.09407  20332532.24607  -9933094.75048  20332529.55548
 08 11 15  3 41 29.9960000  0  8  3  6  7  8 11 19 25 27
  -9135818.03506  21428943.83206  -6875916.64147  21428941.44147
   2512461.91406  22714000.45706   2033610.84047  22713998.34447
 -17732060.96907  19833514.79307 -13808933.58648  19833510.79748
 -13153528.85907  20518236.71507 -10241675.37148  20518234.14848
 -13468744.44107  19494968.09807 -10159517.03948  19494964.57048
 -17726358.46507  19781976.66007 -13382616.32048  19781971.55148
 -15741488.24206  20706627.81606 -12258135.18047  20706626.36747
 -12751084.27307  20333617.99607  -9928650.22748  20333614.70348
 08 11 15  3 41 59.9960000  0  8  3  6  7  8 11 19 25 27
  -9055818.03906  21444167.38706  -6813579.03147  21444166.62547
   2590259.41005  22728804.59005   2094232.19946  22728802.55546
 -17692427.03907  19841056.16007 -13778050.02348  19841053.12948
 -13202510.98007  20508915.73107 -10279843.23048  20508912.78548
 -13532711.70707  19482795.49607 -10209361.63348  19482791.92248
 -17679859.50407  19790825.33207 -13346383.35548  19790820.04748
 -15671935.90205  20719864.02005 -12203938.62146  20719861.39146
 -12744846.61707  20334804.55907  -9923789.68448  20334800.64548
 08 11 15  3 42 29.9960000  0  8  3  6  7  8 11 19 25 27
  -8975752.90606  21459402.84806  -6751190.68447  21459401.56647
   2668059.39105  22743609.46505   2154855.49246  22743607.67246
 -17652239.18007  19848704.44107 -13746734.84048  19848700.80548
 -13250911.66407  20499705.67607 -10317558.04748  20499703.18448
 -13596225.55907  19470709.78507 -10258852.94948  19470706.07048
 -17633171.96907  19799709.31607 -13310003.46948  19799704.78948
 -15602016.38305  20733169.68405 -12149455.87146  20733165.85646
 -12738074.62907  20336093.42607  -9918512.81348  20336090.30148
 08 11 15  3 42 59.9960000  0  8  3  6  7  8 11 19 25 27
  -8895624.32406  21474650.58206  -6688752.93047  21474649.78147
   2745860.46505  22758414.56605   2215479.65246  22758413.03146
 -17611500.15207  19856456.63707 -13714990.16848  19856453.64548
 -13298729.75407  20490606.52007 -10354818.90248  20490602.37148
 -13659285.96507  19458709.34807 -10307990.92248  19458705.71548
 -17586298.45307  19808629.03507 -13273478.66848  19808624.40648
 -15531733.00405  20746542.79305 -12094689.64846  20746539.76246
 -12730769.63707  20337483.62107  -9912820.60248  20337480.30148
 08 11 15  3 43 29.9960000  0  8  3  6  7  8 11 19 25 27
  -8815431.05506  21489911.93406  -6626264.70346  21489908.17246
   2823664.37104  22773220.27704   2276106.00046  22773218.42246
 -17570209.14106  19864314.18406 -13682815.36748  19864311.24648
 -13345960.99607  20481618.01207 -10391622.44548  20481615.47348
 -13721888.78107  19446796.42607 -10356772.31648  19446792.71148
 -17539237.05507  19817584.68407 -13236807.45748  19817579.20748
 -15461085.97705  20759987.42605 -12039640.08647  20759983.17647
 -12722929.62907  20338975.58207  -9906711.49248  20338972.10648
 08 11 15  3 43 59.9960000  0  8  3  6  7  8 11 19 25 27
  -8735168.59006  21505184.94906  -6563722.51246  21505179.46146
   2901475.38302  22788027.73102   2336737.91845  22788025.96145
 -17528363.39107  19872276.91007 -13650208.31648  19872274.91448
 -13392598.91006  20472742.77006 -10427963.71148  20472741.17248
 -13784028.35207  19434971.78507 -10405192.76648  19434967.77748
 -17491984.77307  19826576.38707 -13199987.53548  19826571.25848
 -15390073.25806  20773501.27706 -11984305.51247  20773496.59447
 -12714550.29707  20340570.02007  -9900182.14848  20340566.99248
 08 11 15  3 44 29.9960000  0  8  3  6  7  8 11 19 25 27
  -8654837.69906  21520470.80906  -6501127.00046  21520467.12546
   2979293.20302  22802834.81602   2397375.14845  22802835.23145
 -17485964.63707  19880345.09807 -13617170.30948  19880342.25848
 -13438641.44106  20463981.73806 -10463841.05548  20463979.16848
 -13845702.26607  19423235.66807 -10453250.34048  19423232.19148
 -17444542.72707  19835604.89507 -13163019.71948  19835598.86348
 -15318696.95705  20787082.92605 -11928687.65647  20787080.01647
 -12705631.73007  20342267.02707  -9893232.61348  20342264.57848
 08 11 15  3 44 59.9960000  0  9  3  6  7  8 11 19 25 27 28
  -8574440.14806  21535769.41006  -6438479.60246  21535768.15246
   3057117.32401  22817645.45701   2458017.37945  22817645.34045
 -17443014.73807  19888518.34807 -13583702.85548  19888515.37148
 -13484087.55507  20455333.11307 -10499253.58248  20455329.31648
 -13906910.85507  19411588.02007 -10500945.33248  19411584.41048
 -17396912.50007  19844668.50407 -13125905.28548  19844662.34048
 -15246960.03105  20800733.98105 -11872788.77747  20800731.25847
 -12696174.86707  20344066.42607  -9885863.63748  20344063.53948
   -147496.70716  23333246.85606   -105878.91056  23333241.96546
 08 11 15  3 45 29.9960000  0  9  3  6  7  8 11 19 25 27 28
  -8493976.46905  21551081.41005  -6375780.73046  21551079.90246
   3134946.87911  22832459.73801         0.00000         0.00000
 -17399515.85507  19896796.02707 -13549807.62548  19896792.70748
 -13528935.59006  20446798.51206 -10534200.09048  20446795.30548
 -13967652.86707  19400029.19907 -10548276.75448  19400025.67248
 -17349095.74607  19853767.59807 -13088645.48848  19853761.59848
 -15174865.30905  20814453.42605 -11816611.07047  20814451.02347
 -12686180.32807  20345968.62107  -9878075.67648  20345965.91448
   -238475.44906  23315934.51206   -176771.37946  23315930.32446
 08 11 15  3 45 59.9960000  0  9  3  6  7  8 11 19 25 27 28
  -8413450.35206  21566405.46506  -6313033.15247  21566403.37947
         0.00000  22847267.48101         0.00000         0.00000
 -17355472.41406  19905176.67606 -13515488.09048  19905174.29748
 -13573186.31606  20438378.32406 -10568681.20748  20438375.44548
 -14027929.46107  19388559.24607 -10595245.51648  19388555.21548
 -17301096.74607  19862901.48807 -13051243.66848  19862896.57448
 -15102418.12106  20828239.70706 -11760158.69947  20828237.75047
 -12675651.64507  20347972.30907  -9869871.53548  20347969.28548
   -329498.05506  23298612.91006   -247698.07446  23298609.78146
 08 11 15  3 46 29.9960000  0  8  3  7  8 11 19 25 27 28
  -8332858.81606  21581741.85606  -6250234.60947  21581739.52747
 -17310882.77307  19913662.01207 -13480742.96148  19913659.62548
 -13616834.89807  20430072.31607 -10602693.07848  20430069.61348
 -14087736.28907  19377178.29307 -10641848.23848  19377174.26248
 -17252912.62907  19872070.29307 -13013697.61348  19872065.91848
 -15029617.65605  20842093.45705 -11703431.07047  20842090.86347
 -12664585.94907  20350077.56607  -9861248.90648  20350075.29748
   -420560.41805  23281284.73805   -318655.78546  23281281.16046
 08 11 15  3 46 59.9960000  0  8  3  7  8 11 19 25 27 28
  -8252200.94905  21597089.91805  -6187384.38347  21597088.93847
 -17265746.57407  19922251.16807 -13445571.90248  19922247.94148
 -13659877.17207  20421882.04307 -10636232.50448  20421878.23148
 -14147069.74207  19365887.27707 -10688082.10248  19365883.07848
 -17204542.73007  19881274.82407 -12976006.79348  19881270.44148
 -14956464.18006  20856014.33206 -11646428.38347  20856010.85247
 -12652981.30507  20352285.90207  -9852206.32848  20352283.69948
   -511658.93006  23263948.51206   -389641.57046  23263944.73446
 08 11 15  3 47 29.9960000  0  8  3  7  8 11 19 25 27 28
  -8171473.18405  21612452.13705  -6124479.65246  21612449.58246
 -17220061.86706  19930944.61306 -13409973.43048  19930940.78148
 -13702307.96507  20413807.16807 -10669295.43448  20413804.77048
 -14205924.86707  19354687.56607 -10733943.22348  19354684.12948
 -17155984.34407  19890515.48107 -12938169.08648  19890510.65648
 -14882956.25406  20870002.49606 -11589149.45747  20869998.37147
 -12640834.31307  20354597.09807  -9842741.15248  20354595.59048
   -602788.82004  23246606.77004   -460651.82846  23246603.87146
 08 11 15  3 47 59.9960000  0  8  3  7  8 11 19 25 27 28
  -8090677.77705  21627826.86305  -6061522.25046  21627824.98846
 -17173831.51606  19939742.12106 -13373949.80548  19939738.27348
 -13744126.41007  20405849.64507 -10701881.24648  20405847.12148
 -14264301.57007  19343579.18407 -10779431.55148  19343575.02748
 -17107240.07007  19899791.06607 -12900186.54748  19899786.59448
 -14809097.73806  20884057.43406 -11531597.35947  20884053.91847
 -12628146.73407  20357011.80907  -9832854.74248  20357008.92648
   -693949.96105  23229259.98805   -531686.41446  23229257.79746
 08 11 15  3 48 29.9960000  0  8  3  7  8 11 19 25 27 28
  -8009814.56306  21643215.29306  -5998512.02047  21643213.35947
 -17127056.72307  19948643.37107 -13337501.92248  19948639.42648
 -13785330.04707  20398008.38707 -10733987.98048  20398006.05548
 -14322198.07007  19332561.82407 -10824545.71948  19332556.92648
 -17058309.87507  19909102.28507 -12862059.13348  19909097.94148
 -14734890.36306  20898177.35606 -11473773.48047  20898175.09847
 -12614918.60207  20359529.36307  -9822547.10948  20359526.83248
   -785140.40605  23211906.56605   -602743.87146  23211905.19546
 08 11 15  3 48 59.9960000  0  8  3  7  8 11 19 25 27 28
  -7928888.43006  21658615.23106  -5935452.69547  21658614.14147
 -17079743.18406  19957646.51206 -13300634.25048  19957643.41448
 -13825921.19907  20390284.25407 -10765617.43448  20390281.78148
 -14379616.87907  19321635.34807 -10869287.64848  19321630.92248
 -17009199.14507  19918447.83207 -12823791.03548  19918442.81348
 -14660340.47706  20912364.25406 -11415682.69947  20912361.21147
 -12601154.20307  20362148.57407  -9811821.63348  20362146.32048
   -876362.83206  23194548.11306   -673826.25846  23194544.95746
 08 11 15  3 49 29.9960000  0  8  3  7  8 11 19 25 27 28
  -7847894.53506  21674027.64506  -5872340.59447  21674026.45347
 -17031887.67206  19966753.69906 -13263344.25048  19966750.12548
 -13865893.24207  20382677.97307 -10796764.50048  20382675.55948
 -14436552.00407  19310800.38707 -10913652.66848  19310796.68048
 -16959903.98007  19927828.53507 -12785379.22348  19927823.34448
 -14585445.72706  20926616.80906 -11357323.13347  20926612.77047
 -12586849.11707  20364869.99607  -9800674.81648  20364868.12148
   -967610.92206  23177183.71506   -744928.64146  23177181.52746
 08 11 15  3 49 59.9960000  0  8  3  7  8 11 19 25 27 28
  -7766831.80905  21689452.73805  -5809174.90647  21689452.60647
 -16983490.52706  19975963.27006 -13225632.22348  19975960.07848
 -13905242.84806  20375190.59806 -10827426.54748  20375187.48148
 -14493000.68007  19300059.10607 -10957638.65248  19300055.71548
 -16910423.79307  19937244.15207 -12746823.24248  19937238.30148
 -14510207.09807  20940934.12907 -11298695.62947  20940930.99247
 -12572002.30507  20367695.66807  -9789105.88348  20367693.04748
  -1058882.21906  23159815.47306   -816049.06646  23159813.80546
 08 11 15  3 50 29.9960000  0  8  3  7  8 11 19 25 27 28
  -7685706.80906  21704890.52006  -5745960.69947  21704889.42647
 -16934559.10206  19985274.62106 -13187503.84848  19985271.31648
 -13943974.34007  20367819.20707 -10857606.92248  20367816.71148
 -14548967.15207  19289408.71507 -11001248.88348  19289405.68848
 -16860765.15207  19946694.15207 -12708128.20348  19946688.64548
 -14434632.48006  20955315.10606 -11239806.35547  20955312.82447
 -12556619.94907  20370622.94107  -9777119.63348  20370620.66048
  -1150181.07406  23142441.37106   -887191.05146  23142438.45746
 08 11 15  3 50 59.9960000  0  8  3  7  8 11 19 25 27 28
  -7604517.84406  21720341.12106  -5682696.57447  21720338.31647
 -16885093.60206  19994687.15206 -13148959.31348  19994684.81648
 -13982083.84807  20360567.77707 -10887302.63748  20360564.86748
 -14604448.20308  19278850.94108 -11044480.86748  19278847.34848
 -16810927.22707  19956177.55907 -12669293.46948  19956172.05148
 -14358722.44106  20969760.37906 -11180655.76247  20969757.58247
 -12540700.59407  20373652.63707  -9764714.94948  20373649.46948
  -1241503.64805  23125064.14505   -958351.45346  23125060.30946
 08 11 15  3 51 29.9960000  0  9  3  6  7  8 11 19 25 27 28
  -7523260.90606  21735802.63706  -5619379.48847  21735801.39847
    114805.75011  23010291.20701         0.00000         0.00000
 -16835090.88707  20004203.41007 -13109996.18848  20004199.90248
 -14019564.66807  20353435.84007 -10916508.51648  20353433.43848
 -14659437.94108  19268386.77008 -11087330.02748  19268383.22748
 -16760906.27307  19965696.47307 -12630316.12148  19965691.23448
 -14282474.85506  20984270.06606 -11121242.11347  20984266.41047
 -12524240.18407  20376784.50407  -9751888.66848  20376782.44948
  -1332844.03906  23107682.37106  -1029525.73446  23107679.12146
 08 11 15  3 51 59.9960000  0  9  3  6  7  8 11 19 25 27 28
  -7441937.08206  21751278.31606  -5556010.30147  21751277.52047
    192740.48011  23025121.56601         0.00000         0.00000
 -16784553.10906  20013820.05906 -13070616.05148  20013815.85248
 -14056415.72707  20346423.30107 -10945223.59848  20346420.44548
 -14713935.54708  19258016.52708 -11129795.67648  19258012.65248
 -16710703.82007  19975249.65207 -12591197.34848  19975244.75448
 -14205892.25806  20998842.56606 -11061567.38746  20998838.69946
 -12507239.48807  20380019.98107  -9738641.39148  20380017.77348
  -1424201.33606  23090296.64506  -1100713.21146  23090295.21546
 08 11 15  3 52 29.9960000  0  8  3  7  8 11 19 25 27 28
  -7360548.21106  21766766.93406  -5492590.46547  21766765.04347
 -16733483.87506  20023537.73106 -13030821.85948  20023534.55548
 -14092637.32807  20339530.10607 -10973448.23048  20339528.02748
 -14767941.40208  19247739.85608 -11171878.15248  19247735.54748
 -16660322.10207  19984836.61307 -12551938.88348  19984831.38748
 -14128979.24206  21013479.17606 -11001635.16847  21013475.01247
 -12489701.09007  20383357.37107  -9724975.13748  20383355.54748
  -1515575.84806  23072909.48806  -1171914.18846  23072907.00446
 08 11 15  3 52 59.9960000  0  8  3  7  8 11 19 25 27 28
  -7279094.67605  21782266.07405  -5429120.22347  21782264.61747
 -16681884.84806  20033356.58206 -12990614.87948  20033353.91848
 -14128227.63707  20332757.30907 -11001180.94148  20332754.99648
 -14821454.22707  19237556.07407 -11213576.45748  19237551.89548
 -16609762.18407  19994458.08207 -12512541.55548  19994453.08248
 -14051737.83606  21028177.92606 -10941447.07447  21028174.43847
 -12471625.19106  20386797.23106  -9710890.03548  20386794.35248
  -1606966.06306  23055518.12906  -1243127.28546  23055515.34446
 08 11 15  3 53 29.9960000  0  8  3  7  8 11 19 25 27 28
  -7197572.39505  21797779.47305  -5365596.41047  21797778.00847
 -16629753.25006  20043277.67606 -12949992.87148  20043273.54348
 -14163180.46507  20326106.45707 -11028416.91448  20326103.53948
 -14874468.26608  19227468.11308 -11254886.10948  19227464.60648
 -16559020.18807  20004113.80907 -12473002.35948  20004109.16448
 -13974165.90606  21042938.91006 -10881001.44547  21042936.19547
 -12453007.84806  20390340.07406  -9696383.03148  20390337.23848
  -1698365.85505  23038124.87105  -1314347.79346  23038121.23846
 08 11 15  3 53 59.9960000  0  8  3  7  8 11 19 25 27 28
  -7115984.21106  21813305.25406  -5302021.24246  21813302.60646
 -16577093.49606  20053298.02706 -12908959.27047  20053294.98847
 -14197496.57407  20319576.25407 -11055156.72348  20319573.54748
 -14926984.42207  19217474.63707 -11295807.79348  19217470.96548
 -16508099.66807  20013804.05907 -12433324.03948  20013798.51248
 -13896268.10906  21057762.88706 -10820301.90247  21057759.40647
 -12433852.08207  20393984.93407  -9681456.46148  20393982.08648
  -1789776.00005  23020731.29305  -1385576.49246  23020727.25446
 08 11 15  3 54 29.9960000  0  8  3  7  8 11 19 25 27 28
  -7034331.27006  21828843.91006  -5238395.60947  21828841.45347
 -16523908.47306  20063418.02006 -12867516.39547  20063415.26247
 -14231175.21507  20313167.97307 -11081399.83648  20313165.14148
 -14979002.79307  19207575.80107 -11336341.57448  19207572.14848
 -16457002.39807  20023526.92607 -12393507.98048  20023522.77348
 -13818047.99606  21072647.90206 -10759351.18047  21072643.69947
 -12414159.35206  20397731.84806  -9666111.49648  20397729.32448
  -1881196.17606  23003334.01206  -1456812.99247  23003331.55147
 08 11 15  3 54 59.9960000  0  8  3  7  8 11 19 25 27 28
  -6952616.34406  21844393.52006  -5174721.68847  21844392.00047
 -16470202.20306  20073639.29306 -12825667.34047  20073635.47347
 -14264217.07407  20306879.28507 -11107146.71548  20306877.00848
 -15030524.48007  19197771.52007 -11376488.36348  19197767.64548
 -16405731.13707  20033283.79307 -12353556.37548  20033278.90648
 -13739510.16006  21087593.35606 -10698152.87147  21087589.22347
 -12393932.23406  20401581.04306  -9650350.11748  20401578.46548
  -1972626.81306  22985935.30906  -1528057.61746  22985932.63746
 08 11 15  3 55 29.9960000  0  8  3  7  8 11 19 25 27 28
  -6870841.43006  21859955.34806  -5111001.02347  21859953.15247
 -16415978.11306  20083957.20706 -12783414.84847  20083953.74647
 -14296622.18406  20300712.61306 -11132397.45348  20300710.10648
 -15081549.69907  19188061.55107 -11416248.27048  19188057.89848
 -16354288.65207  20043073.02007 -12313471.30548  20043068.32048
 -13660658.67606  21102598.10606 -10636710.18847  21102595.39847
 -12373173.30507  20405531.84007  -9634174.32848  20405529.24648
  -2064067.77306  22968534.37106  -1599310.27346  22968531.36346
 08 11 15  3 55 59.9960000  0  8  3  7  8 11 19 25 27 28
  -6789008.95306  21875527.06606  -5047235.48447  21875524.87947
 -16361240.39506  20094373.59806 -12740762.06347  20094368.43847
 -14328391.26607  20294666.88707 -11157152.57848  20294664.53148
 -15132079.20307  19178446.39507 -11455621.89848  19178442.16848
 -16302677.70707  20052894.75407 -12273254.98448  20052889.87948
 -13581498.19906  21117661.91006 -10575026.75047  21117659.09047
 -12351885.53107  20409582.68407  -9617586.48848  20409580.32448
  -2155520.44106  22951131.98806  -1670571.98847  22951128.13747
 08 11 15  3 56 29.9960000  0  8  3  7  8 11 19 25 27 28
  -6707121.80505  21891110.12105  -4983427.34446  21891107.31646
 -16305992.99606  20104886.57406 -12697712.15247  20104882.35247
 -14359524.95307  20288742.94907 -11181412.60948  20288740.86748
 -15182114.35907  19168924.78507 -11494610.31348  19168920.87548
 -16250901.51207  20062747.08207 -12232909.93048  20062741.62948
 -13502033.21506  21132783.48806 -10513106.03547  21132781.63747
 -12330071.49607  20413733.75407  -9600588.56348  20413731.43048
  -2246985.08606  22933727.02706  -1741843.16846  22933723.13346
 08 11 15  3 56 59.9960000  0  8  3  7  8 11 19 25 27 28
  -6625182.48405  21906702.23805  -4919578.60946  21906698.73446
 -16250240.24206  20115495.67606 -12654268.48447  20115492.27047
 -14390024.50407  20282939.48807 -11205178.50448  20282936.89148
 -15231656.42607  19159497.25407 -11533214.49248  19159493.07448
 -16198963.47707  20072630.76207 -12192438.75048  20072625.07448
 -13422268.69106  21147962.26206 -10450951.89147  21147959.66447
 -12307734.70707  20417984.19907  -9583183.30948  20417982.03948
  -2338462.50806  22916318.94906  -1813124.21946  22916316.89546
 08 11 15  3 57 29.9960000  0  8  3  7  8 11 19 25 27 28
  -6543189.79705  21922303.80105  -4855688.23846  21922301.82446
 -16193982.89506  20126201.84806 -12610431.60547  20126197.35947
 -14419887.16807  20277256.84807 -11228448.11348  20277254.62548
 -15280703.00807  19150163.88707 -11571432.62548  19150159.95748
 -16146862.85907  20082545.02707 -12151840.88748  20082539.87148
 -13342205.81607  21163197.93407 -10388565.27347  21163195.27747
 -12284874.45307  20422334.55107  -9565370.14848  20422331.74248
  -2429949.89105  22898909.21505  -1884413.05946  22898906.30146
 08 11 15  3 57 59.9960000  0  8  3  7  8 11 19 25 27 28
  -6461148.59005  21937916.77705  -4791760.09846  21937913.84446
 -16137227.14506  20137002.06606 -12566206.35247  20136998.18047
 -14449115.16007  20271694.98107 -11251223.19548  20271692.54748
 -15329256.89107  19140924.37107 -11609266.80148  19140920.66448
 -16094604.39507  20092488.81607 -12111120.01648  20092483.95748
 -13261850.92206  21178488.98806 -10325951.08647  21178487.05147
 -12261495.33207  20426783.73107  -9547152.64848  20426780.98448
  -2521449.39105  22881497.43405  -1955711.34046  22881494.72746
 08 11 15  3 58 29.9960000  0  8  3  7  8 11 19 25 27 28
  -6379059.54306  21953538.36306  -4727794.65647  21953534.91847
 -16079975.38706  20147897.30906 -12521594.61347  20147893.34847
 -14477708.01207  20266254.05107 -11273503.34448  20266251.26648
 -15377317.75007  19131778.91007 -11646716.81648  19131774.90648
 -16042189.69107  20102463.34007 -12070277.39848  20102458.50048
 -13181207.11706  21193834.31606 -10263111.80147  21193832.69947
 -12237598.68806  20431330.62906  -9528531.89548  20431328.38348
  -2612960.36306  22864083.37906  -2027018.50446  22864080.79346
 08 11 15  3 58 59.9960000  0  8  3  7  8 11 19 25 27 28
  -6296917.26206  21969169.71506  -4663787.73047  21969166.91847
 -16022224.40206  20158886.05106 -12476593.83647  20158882.18047
 -14505658.73407  20260934.91807 -11295283.11748  20260932.32848
 -15424878.93007  19122728.69907 -11683777.46948  19122724.31648
 -15989614.18407  20112468.20707 -12029309.48048  20112463.14848
 -13100271.50006  21209236.11306 -10200045.12547  21209233.94147
 -12213180.08606  20435977.60606  -9509504.41848  20435975.12948
  -2704475.51605  22846667.76205  -2098328.98046  22846665.99646
 08 11 15  3 59 29.9960000  0  8  3  7  8 11 19 25 27 28
  -6214728.45305  21984809.08205  -4599744.55547  21984806.78947
 -15963981.95706  20169969.52006 -12431210.12147  20169964.87547
 -14532971.98807  20255737.57407 -11316566.16848  20255735.33248
 -15471945.22707  19113772.30907 -11720452.51248  19113767.82048
 -15936884.28106  20122502.34806 -11988221.27348  20122498.19548
 -13019052.36706  21224691.16006 -10136757.52747  21224689.67647
 -12188246.11706  20440722.53506  -9490075.39148  20440719.96948
  -2795999.27006  22829252.87106  -2169646.21547  22829249.92647
 08 11 15  3 59 59.9960000  0  8  3  7  8 11 19 25 27 28
  -6132489.73805  22000458.60605  -4535662.51646  22000457.09846
 -15905246.55106  20181147.16006 -12385442.28547  20181143.56647
 -14559642.83607  20250662.27707 -11337348.64548  20250660.28548
 -15518512.45707  19104910.29307 -11756738.65648  19104906.36348
 -15883997.32407  20132566.56607 -11947010.66048  20132562.26248
 -12937548.66806  21240201.41006 -10073248.16847  21240198.89547
 -12162794.12506  20445565.62106  -9470242.69148  20445562.59048
  -2887526.60906  22811835.59006  -2240966.16446  22811832.65646
 08 11 15  4  0 29.9960000  0  8  3  7  8 11 19 25 27 28
  -6050203.42205  22016118.05905  -4471543.35946  22016116.37546
 -15846022.19106  20192416.38706 -12339293.46947  20192413.79747
 -14585672.12907  20245708.84807 -11357631.21548  20245707.26648
 -15564581.36307  19096143.29307 -11792636.49248  19096139.86748
 -15830956.12507  20142660.07407 -11905679.85548  20142655.75048
 -12855764.92606  21255764.93406 -10009520.60247  21255761.64847
 -12136827.01606  20450506.98106  -9450008.61348  20450504.30148
  -2979057.55506  22794418.05906  -2312288.96146  22794413.82046
 08 11 15  4  0 59.9960000  0  8  3  7  8 11 19 25 27 28
  -5967868.48406  22031785.67606  -4407386.31647  22031783.76647
 -15786309.77006  20203779.27006 -12292764.36747  20203776.73447
 -14611057.21907  20240877.77707 -11377411.80548  20240875.97348
 -15610149.87107  19087472.27707 -11828144.43048  19087467.88748
 -15777760.15607  20152783.21507 -11864228.46148  20152778.55948
 -12773702.36306  21271381.30906  -9945575.77747  21271377.55947
 -12110344.23007  20455546.69107  -9429372.69548  20455543.01648
  -3070589.25006  22776999.46506  -2383612.30546  22776995.54746
 08 11 15  4  1 29.9960000  0  8  3  7  8 11 19 25 27 28
  -5885486.19506  22047462.21506  -4343192.35247  22047460.41447
 -15726111.98806  20215234.76206 -12245857.05147  20215231.32047
 -14635797.48807  20236170.02707 -11396689.92648  20236167.91848
 -15655216.96507  19078896.77707 -11863261.65648  19078892.43848
 -15724410.61307  20162935.26207 -11822657.39848  20162930.49248
 -12691363.93406  21287049.69906  -9881415.99647  21287045.90247
 -12083346.96507  20460684.27007  -9408335.87548  20460680.74248
  -3162120.48805  22759581.69905  -2454935.30547  22759577.30947
 08 11 15  4  1 59.9960000  0  8  3  7  8 11 19 25 27 28
  -5803052.75406  22063149.05106  -4278958.52346  22063146.92246
 -15665427.43806  20226782.59006 -12198570.40647  20226778.82047
 -14659888.26607  20231585.88707 -11415461.95748  20231583.64848
 -15699778.44907  19070416.53507 -11897984.90648  19070412.50048
 -15670904.75007  20173117.13707 -11780964.54748  20173112.20348
 -12608748.57806  21302770.07406  -9817040.42647  21302766.84847
 -12055832.75407  20465919.90207  -9386896.22748  20465916.48148
  -3253646.37906  22742165.08206  -2526254.16047  22742161.69547
 08 11 15  4  2 29.9960000  0  8  3  7  8 11 19 25 27 28
  -5720569.51606  22078844.64506  -4214685.92246  22078843.41846
 -15604258.87506  20238422.94106 -12150906.60547  20238418.85947
 -14683329.24607  20227125.38707 -11433727.66048  20227123.48148
 -15743834.30107  19062033.06607 -11932314.13748  19062029.13348
 -15617244.30507  20183328.20707 -11739151.21148  20183323.08248
 -12525859.80506  21318543.29306  -9752451.82847  21318540.32447
 -12027803.74607  20471253.62907  -9365055.47348  20471251.27348
  -3345166.10906  22724748.96506  -2597568.16846  22724745.49246
 08 11 15  4  2 59.9960000  0  8  3  7  8 11 19 25 27 28
  -5638035.29706  22094550.42606  -4150373.58646  22094550.02346
 -15542607.68806  20250153.75406 -12102866.73847  20250151.56647
 -14706118.04307  20222788.58207 -11451485.14548  20222786.06348
 -15787382.50008  19053746.59808 -11966247.80548  19053742.34448
 -15563428.66407  20193568.84807 -11697216.94148  20193563.85648
 -12442698.85906  21334368.51206  -9687651.12947  21334365.29347
 -11999259.63307  20476685.57407  -9342813.30548  20476682.87548
  -3436676.35906  22707335.09006  -2668874.85546  22707330.81646
