     2              OBSERVATION DATA                        RINEX VERSION / TYPE
DAT2RINW 3.10 001   .                   16NOV08 14:36:50    PGM / RUN BY / DATE 
.                   .                                       OBSERVER / AGENCY   
220188519           TRIMBLE 4700        Nav 1.41 Sig 0.00   REC # / TYPE / VERS 
00000000            TRM33429.00-GP  NONE                    ANT # / TYPE        
----------------------------------------------------------- COMMENT             
Offset from BOTTOM OF ANTENNA to PHASE CENTER is  62.5 mm   COMMENT             
----------------------------------------------------------- COMMENT             
0291                                                        MARKER NAME
0291                                                        MARKER NUMBER       
 -3061641.5225  4058613.5881  3838748.6686                  APPROX POSITION XYZ 
        1.3184        0.0000        0.0000                  ANTENNA: DELTA H/E/N
*** Above antenna height is from mark to BOTTOM OF ANTENNA. COMMENT             
----------------------------------------------------------- COMMENT             
Note: The above offsets are CORRECTED.                      COMMENT             
Raw Offsets: H=      1.3770 E=      0.0000 N=      0.0000   COMMENT             
----------------------------------------------------------- COMMENT             
     1     1     0                                          WAVELENGTH FACT L1/2
     4    L1    C1    L2    P2                              # / TYPES OF OBSERV 
    30                                                      INTERVAL            
  2008    11    15     0     0    0.000000                  TIME OF FIRST OBS   
  2008    11    15     8    10    0.000000                  TIME OF LAST OBS    
    19                                                      # OF SATELLITES     
     2     6     6     6     6                              PRN / # OF OBS      
     3   544   546   536   537                              PRN / # OF OBS      
     4   248   248   248   248                              PRN / # OF OBS      
     6   439   442   429   430                              PRN / # OF OBS      
     7   522   522   522   522                              PRN / # OF OBS      
     8   457   457   457   457                              PRN / # OF OBS      
    11   684   686   679   679                              PRN / # OF OBS      
    13   368   368   367   367                              PRN / # OF OBS      
    16   379   379   379   379                              PRN / # OF OBS      
    17   416   416   416   416                              PRN / # OF OBS      
    19   710   710   706   706                              PRN / # OF OBS      
    20   444   445   444   445                              PRN / # OF OBS      
    21   162   167   125   126                              PRN / # OF OBS      
    23   367   367   367   367                              PRN / # OF OBS      
    25   573   573   573   573                              PRN / # OF OBS      
    27    21    21    21    21                              PRN / # OF OBS      
    28   544   544   544   544                              PRN / # OF OBS      
    31   139   139   139   139                              PRN / # OF OBS      
    32   465   465   464   464                              PRN / # OF OBS      
                                                            END OF HEADER       
 08 11 15  0  0  0.0000000  0  8  3  6 13 16 19 21 23 31
  -1025583.15207  20879804.17207   -793797.42949  20879800.75849
   -415040.56307  20580433.55507   -323399.15549  20580429.74249
   -812254.02706  22785856.68806   -632341.19547  22785851.78947
    919087.23007  20571720.80507    702405.68349  20571715.50049
  -1540593.42606  23561321.94506  -1197488.80847  23561315.36347
    -24697.62902  24027525.18802         0.00000         0.00000
     95951.69107  21444585.12507     69856.34248  21444577.96148
   1683385.88307  21952664.96107   1288833.85548  21952659.30948
 08 11 15  0  0 30.0000000  0  8  3  6 13 16 19 21 23 31
  -1077661.89107  20869893.96907   -834378.25349  20869889.52049
   -434665.60507  20576699.13307   -338691.37349  20576695.01649
   -852797.12906  22778141.58606   -663933.23847  22778136.81647
    966657.34407  20580773.03107    739473.29149  20580768.07049
  -1626235.12906  23545025.78906  -1264222.58047  23545018.36347
    -28589.65601  24026782.94501         0.00000         0.00000
    104390.22307  21446190.88307     76431.80048  21446183.98448
   1771629.00407  21969457.08607   1357594.72048  21969452.09048
 08 11 15  0  1  0.0000000  0  9  3  6 13 16 19 21 23 25 31
  -1129485.52707  20860032.35907   -874760.29949  20860027.48849
   -453985.67207  20573022.53907   -353745.97849  20573018.57049
   -893023.93806  22770486.71906   -695278.82147  22770481.65647
   1014268.31307  20589833.12507    776572.73249  20589827.86749
  -1711894.53906  23528724.50806  -1330970.18647  23528718.32047
    -32270.85902  24026083.60902         0.00000         0.00000
    113267.50807  21447880.27307     83349.17048  21447873.82448
   -122913.69516  24349223.37506    -95859.15557  24349218.09847
   1860000.57807  21986273.22707   1426455.65348  21986268.85248
 08 11 15  0  1 30.0000000  0  9  3  6 13 16 19 21 23 25 31
  -1181041.94907  20850221.15607   -914934.13049  20850216.51649
   -472989.68807  20569406.33607   -368554.29749  20569402.07849
   -932921.23407  22762894.75007   -726367.61047  22762889.26647
   1061929.26607  20598902.95307    813711.13549  20598898.02049
  -1797558.95306  23512422.66406  -1397721.62547  23512417.54747
    -35729.14103  24025426.17203    -73716.00855  24025419.05145
    122594.24607  21449655.00007     90616.75648  21449648.53148
   -190672.67606  24336329.46106   -148658.35247  24336324.02047
   1948510.91407  22003116.28907   1495424.71648  22003111.17648
 08 11 15  0  2  0.0000000  0  9  3  6 13 16 19 21 23 25 31
  -1232320.12907  20840463.41407   -954891.13749  20840459.00049
   -491667.58207  20565851.98407   -383108.50649  20565847.74249
   -972477.18007  22755367.32007   -757190.44047  22755361.60247
   1109648.66807  20607983.18007    850895.07649  20607977.91049
  -1883217.00805  23496121.57805  -1464468.13647  23496117.03147
    -38953.83201  24024810.06301    -76228.65645  24024806.09845
    132379.99206  21451517.03906     98242.00348  21451510.51248
   -258579.60205  24323407.19505   -201572.84847  24323401.66047
   2037168.71907  22019987.52307   1564508.70148  22019983.14548
 08 11 15  0  2 30.0000000  0  9  3  6 13 16 19 21 23 25 31
  -1283315.22707  20830758.98407   -994627.57049  20830754.47349
   -510015.63307  20562360.32807   -397405.67549  20562356.30549
  -1011686.47306  22747906.10206   -787743.10347  22747901.51647
   1157428.94507  20617075.89107    888126.45249  20617070.32449
  -1968863.06306  23479823.72706  -1531205.32447  23479819.12547
    -41939.87104  24024244.43004    -78555.43045  24024238.23445
    142628.32007  21453467.43807    106227.70148  21453460.53148
   -326630.09006  24310456.99206   -254599.14447  24310452.49647
   2125976.65207  22036886.97707   1633709.67948  22036883.23448
 08 11 15  0  3  0.0000000  0  9  3  6 13 16 19 21 23 25 31
  -1334015.72707  20821111.29707  -1034134.45349  20821107.04749
   -528023.20308  20558933.78108   -411437.53449  20558929.62949
  -1050536.89806  22740512.76606   -818016.15647  22740507.75047
   1205278.85207  20626181.63307    925412.08849  20626176.24649
  -2054485.12906  23463530.67206  -1597923.81947  23463525.08247
    -44676.30503  24023722.59403    -80687.73045  24023717.85245
    153349.61706  21455507.35906    114581.96748  21455500.65648
   -394812.48805  24297482.43005   -307728.29047  24297477.98047
   2214944.40207  22053816.78107   1703035.18648  22053812.37548
 08 11 15  0  3 30.0000000  0  9  3  6 13 16 19 21 23 25 31
  -1384411.68007  20811521.14107  -1073404.00549  20811517.49249
   -545681.12108  20555573.79708   -425196.94749  20555568.96549
  -1089017.60206  22733190.38306   -848001.14447  22733185.10947
   1253206.21507  20635301.78907    962758.07849  20635296.26649
  -2140072.10206  23447244.96906  -1664614.93847  23447238.73447
    -47152.32404  24023252.14804    -82617.02345  24023246.56645
    164552.72307  21457639.16407    123311.65948  21457632.76648
   -463116.85905  24284484.32005   -360952.43347  24284480.06647
   2304079.88707  22070779.21107   1772491.39748  22070774.80548
 08 11 15  0  4  0.0000000  0  9  3  6 13 16 19 21 23 25 31
  -1434501.99207  20801989.15607  -1112435.42848  20801984.89148
   -562989.79307  20552280.13307   -438684.23849  20552275.18049
  -1127127.99206  22725938.27306   -877697.55247  22725933.23847
   1301208.92607  20644436.38307   1000162.76449  20644430.92649
  -2225622.85206  23430965.14106  -1731277.83747  23430958.98847
    -49367.43403  24022829.30503    -84343.13745  24022825.29745
    176236.98807  21459863.03107    132416.25248  21459856.10248
   -531542.82806  24271464.14106   -414271.33547  24271459.12547
   2393381.75807  22087772.40607   1842077.22948  22087768.24648
 08 11 15  0  4 30.0000000  0  9  3  6 13 16 19 21 23 25 31
  -1484284.82407  20792515.85207  -1151227.24149  20792511.51649
   -579948.53907  20549052.43007   -451898.82749  20549048.02349
  -1164865.87106  22718757.22706   -907103.67047  22718752.05947
   1349286.26207  20653585.28107   1037625.61749  20653579.77049
  -2311134.84806  23414691.95306  -1797910.54647  23414686.41047
    -51320.41403  24022456.85903    -85864.90245  24022453.86345
    188402.66007  21462178.30507    141896.00148  21462171.21548
   -600088.58606  24258419.70306   -467683.59747  24258415.62947
   2482849.90607  22104798.12507   1911792.64648  22104792.79748
 08 11 15  0  5  0.0000000  0  9  3  6 13 16 19 21 23 25 31
  -1533746.24207  20783103.71907  -1189768.61049  20783099.23049
   -596543.78907  20545894.73407   -464830.19349  20545890.41049
  -1202215.80506  22711650.06306   -936207.54347  22711645.04347
   1397449.97307  20662750.43807   1075155.76949  20662744.96149
  -2396592.96506  23398429.39106  -1864501.27647  23398424.28947
    -52996.50003  24022139.54703    -87170.87945  24022134.71145
    201062.75407  21464587.31307    151760.99848  21464579.63348
   -668739.88705  24245355.84405   -521178.10047  24245352.20347
   2572496.30507  22121857.25807   1981646.94948  22121852.64148
 08 11 15  0  5 30.0000000  0  9  3  6 13 16 19 21 23 25 31
  -1582876.17207  20773754.42207  -1228051.66549  20773750.21949
   -612766.51607  20542807.39107   -477471.28049  20542803.14149
  -1239167.56606  22704618.02306   -965001.10947  22704613.30147
   1445707.95707  20671933.80507   1112759.39249  20671928.28149
  -2481986.44906  23382179.60206  -1931041.61947  23382175.47747
    -54385.69104  24021874.07004    -88253.34445  24021869.89145
    214226.00807  21467092.45307    162018.07348  21467085.37948
   -737486.60506  24232273.90606   -574746.96747  24232270.26647
   2662328.93407  22138951.38307   2051646.38648  22138947.38348
 08 11 15  0  6  0.0000000  0  9  3  6 13 16 19 21 23 25 31
  -1631671.27307  20764469.31307  -1266073.82349  20764464.91849
   -628614.72307  20539791.59407   -489820.53649  20539788.04749
  -1275717.42606  22697662.43006   -993481.50747  22697657.55147
   1494060.68007  20681135.04707   1150436.82549  20681129.74249
  -2567311.48006  23365943.04706  -1997528.62047  23365938.45747
    -55485.05905  24021666.28105    -89109.93046  24021660.40246
    227893.93407  21469693.46107    172668.38348  21469686.23048
   -806325.84006  24219174.04706   -628387.92347  24219170.62147
   2752349.05907  22156081.85207   2121791.90248  22156077.71548
 08 11 15  0  6 30.0000000  0  9  3  6 13 16 19 21 23 25 31
  -1680129.47308  20755248.06308  -1303833.46049  20755243.96149
   -644087.50807  20536847.36707   -501877.25449  20536843.06649
  -1311863.00406  22690784.46906  -1021646.88747  22690779.15247
   1542507.72307  20690353.81307   1188187.76349  20690348.81649
  -2652565.49606  23349720.25006  -2063960.29447  23349714.64547
    -56292.31305  24021513.48405    -89738.95846  24021507.02046
    242067.14807  21472390.35907    183712.44648  21472382.83248
   -875255.68006  24206057.27306   -682099.46347  24206053.08247
   2842556.32807  22173248.02307   2192083.26048  22173243.14548
 08 11 15  0  7  0.0000000  0  9  3  6 13 16 19 21 23 25 31
  -1728246.22707  20746091.51607  -1341327.04749  20746087.16449
   -659180.98007  20533975.18807   -513638.42049  20533971.01249
  -1347598.78507  22683984.50807  -1049492.95847  22683978.96147
   1591051.51607  20699591.21907   1226014.07949  20699586.08249
  -2737742.80506  23333511.34406  -2130332.20447  23333506.39547
    -56803.02305  24021414.76605    -90136.92546  24021409.36346
    256749.26207  21475184.22707    195153.03148  21475177.05148
   -944271.15606  24192924.62506   -735877.74947  24192920.02747
   2932953.75407  22190450.14107   2262522.78748  22190445.21148
 08 11 15  0  7 30.0000000  0  9  3  6 13 16 19 21 23 25 31
  -1776005.75808  20737003.21108  -1378542.24549  20736999.26249
   -673880.51607  20531178.05507   -525092.59749  20531174.06349
  -1382908.82407  22677264.87507  -1077007.24347  22677260.44147
   1639705.39507  20708849.97707   1263926.17949  20708844.82849
  -2822827.12905  23317319.33605  -2196631.63547  23317314.41047
    -57001.23005  24021377.50805    -90291.29346  24021371.64546
    271954.49207  21478077.53907    207001.25448  21478070.37948
  -1013356.60905  24179778.17205   -789710.55847  24179772.87547
   3023554.97307  22207690.77307   2333121.13448  22207685.79748
 08 11 15  0  8  0.0000000  0  9  3  6 13 16 19 21 23 25 31
  -1823417.30508  20727981.26608  -1415486.29949  20727977.08649
   -688196.09408  20528454.06308   -536247.59549  20528449.93449
  -1417801.77307  22670624.91407  -1104196.56947  22670620.08647
   1688457.75007  20718127.47707   1301915.00049  20718122.01249
  -2907826.49206  23301145.68806  -2262864.82847  23301139.65247
    -56896.25004  24021396.65604    -90209.42145  24021391.19545
    287672.23807  21481069.13307    219248.82548  21481061.79748
  -1082521.16006  24166616.64806   -843604.98647  24166611.26647
   3114348.75807  22224968.43007   2403869.49348  22224963.46148
 08 11 15  0  8 30.0000000  0  9  3  6 13 16 19 21 23 25 31
  -1870474.55108  20719026.41408  -1452154.26749  20719022.49249
   -702122.76607  20525803.63307   -547099.52249  20525799.57049
  -1452270.57406  22664065.75006  -1131055.37747  22664060.80547
   1737312.43407  20727424.09407   1339983.57449  20727418.55549
  -2992733.96106  23284988.21106  -2329026.45947  23284981.55947
    -56482.34005  24021475.38305    -89886.99146  24021470.87946
    303907.17607  21484157.43807    231899.44948  21484150.87148
  -1151758.47704  24153440.14804   -897556.11347  24153435.91447
   3205339.14807  22242283.74207   2474771.07548  22242278.27048
 08 11 15  0  9  0.0000000  0  9  3  6 13 16 19 21 23 25 31
  -1917163.24208  20710141.84408  -1488535.06449  20710137.19949
   -715647.09808  20523230.31308   -557637.97749  20523225.58649
  -1486300.72706  22657589.38306  -1157572.38947  22657585.19147
   1786281.54707  20736742.65607   1378141.30049  20736737.46149
  -3077534.62506  23268851.15606  -2395104.88147  23268844.25047
    -55744.88705  24021615.32005    -89312.28846  24021611.52046
    320672.14806  21487347.48406    244963.05348  21487341.10948
  -1221054.09405  24140254.32805   -951552.65347  24140249.50447
   3296538.66407  22259638.19507   2545835.61648  22259633.10548
 08 11 15  0  9 30.0000000  0  9  3  6 13 16 19 21 23 25 31
  -1963487.97708  20701326.75808  -1524632.25249  20701322.35549
   -728774.94907  20520731.95307   -567867.46749  20520727.30549
  -1519896.15606  22651197.06306  -1183750.63847  22651191.90647
   1835358.07007  20746081.58607   1416382.75649  20746075.96149
  -3162232.25006  23252733.95306  -2461102.93947  23252726.74647
    -54688.37105  24021816.92205    -88489.09946  24021812.54746
    337960.98406  21490637.99206    258434.88648  21490631.03548
  -1290412.74605  24127054.41405  -1005598.31047  24127050.79747
   3387940.41007  22277031.52307   2617057.73948  22277026.92648
 08 11 15  0 10  0.0000000  0  9  3  6 13 16 19 21 23 25 31
  -2009449.22307  20692580.59407  -1560446.20649  20692576.37949
   -741507.77707  20518308.82807   -577789.15149  20518304.49649
  -1553057.58206  22644886.48406  -1209590.71847  22644880.98047
   1884538.87507  20755440.41407   1454705.44749  20755435.07849
  -3246826.53506  23236635.56306  -2527020.54047  23236629.19547
    -53313.56606  24022078.65606    -87417.77246  24022074.10246
    355771.64806  21494027.29706    272313.30648  21494020.23448
  -1359834.59405  24113844.22705  -1059693.25647  24113840.07447
   3479542.19507  22294462.90607   2688435.70148  22294458.22748
 08 11 15  0 10 30.0000000  0  9  3  6 13 16 19 21 23 25 31
  -2055040.76608  20683904.61708  -1595972.07949  20683900.37949
   -753840.45707  20515962.19507   -587399.03649  20515957.44149
  -1585777.72306  22638660.25806  -1235086.92947  22638655.04347
   1933828.10507  20764820.06307   1493112.62349  20764814.34849
  -3331310.38306  23220559.06306  -2592852.07647  23220552.40647
    -51614.34805  24022401.74205    -86093.71246  24022396.83646
    374108.92207  21497516.64107    286602.09948  21497509.66448
  -1429313.27305  24100623.17205  -1113832.46547  24100618.62547
   3571347.91007  22311932.69507   2759972.60048  22311927.75448
 08 11 15  0 11  0.0000000  0  9  3  6 13 16 19 21 23 25 31
  -2100259.46507  20675299.55507  -1631207.40449  20675295.62149
   -765770.86307  20513691.91407   -596695.43949  20513687.11349
  -1618052.82806  22632518.18806  -1260236.36347  22632513.07447
   1983226.78507  20774220.18007   1531605.08549  20774214.65649
  -3415679.90206  23204503.37506  -2658594.50947  23204497.76647
    -49587.55906  24022787.39106    -84514.37446  24022782.16446
    392974.53106  21501106.93006    301302.57648  21501100.04748
  -1498845.35505  24087392.18005  -1168013.31547  24087387.17647
   3663358.78907  22329441.96107   2831669.37048  22329436.74648
 08 11 15  0 11 30.0000000  0  9  3  6 13 16 19 21 23 25 31
  -2145100.19108  20666766.93008  -1666148.20549  20666762.27749
   -777294.70707  20511499.01607   -605675.04649  20511494.32849
  -1649876.77706  22626462.12506  -1285034.26747  22626457.60547
   2032738.16407  20783641.80507   1570185.37849  20783636.12949
  -3499928.82406  23188471.48406  -2724243.00447  23188465.26647
    -47228.00406  24023236.63306    -82675.77746  24023231.32046
    412372.07407  21504798.60207    316417.53048  21504791.51248
  -1568425.33605  24074151.77305  -1222231.48047  24074146.97347
   3755578.18407  22346990.38307   2903528.61448  22346986.06348
 08 11 15  0 12  0.0000000  0  9  3  6 13 16 19 21 23 25 31
  -2189561.58207  20658306.35207  -1700793.46049  20658301.85249
   -788411.98807  20509383.68007   -614337.87149  20509378.95349
  -1681249.15606  22620492.62506  -1309480.24047  22620487.96147
   2082360.83207  20793084.85207   1608852.39149  20793079.35949
  -3584055.34006  23172462.35906  -2789796.06347  23172456.94547
    -44534.42206  24023749.13306    -80576.87646  24023743.72346
    432301.09006  21508590.21906    331946.63848  21508584.33648
  -1638051.98805  24060901.60905  -1276485.99147  24060897.56347
   3848005.11707  22364578.55507   2975549.58748  22364574.17248
 08 11 15  0 12 30.0000000  0  9  3  6 13 16 19 21 23 25 31
  -2233639.85208  20649918.35208  -1735140.14849  20649913.94949
   -799120.02307  20507345.69507   -622681.77349  20507341.65649
  -1712164.77306  22614609.66406  -1333570.34947  22614604.08247
   2132096.21107  20802548.79707   1647607.22349  20802544.13749
  -3668054.56606  23156478.87506  -2855249.98147  23156471.75447
    -41503.21905  24024325.58605    -78214.87246  24024321.17646
    452763.93406  21512484.46106    347891.70648  21512477.00448
  -1707721.00405  24047644.14105  -1330773.51147  24047640.04347
   3940641.58607  22382206.49207   3047733.84548  22382202.28148
 08 11 15  0 13  0.0000000  0  9  3  6 13 16 19 21 23 25 31
  -2277339.27708  20641602.94508  -1769191.65349  20641597.98049
   -809424.18407  20505384.71907   -630710.99449  20505380.36749
  -1742627.87506  22608812.56306  -1357307.84947  22608807.59847
   2181938.05107  20812033.71107   1686445.01349  20812027.98849
  -3751930.18806  23140517.27306  -2920607.61547  23140510.49247
    -38138.73006  24024966.90606    -75593.22447  24024961.35947
    473754.37506  21516478.89106    364247.89548  21516471.77748
  -1777436.80905  24034378.25805  -1385097.48047  24034373.75047
   4033480.73807  22399873.13307   3120076.02648  22399868.87948
 08 11 15  0 13 30.0000000  0  9  3  6 13 16 19 21 23 25 31
  -2320651.44908  20633360.66408  -1802941.38649  20633355.87149
   -819316.79707  20503501.93007   -638419.51249  20503498.21949
  -1772629.87506  22603103.47706  -1380686.01147  22603098.40247
   2231892.87107  20821539.96107   1725370.83249  20821534.37549
  -3835672.62506  23124582.19506  -2985861.39047  23124575.52347
    -34432.22706  24025671.54706    -72705.03246  24025666.69546
    495279.87906  21520575.54706    381021.01648  21520567.82048
  -1847190.20305  24021103.93805  -1439450.75047  24021099.12547
   4126529.66807  22417580.15607   3192581.65248  22417575.82848
 08 11 15  0 14  0.0000000  0  9  3  6 13 16 19 21 23 25 31
  -2363576.90208  20625192.16408  -1836389.77449  20625187.73849
   -828799.54707  20501697.67207   -645808.66549  20501693.67249
  -1802169.59406  22597481.81306  -1403703.94947  22597477.32047
   2281957.72307  20831067.01607   1764382.40449  20831061.23449
  -3919281.52706  23108671.52306  -3051011.17947  23108664.78947
    -30384.57805  24026441.95305    -69551.04846  24026436.90246
    517337.97706  21524772.71906    398209.13048  21524764.83648
  -1916981.53505  24007822.91405  -1493833.62747  24007817.73847
   4219785.83607  22435326.32007   3265248.75048  22435321.10548
 08 11 15  0 14 30.0000000  0  9  3  6 13 16 19 21 23 25 31
  -2406110.13308  20617098.42208  -1869532.55249  20617093.41849
   -837868.02707  20499971.65607   -652875.01949  20499968.07449
  -1831241.96906  22591949.99206  -1426357.76047  22591945.53547
   2332136.06307  20840615.43007   1803482.38549  20840610.00449
  -4002750.41406  23092788.19506  -3116051.82248  23092781.39848
    -25990.33606  24027278.54706    -66126.89946  24027272.43046
    539932.66006  21529071.86706    415815.38248  21529064.70748
  -1986804.74605  23994536.25005  -1548241.32247  23994530.29347
   4313252.60907  22453112.24207   3338079.98448  22453106.55948
 08 11 15  0 15  0.0000000  0  9  3  6 13 16 19 21 23 25 31
  -2448248.25407  20609079.58607  -1902367.43949  20609075.40649
   -846520.27007  20498325.57807   -659617.02549  20498321.18449
  -1859843.86706  22586507.09406  -1448644.94047  22586502.72347
   2382428.93807  20850186.00807   1842671.63249  20850180.73449
  -4086075.46506  23076931.28906  -3180980.41747  23076925.00047
    -21246.44506  24028181.25006    -62430.35247  24028175.46947
    563065.21506  21533473.73406    433840.74848  21533466.71148
  -2056656.62905  23981243.95305  -1602671.37247  23981238.26247
   4406931.04707  22470938.82807   3411076.14948  22470933.46948
 08 11 15  0 15 30.0000000  0  9  3  6 13 16 19 21 23 25 31
  -2489981.50808  20601138.21908  -1934886.85849  20601133.72749
   -854747.85507  20496759.82007   -666028.13449  20496755.84049
  -1887964.44506  22581155.55506  -1470557.08347  22581152.06647
   2432844.03907  20859779.45307   1881956.11549  20859774.41449
  -4169245.98006  23061104.53106  -3245788.61247  23061098.78947
    -16143.26206  24029152.51606    -58453.81747  24029146.78147
    586743.80107  21537979.67207    452291.57348  21537972.60948
  -2126527.03105  23967948.29705  -1657115.85847  23967942.71147
   4500828.87507  22488807.04707   3484243.24648  22488802.43848
 08 11 15  0 16  0.0000000  0  9  3  6 13 16 19 21 23 25 31
  -2531305.40607  20593274.61707  -1967087.29349  20593269.51649
   -862547.15207  20495275.60207   -672105.49949  20495272.04749
  -1915598.79306  22575896.82006  -1492090.30747  22575892.46147
   2483383.62507  20869396.87507   1921337.60849  20869391.54749
  -4252256.36306  23045307.86706  -3310472.00847  23045302.39547
    -10676.21105  24030192.21905    -54193.74146  24030186.52346
    610971.30906  21542590.49206    471170.15148  21542583.13348
  -2196410.94905  23954649.58605  -1711570.82947  23954644.50847
   4594948.82407  22506717.41407   3557583.43248  22506713.13748
 08 11 15  0 16 30.0000000  0  9  3  6 13 16 19 21 23 25 31
  -2572213.10907  20585490.41407  -1998963.43049  20585485.19149
   -869912.79707  20493874.08607   -677844.96949  20493870.07449
  -1942739.98406  22570732.22706  -1513239.27847  22570727.72747
   2534052.48007  20879038.77307   1960819.82249  20879033.32049
  -4335099.11706  23029543.82006  -3375024.80947  23029537.53547
     -4838.82406  24031303.50806    -49645.12546  24031297.94946
    635752.54707  21547306.22707    490480.18648  21547298.93448
  -2266301.47305  23941349.86705  -1766030.98047  23941345.14547
   4689295.41007  22524670.85207   3631100.21348  22524666.73848
 08 11 15  0 17  0.0000000  0  9  3  6 13 16 19 21 23 25 31
  -2612696.57807  20577786.40607  -2030508.97449  20577781.85949
   -876837.26208  20492556.73408   -683240.65549  20492552.79749
  -1969379.43006  22565662.77306  -1533997.32147  22565658.81647
   2584857.01607  20888706.83607   2000407.76349  20888701.49649
  -4417764.67606  23013813.15606  -3439439.52547  23013806.63747
      1377.04305  24032485.18805    -44801.59446  24032480.80946
    661094.19907  21552128.46907    510226.92648  21552121.62148
  -2336189.42605  23928050.60205  -1820489.09347  23928045.99247
   4783875.18807  22542669.32807   3704798.69948  22542664.93048
 08 11 15  0 17 30.0000000  0  9  3  6 13 16 19 21 23 25 31
  -2652742.18807  20570165.96907  -2061713.35549  20570161.44549
   -883308.48408  20491325.21908   -688283.16849  20491321.09849
  -1995502.96506  22560691.64106  -1554353.33647  22560687.32047
   2635808.43007  20898402.75807   2040110.14349  20898397.04749
  -4500239.17606  22998118.93806  -3503705.36747  22998112.88747
      7984.78905  24033743.06305    -39652.72846  24033738.23446
    687007.94507  21557060.16407    530419.42448  21557052.83248
  -2406060.98805  23914754.64805  -1874934.44447  23914749.48047
   4878699.44507  22560713.54707   3778687.70948  22560708.97348
 08 11 15  0 18  0.0000000  0  9  3  6 13 16 19 21 23 25 31
  -2692351.04707  20562628.30507  -2092577.37549  20562624.30149
   -889328.33608  20490179.71908   -692973.95549  20490175.47349
  -2021111.37506  22555818.25006  -1574307.94647  22555813.40247
   2686903.74207  20908125.39107   2079924.66549  20908120.17649
  -4582522.40206  22982460.57006  -3567822.14947  22982454.56647
     14983.58205  24035074.38305    -34199.10846  24035070.42646
    713491.41407  21562099.53107    551055.90048  21562092.38748
  -2475916.53105  23901461.52305  -1929367.34347  23901455.83647
   4973765.74607  22578804.18807   3852765.33448  22578798.73048
 08 11 15  0 18 30.0000000  0  9  3  6 13 16 19 21 23 25 31
  -2731509.70708  20555176.83608  -2123090.61549  20555172.55949
   -894884.66407  20489122.35207   -697303.56949  20489118.52749
  -2046191.60906  22551045.78106  -1593850.99947  22551041.87947
   2738154.51607  20917877.96907   2119860.33449  20917873.46149
  -4664599.92606  22966842.03906  -3631778.66147  22966835.04747
     22386.57005  24036483.02305    -28430.55446  24036479.29346
    740556.19507  21567249.67207    572145.32048  21567242.39548
  -2545742.40605  23888173.71905  -1983777.08647  23888168.57447
   5069085.10507  22596943.09407   3927040.14448  22596937.79348
 08 11 15  0 19  0.0000000  0  9  3  6 13 16 19 21 23 25 31
  -2770225.47708  20547809.39108  -2153258.76049  20547804.93849
   -899985.59408  20488151.70308   -701278.30749  20488147.45749
  -2070749.27006  22546373.11706  -1612986.82947  22546367.96947
   2789551.60907  20927658.68007   2159910.01149  20927653.68449
  -4746477.81306  22951261.21906  -3695579.61147  22951253.78947
     30186.41805  24037967.43805    -22352.70846  24037963.05946
    768193.16407  21572508.78907    593680.60948  21572502.25048
  -2615545.02705  23874890.91405  -2038168.72947  23874885.97747
   5164648.34407  22615127.94507   4001504.96848  22615123.52748
 08 11 15  0 19 30.0000000  0  9  3  6 13 16 19 21 23 25 31
  -2808486.13707  20540528.93807  -2183072.26449  20540524.58249
   -904620.70307  20487269.37507   -704890.08349  20487265.37949
  -2094772.19106  22541801.10906  -1631706.01347  22541796.86747
   2841105.05907  20937469.22707   2200081.52349  20937463.41449
  -4828143.36706  22935720.45306  -3759215.05947  22935714.07847
     38395.03506  24039530.21106    -15956.36346  24039525.39846
    796412.50007  21577878.74207    615669.68048  21577872.20348
  -2685311.92605  23861615.10205  -2092532.51347  23861610.43447
   5260465.64507  22633361.82007   4076167.74748  22633357.07848
 08 11 15  0 20  0.0000000  0  9  3  6 13 16 19 21 23 25 31
  -2846295.80107  20533333.77307  -2212534.31649  20533329.67649
   -908794.45707  20486475.26607   -708142.35449  20486471.25449
  -2118264.19906  22537331.39106  -1650011.49747  22537326.64147
   2892808.95707  20947307.84407   2240370.27249  20947302.42249
  -4909598.77306  22920220.29706  -3822686.78647  22920213.93847
     47008.48404  24041168.76604     -9244.59546  24041164.28546
    825208.71107  21583358.82007    638108.27648  21583351.35548
  -2755046.12506  23848344.46906  -2146870.83747  23848340.24247
   5356531.44107  22651642.33607   4151024.18648  22651638.16848
 08 11 15  0 20 30.0000000  0  9  3  6 13 16 19 21 23 25 31
  -2883658.63307  20526223.82007  -2241648.20849  20526219.51249
   -912512.14508  20485767.61708   -711039.25749  20485763.70749
  -2141228.75406  22532961.60906  -1667905.93847  22532956.52747
   2944657.64507  20957174.50007   2280771.83049  20957168.79749
  -4990847.65206  22904759.00006  -3885997.59747  22904753.11347
     56022.97704  24042884.63304     -2220.24046  24042879.80546
    854576.05107  21588947.07007    660991.89848  21588939.77748
  -2824751.09406  23835080.54706  -2201186.37647  23835075.48447
   5452839.66807  22669969.03107   4226069.54348  22669964.50048
 08 11 15  0 21  0.0000000  0  9  3  6 13 16 19 21 23 25 31
  -2920563.63707  20519201.19507  -2270405.34549  20519197.05149
   -915764.11307  20485149.10907   -713573.26749  20485144.76249
  -2163654.66406  22528693.78106  -1685380.67847  22528688.36747
   2996660.32807  20967070.35207   2321293.39749  20967065.00049
  -5071877.94506  22889339.64806  -3949138.09047  22889332.92647
     65449.13305  24044678.69505      5124.86546  24044672.97346
    884523.53507  21594646.25807    684327.56848  21594639.26248
  -2894415.24606  23821823.93806  -2255470.14947  23821818.75447
   5549399.25007  22688343.60207   4301310.74948  22688339.44148
 08 11 15  0 21 30.0000000  0  9  3  6 13 16 19 21 23 25 31
  -2957008.23407  20512265.95307  -2298803.73049  20512261.53949
   -918548.62507  20484619.16407   -715743.01649  20484614.90649
  -2185539.10506  22524529.12506  -1702433.46447  22524524.75447
   3048817.60907  20976995.85907   2361935.41849  20976989.84849
  -5152685.67206  22873962.72706  -4012105.15747  22873956.94947
     75289.69504  24046551.03104     12792.84846  24046545.36746
    915052.10907  21600455.29707    708116.05848  21600448.31348
  -2964035.25406  23808575.66406  -2309719.50847  23808570.64547
   5646211.16807  22706766.29707   4376748.57448  22706761.68048
 08 11 15  0 22  0.0000000  0  9  3  6 13 16 19 21 23 25 31
  -2992987.89507  20505419.05507  -2326839.81549  20505415.04749
   -920862.45307  20484178.84407   -717545.99949  20484174.34849
  -2206877.11306  22520468.71106  -1719060.47447  22520464.80547
   3101132.06607  20986950.54707   2402699.92849  20986944.98049
  -5233265.61306  22858629.11706  -4074894.69148  22858622.65248
     85548.70704  24048502.89104     20786.88546  24048497.95346
    946164.39107  21606375.79707    732359.38348  21606368.04748
  -3033605.93806  23795336.58606  -2363930.37547  23795332.12547
   5743277.66807  22725237.85207   4452384.76148  22725232.75448
 08 11 15  0 22 30.0000000  0  9  3  6 13 16 19 21 23 25 31
  -3028502.83607  20498660.47707  -2354513.79049  20498656.62149
   -922706.77008  20483827.70308   -718983.11849  20483823.69949
  -2227668.25806  22516512.08606  -1735261.36347  22516507.73847
   3153602.36307  20996935.43807   2443585.87749  20996929.51649
  -5313616.64507  22843339.00807  -4137505.87648  22843331.42648
     96226.38302  24050534.66402     29107.07045  24050529.94545
    977858.50407  21612406.85907    757056.08648  21612400.12948
  -3103126.56306  23782107.35206  -2418102.30747  23782103.00047
   5840596.82807  22743756.68007   4528217.84648  22743750.86348
 08 11 15  0 23  0.0000000  0  9  3  6 13 16 19 21 23 25 31
  -3063548.87508  20491991.90608  -2381822.39249  20491987.36349
   -924078.52308  20483567.00008   -720052.01549  20483562.94949
  -2247908.22706  22512660.60906  -1751032.78247  22512655.75447
   3206230.50007  21006950.16407   2484594.82649  21006944.45349
  -5393733.52007  22828093.57007  -4199934.61548  22828085.19148
    107326.43403  24052646.94503     37756.47145  24052642.35545
   1010136.81607  21618549.27307    782208.01348  21618542.38348
  -3172592.22706  23768888.07006  -2472231.41147  23768883.47747
   5938171.41807  22762324.81307   4604249.97948  22762318.96948
 08 11 15  0 23 30.0000000  0  9  3  6 13 16 19 21 23 25 31
  -3098139.99208  20485409.44508  -2408776.50949  20485405.32849
   -924992.72308  20483392.76608   -720764.37049  20483388.47749
  -2267609.86706  22508912.10906  -1766384.69147  22508906.87147
   3259000.97707  21016992.00807   2525714.66049  21016986.43049
  -5473628.90206  22812888.85906  -4262190.71947  22812881.44947
    118835.12504  24054837.30504     46724.26346  24054832.42246
   1042983.43407  21624799.68807    807802.75748  21624792.87548
  -3242015.87906  23755677.03106  -2526327.74447  23755672.84447
   6035985.42607  22780938.32007   4680468.64248  22780933.21148
 08 11 15  0 24  0.0000000  0  9  3  6 13 16 19 21 23 25 31
  -3132288.26608  20478911.20308  -2435385.54149  20478907.06649
   -925462.99608  20483303.34408   -721130.81249  20483299.16049
  -2286786.12906  22505261.96106  -1781327.22247  22505258.34447
   3311899.39807  21027058.17207   2566934.20449  21027053.40249
  -5553314.36306  22797724.75006  -4324283.24548  22797717.86748
    130739.75805  24057102.93005     56000.64246  24057096.98446
   1076384.41007  21631155.68007    833829.48048  21631148.81648
  -3311409.41406  23742472.08606  -2580400.62847  23742467.61347
   6134024.46907  22799594.25007   4756862.68248  22799590.22748
 08 11 15  0 24 30.0000000  0  9  3  6 13 16 19 21 23 25 31
  -3165983.71108  20472498.91408  -2461641.73449  20472494.64549
   -925480.28108  20483299.82808   -721144.27549  20483295.87149
  -2305426.29306  22501715.75006  -1795852.02547  22501710.77347
   3364934.47307  21037150.62507   2608260.22749  21037145.53549
  -5632778.35506  22782603.64806  -4386203.22348  22782596.79748
    143050.70704  24059444.37504     65593.65346  24059439.89146
   1110347.71507  21637618.58607    860294.39548  21637611.65248
  -3380761.64506  23729274.72706  -2634441.30447  23729270.11347
   6232296.93407  22818294.84407   4833438.58648  22818290.55148
 08 11 15  0 25  0.0010000  0  9  3  6 13 16 19 21 23 25 31
  -3199231.05908  20466172.34108  -2487548.75849  20466168.33349
   -925048.85508  20483382.04408   -720808.10149  20483378.09949
  -2323533.86706  22498269.51306  -1809961.81747  22498264.41547
   3418102.93407  21047267.98107   2649690.19849  21047262.77849
  -5712025.67606  22767523.45806  -4447954.33948  22767517.11048
    155764.79705  24061864.31005     75500.67146  24061859.13046
   1144869.48007  21644188.31707    887194.43548  21644181.12248
  -3450077.30506  23716083.77106  -2688453.48347  23716079.66547
   6330801.10907  22837040.08307   4910195.08348  22837035.07948
 08 11 15  0 25 30.0010000  0  9  3  6 13 16 19 21 23 25 31
  -3232034.62108  20459930.22408  -2513109.97349  20459926.02149
   -924176.92608  20483548.13008   -720128.68149  20483544.41549
  -2341114.05906  22494923.92706  -1823660.67447  22494918.97047
   3471392.87507  21057408.73907   2691214.84149  21057403.77149
  -5791056.91806  22752483.73906  -4509537.13547  22752477.63047
    168874.14105  24064359.13005     85715.79246  24064353.60346
   1179938.24207  21650861.61407    914520.72648  21650854.32548
  -3519357.67606  23702900.32506  -2742438.14847  23702896.79847
   6429521.66407  22855825.86407   4987120.17448  22855820.91148
 08 11 15  0 26  0.0010000  0  9  3  6 13 16 19 21 23 25 31
  -3264400.53508  20453771.17708  -2538330.16049  20453766.91549
   -922870.21908  20483796.69208   -719110.46549  20483792.54049
  -2358172.77006  22491678.41906  -1836953.20647  22491673.34147
   3524799.75007  21067571.80207   2732830.58149  21067566.63849
  -5869878.18406  22737484.93506  -4570956.26647  22737478.43547
    182374.87905  24066928.76305     96235.79446  24066923.33746
   1215549.49607  21657637.88807    942269.73448  21657631.10348
  -3588608.81306  23689723.16106  -2796400.08747  23689718.76347
   6528455.32806  22874651.98906   5064211.30348  22874646.79048
 08 11 15  0 26 30.0010000  0  9  3  6 13 16 19 21 23 25 31
  -3296322.19908  20447696.63808  -2563204.18849  20447692.45449
   -921123.32807  20484129.27807   -717749.25849  20484124.54449
  -2374701.80906  22488533.49706  -1849832.96447  22488527.48147
   3578328.39807  21077758.13807   2774541.19849  21077752.36849
  -5948481.83207  22722528.05207  -4632205.86648  22722519.65348
    196272.76205  24069572.38805    107065.33546  24069567.79846
   1251707.53907  21664519.03607    970444.82348  21664512.11048
  -3657823.40206  23676551.90306  -2850333.50647  23676546.94247
   6627606.70306  22893519.48106   5141472.06448  22893515.59548
 08 11 15  0 27  0.0010000  0  9  3  6 13 16 19 21 23 25 31
  -3327812.01608  20441704.31008  -2587741.69849  20441700.04849
   -918949.73008  20484542.88808   -716055.54449  20484538.40749
  -2390713.49606  22485486.24706  -1862309.59047  22485481.42347
   3631965.14807  21087964.98907   2816336.07249  21087959.23149
  -6026878.90206  22707609.26306  -4693294.47648  22707601.53648
    210555.92205  24072291.81005    118195.03646  24072286.25546
   1288397.45707  21671500.37207    999034.35948  21671493.48148
  -3727012.61706  23663385.43506  -2904247.17347  23663380.19247
   6726961.89106  22912426.73906   5218891.65348  22912422.11848
 08 11 15  0 27 30.0010000  0  9  3  6 13 16 19 21 23 25 31
  -3358871.21108  20435793.73908  -2611943.66549  20435789.51349
   -916351.83608  20485037.36408   -714031.20049  20485032.94649
  -2406209.19506  22482536.74706  -1874384.17747  22482532.49747
   3685706.98807  21098191.84907   2858212.82549  21098186.23149
  -6105069.79706  22692729.27106  -4754222.39848  22692723.16148
    225222.46505  24075082.57505    129623.48745  24075077.39945
   1325616.50807  21678583.06707   1028036.19148  21678576.18548
  -3796176.86306  23650224.11406  -2958141.38747  23650219.43147
   6826517.57406  22931371.59106   5296467.48848  22931366.96248
 08 11 15  0 28  0.0010000  0  9  3  6 13 16 19 21 23 25 31
  -3389497.02708  20429966.13808  -2635807.92649  20429961.42749
   -913327.77708  20485612.70808   -711674.78749  20485608.51349
  -2421185.71906  22479686.82506  -1886054.22747  22479681.75147
   3739555.23807  21108438.56707   2900172.51949  21108432.87249
  -6183050.09807  22677890.51307  -4814986.21648  22677884.37648
    240275.94905  24077947.09905    141353.45345  24077942.29045
   1363365.98807  21685766.58307   1057451.39148  21685759.68148
  -3865312.06606  23637068.05206  -3012012.91047  23637063.62647
   6926275.04706  22950354.71606   5374200.58648  22950350.66148
 08 11 15  0 28 30.0010000  0  9  3  6 13 16 19 21 23 25 31
  -3419686.77708  20424221.13008  -2659332.41149  20424216.91949
   -909876.28108  20486269.57508   -708985.31249  20486265.19249
  -2435640.36706  22476935.87206  -1897317.57947  22476931.09147
   3793511.00007  21118706.03607   2942215.94949  21118700.67349
  -6260816.00807  22663092.20007  -4875583.03348  22663086.00948
    255718.44103  24080885.00503    153386.54745  24080881.16545
   1401646.03907  21693050.61407   1087279.98148  21693044.42348
  -3934414.73406  23623918.79406  -3065859.12747  23623913.87647
   7026235.08206  22969376.62206   5452091.45548  22969373.35348
 08 11 15  0 29  0.0010000  0  9  3  6 13 16 19 21 23 25 31
  -3449449.98008  20418557.15308  -2682524.49449  20418553.09949
   -906007.55508  20487005.60608   -705970.70549  20487001.33749
  -2449581.76206  22474283.39606  -1908180.99747  22474278.06747
   3847563.69107  21128991.91907   2984334.90949  21128986.37649
  -6338375.73807  22648332.73907  -4936019.18548  22648326.60348
    271540.25802  24083895.48102    165715.26644  24083891.91144
   1440445.85207  21700434.56007   1117513.57948  21700427.51348
  -4003492.85906  23610773.24706  -3119686.26347  23610768.38847
   7126386.58206  22988434.81706   5530131.54648  22988431.20448
 08 11 15  0 29 30.0010000  0  9  3  6 13 16 19 21 23 25 31
  -3478776.69108  20412976.48108  -2705376.47149  20412972.54449
   -901713.04708  20487823.06008   -702624.33949  20487818.79049
  -2462999.72707  22471730.47407  -1918636.57647  22471725.00947
   3901721.32407  21139297.51307   3026535.65249  21139292.23149
  -6415718.15606  22633614.65306  -4996286.00848  22633608.22048
    287751.69502  24086980.09102    178347.46945  24086977.07145
   1479772.87907  21707917.84107   1148157.99848  21707911.10648
  -4072535.76206  23597634.64606  -3173485.90747  23597630.56347
   7226737.95706  23007531.13806   5608327.37648  23007527.28648
 08 11 15  0 30  0.0010000  0  9  3  6 13 16 19 21 23 25 31
  -3507659.59008  20407480.21608  -2727882.61549  20407475.86849
   -896986.20308  20488722.74708   -698941.07349  20488718.43849
  -2475887.03507  22469277.88807  -1928678.64047  22469272.51747
   3955990.48007  21149624.63807   3068823.29449  21149619.11849
  -6492834.34406  22618940.06706  -5056376.52448  22618934.13048
    304359.91801  24090138.70001    191289.01245  24090137.38045
   1519632.89507  21715503.02807   1179217.75548  21715496.00148
  -4141534.57806  23584504.58306  -3227251.19647  23584500.57947
   7327294.48006  23026666.81706   5686683.10348  23026661.68148
 08 11 15  0 30 30.0010000  0  9  3  6 13 16 19 21 23 25 31
  -3536096.99608  20402068.97408  -2750041.62449  20402064.50949
   -891826.82408  20489704.31008   -694920.77549  20489700.71649
  -2488241.27707  22466927.22407  -1938305.32847  22466921.73947
   4010371.04707  21159973.01307   3111197.74049  21159967.72449
  -6569721.94906  22604308.95806  -5116288.91648  22604302.51348
    321366.26601  24093377.23901    204540.72344  24093374.08344
   1560025.18007  21723189.63007   1210692.24448  21723182.68548
  -4210486.82806  23571383.50506  -3280980.21947  23571378.89247
   7428055.95706  23045840.88006   5765198.53348  23045836.70048
 08 11 15  0 31  0.0010000  0  9  3  6 13 16 19 21 23 25 31
  -3564085.85908  20396742.73108  -2771851.12349  20396738.53249
   -886232.86308  20490768.66908   -690561.84049  20490764.45449
  -2500059.73007  22464678.22407  -1947514.51947  22464672.60647
   4064864.80907  21170342.79407   3153660.39949  21170337.42749
  -6646376.43406  22589721.73106  -5176019.65747  22589714.62247
    338773.68401  24096689.89601    218104.97344  24096686.43844
   1600951.48007  21730977.92707   1242582.85148  21730970.73948
  -4279388.06306  23558271.83306  -3334669.46647  23558266.92747
   7529024.00406  23065054.30206   5843874.90448  23065050.07948
 08 11 15  0 31 30.0010000  0  9  3  6 13 16 19 21 23 25 31
  -3591627.90608  20391501.84108  -2793312.44449  20391497.17349
   -880207.05908  20491915.42708   -685866.40649  20491911.07149
  -2511343.17207  22462531.71607  -1956306.82547  22462525.03247
   4119469.00807  21180734.01307   3196209.10249  21180728.14949
  -6722797.98006  22575179.91906  -5235568.89048  22575171.59148
    356580.80511  24100085.31001    231980.39153  24100074.93543
   1642407.73007  21738866.71607   1274886.40948  21738859.80648
  -4348238.71906  23545170.23106  -3388319.31247  23545165.94647
   7630195.39106  23084306.07506   5922709.70548  23084302.45448
 08 11 15  0 32  0.0010000  0  9  3  6 13 16 19 21 23 25 31
  -3618727.22708  20386344.70808  -2814428.77649  20386340.86049
   -873754.69908  20493143.34108   -680838.58349  20493139.13849
  -2522096.00007  22460485.03607  -1964685.63347  22460479.25547
   4174177.58208  21191144.61408   3238839.16449  21191139.04449
  -6798989.40206  22560681.31706  -5294938.78648  22560673.95048
    374783.48801  24103543.71601         0.00000         0.00000
   1684388.03107  21746855.18507   1307598.32848  21746848.20848
  -4417041.64106  23532077.37206  -3441931.95847  23532073.14247
   7731564.18806  23103595.95806   6001698.34048  23103592.37248
 08 11 15  0 32 30.0010000  0  9  3  6 13 16 19 21 23 25 31
  -3645374.50408  20381274.13008  -2835192.88749  20381269.55649
   -866867.25408  20494453.79408   -675471.75249  20494449.31749
  -2532307.91407  22458541.98907  -1972642.97347  22458536.55647
   4228999.50007  21201576.57507   3281557.52349  21201571.50949
  -6874939.95306  22546227.67706  -5354121.01848  22546221.38048
    393391.25411  24107085.13001         0.00000         0.00000
   1726900.06607  21754944.68507   1340724.57548  21754938.34948
  -4485785.96106  23518995.87206  -3495498.95747  23518990.88847
   7833137.93406  23122925.09906   6080846.66348  23122921.08348
 08 11 15  0 33  0.0010000  0  9  3  6 13 16 19 21 23 25 31
  -3671568.65608  20376289.31708  -2855603.90049  20376285.11049
   -859544.75808  20495847.20808   -669765.90549  20495842.84549
  -2541978.10507  22456701.04407  -1980178.16247  22456696.29047
   4283934.16008  21212030.16908   3324363.75749  21212025.36849
  -6950647.28906  22531820.74706  -5413113.71348  22531815.30648
         0.00000  24110707.27801         0.00000         0.00000
   1769942.29707  21763135.90307   1374263.97148  21763129.01348
  -4554469.47306  23505925.13006  -3549018.55947  23505920.45447
   7934916.60906  23142293.52806   6160154.68847  23142288.31747
 08 11 15  0 33 30.0010000  0  8  3  6 13 16 19 23 25 31
  -3697305.92208  20371391.79408  -2875658.92249  20371387.37649
   -851784.69508  20497323.95008   -663719.11049  20497319.79049
  -2551102.28507  22454965.04407  -1987287.92148  22454959.80248
   4338984.29707  21222506.13807   3367259.95249  21222500.42749
  -7026106.28106  22517461.21606  -5471912.92448  22517455.69648
   1813517.02307  21771427.38007   1408218.30948  21771421.18148
  -4623086.84406  23492868.23106  -3602486.65147  23492863.48147
   8036901.92206  23161700.83306   6239623.74147  23161694.66147
 08 11 15  0 34  0.0010000  0  8  3  6 13 16 19 23 25 31
  -3722589.31608  20366580.35608  -2895360.24749  20366576.45449
   -843591.50808  20498882.96608   -657334.79249  20498879.01349
  -2559683.54307  22453331.89607  -1993974.62547  22453326.59547
   4394145.08607  21233003.06007   3410242.37749  21232997.43149
  -7101319.07407  22503149.41107  -5530520.27248  22503143.04048
   1857618.61307  21779819.84907   1442583.16748  21779813.50948
  -4691640.40206  23479823.23906  -3655904.99647  23479818.42347
   8139088.71906  23181146.12206   6319249.78047  23181140.06347
 08 11 15  0 34 30.0010000  0  8  3  6 13 16 19 23 25 31
  -3747417.14108  20361856.15308  -2914706.61249  20361851.78249
   -834964.60208  20500524.50508   -650612.52049  20500520.71649
  -2567720.10506  22451803.16106  -2000236.88247  22451797.36447
   4449417.22707  21243520.78607   3453311.56149  21243515.02849
  -7176282.42207  22488884.84107  -5588933.24448  22488878.30648
   1902246.96507  21788312.55207   1477358.50148  21788305.05648
  -4760126.96506  23466790.10606  -3709271.13647  23466786.04047
   8241477.21906  23200629.93506   6399033.00348  23200624.43148
 08 11 15  0 35  0.0010000  0  8  3  6 13 16 19 23 25 31
  -3771788.70308  20357218.25508  -2933697.44149  20357213.93149
   -825903.75808  20502249.06708   -643552.12049  20502244.66549
  -2575210.58206  22450376.98106  -2006073.62147  22450371.66547
   4504800.53107  21254059.81707   3496467.37849  21254054.33749
  -7250993.92607  22474667.46607  -5647149.96148  22474660.89648
   1947401.18807  21796905.06007   1512543.62848  21796898.43148
  -4828543.80906  23453770.77806  -3762582.96747  23453766.33347
   8344067.03106  23220151.91906   6478973.08948  23220147.90348
 08 11 15  0 35 30.0010000  0  9  3  6 13 16 19 21 23 25 31
  -3795695.85908  20352668.62208  -2952326.40149  20352664.31049
   -816401.79308  20504057.09908   -636147.99349  20504052.54849
  -2582146.50006  22449057.34906  -2011478.23047  22449052.26347
   4560302.52307  21264621.41907   3539715.67849  21264616.38449
  -7325443.87507  22460499.84907  -5705162.87348  22460492.77448
     11428.57411  24129960.98101         0.00000         0.00000
   1993087.57007  21805598.90307   1548143.38348  21805592.43548
  -4896881.16406  23440766.09906  -3815832.82847  23440762.32547
   8446864.98006  23239714.18506   6559075.36948  23239709.23548
 08 11 15  0 36  0.0010000  0  9  3  6 13 16 19 21 23 25 31
  -3819138.76208  20348207.90308  -2970593.60149  20348203.34149
   -806460.67608  20505948.71608   -628401.65949  20505944.06749
  -2588528.38306  22447842.64606  -2016451.13547  22447838.16547
   4615921.17607  21275205.55207   3583054.88249  21275199.91149
  -7399631.65207  22446382.41107  -5762971.51848  22446375.28648
         0.00000  24134046.43501         0.00000         0.00000
   2039303.47707  21814393.66907   1584155.76948  21814386.71248
  -4965138.49206  23427777.72406  -3869020.35247  23427773.25947
   8549868.53106  23259314.81706   6639337.86648  23259310.61848
 08 11 15  0 36 30.0010000  0  8  3  6 13 16 19 23 25 31
  -3842119.63708  20343834.85608  -2988500.77949  20343830.39949
   -796083.55508  20507923.54408   -620315.58449  20507918.86049
  -2594358.19506  22446733.38006  -2020993.84247  22446728.53647
   4671653.35507  21285810.78607   3626482.55249  21285805.49349
  -7473557.93006  22432314.26306  -5820576.39648  22432308.29048
   2086044.07407  21823287.45007   1620577.01348  21823280.63848
  -5033316.36706  23414803.88006  -3922145.97147  23414799.38447
   8653073.77306  23278953.94206   6719757.50848  23278949.72848
 08 11 15  0 37  0.0010000  0  8  3  6 13 16 19 23 25 31
  -3864633.53508  20339550.55208  -3006044.07349  20339546.25149
   -785265.94108  20509981.95008   -611886.26549  20509977.67749
  -2599629.97707  22445730.67707  -2025101.73647  22445725.19647
   4727503.58607  21296439.00507   3670002.20749  21296434.02149
  -7547215.69506  22418297.70006  -5877972.03848  22418291.64248
   2133313.37907  21832283.42707   1657410.21548  21832276.09148
  -5101407.71106  23401846.16906  -3975204.14047  23401841.72847
   8756484.79306  23298632.34106   6800337.50448  23298628.06048
 08 11 15  0 37 30.0010000  0  8  3  6 13 16 19 23 25 31
  -3886669.25808  20335357.09908  -3023214.76949  20335352.97849
   -773998.03508  20512126.44208   -603106.08149  20512121.79849
  -2604332.81306  22444835.15306  -2028766.28147  22444830.77447
   4783481.78907  21307091.68507   3713621.56649  21307085.56049
  -7620592.53106  22404335.27106  -5935148.79648  22404328.37248
   2181120.35507  21841379.98907   1694662.39548  21841372.88048
  -5169399.90606  23388908.20006  -4028185.08447  23388902.59547
   8860111.10206  23318352.16906   6881085.22748  23318348.39648
 08 11 15  0 38  0.0010000  0  8  3  6 13 16 19 23 25 31
  -3908226.32408  20331254.90308  -3040012.48649  20331250.26349
   -762280.53908  20514356.14608   -593975.57449  20514351.35649
  -2608466.17207  22444049.73907  -2031987.09147  22444043.93147
   4839587.10907  21317767.71607   3757339.98449  21317762.14949
  -7693686.74607  22390425.28607  -5992105.32148  22390418.73548
   2229463.30507  21850579.52107   1732332.20548  21850572.65748
  -5237291.18407  23375989.11407  -4081087.38247  23375983.38847
   8963951.48006  23338112.37206   6961999.77748  23338108.31348
 08 11 15  0 38 30.0010000  0  8  3  6 13 16 19 23 25 31
  -3929305.42608  20327243.88808  -3056437.76249  20327239.13449
   -750115.24608  20516671.34108   -584496.12249  20516666.27849
  -2612030.63307  22443370.70807  -2034764.60947  22443365.42347
   4895817.98807  21328467.95807   3801156.24948  21328462.63448
  -7766497.64106  22376569.34906  -6048841.08148  22376563.61048
   2278339.55907  21859880.80207   1770417.57048  21859873.93148
  -5305080.60507  23363089.02807  -4133910.31048  23363084.06748
   9068003.58206  23357912.43506   7043079.30647  23357908.56047
 08 11 15  0 39  0.0010000  0  8  3  6 13 16 19 23 25 31
  -3949899.59808  20323324.54408  -3072485.16249  20323319.81749
   -737496.16008  20519072.48108   -574663.07049  20519067.95849
  -2615018.84806  22442802.77806  -2037093.09348  22442796.81748
   4952180.23807  21339193.69207   3845074.88449  21339188.59949
  -7839016.76206  22362769.74706  -6105349.45448  22362762.97048
   2327753.58207  21869283.73107   1808921.99748  21869276.82148
  -5372759.62907  23350210.31707  -4186647.18548  23350205.17348
   9172272.79706  23377754.48106   7124328.00547  23377750.75547
 08 11 15  0 39 30.0010000  0  9  3  6 13 16 19 21 23 25 31
  -3970012.71508  20319497.46608  -3088157.72949  20319492.77449
   -724428.35508  20521559.03608   -564480.35349  20521554.71249
  -2617434.65206  22442342.44206  -2038975.54648  22442336.96248
   5008669.50007  21349942.77107   3889092.47749  21349937.60349
  -7911246.71107  22349024.98907  -6161632.52248  22349018.59948
     29088.49211  24164918.18501         0.00000         0.00000
   2377699.69107  21878788.27107   1847841.02848  21878781.29448
  -5440330.34006  23337351.90306  -4239299.66948  23337346.89248
   9276753.71906  23397636.13806   7205741.69047  23397632.64247
 08 11 15  0 40  0.0010000  0  8  3  6 13 16 19 23 25 31
  -3989635.95308  20315762.90308  -3103448.55649  20315758.68549
   -710903.90608  20524132.46608   -553941.81949  20524128.66949
  -2619269.02306  22441993.24706  -2040404.92648  22441987.78648
   5065293.50007  21360718.40307   3933215.06149  21360713.25149
  -7983176.85507  22335337.02807  -6217681.96148  22335330.45848
   2428184.72707  21888395.31007   1887180.00448  21888388.56348
  -5507782.28506  23324516.02806  -4291859.59948  23324511.61048
   9381453.79706  23417560.57506   7287326.15247  23417556.40347
 08 11 15  0 40 30.0010000  0  9  3  6 13 16 19 21 23 25 31
  -4008778.50808  20312120.84908  -3118364.81849  20312115.81749
   -696933.04708  20526791.34108   -543055.43749  20526787.08749
  -2620530.83607  22441753.31707  -2041388.16648  22441747.82948
   5122042.52007  21371517.05207   3977435.05448  21371512.13048
  -8054814.78907  22321704.43507  -6273503.72348  22321698.14648
     23990.19111  24174481.52101         0.00000         0.00000
   2479197.56607  21898102.64607   1926930.26048  21898096.30648
  -5575122.66006  23311701.99706  -4344332.57948  23311696.95448
   9486362.61306  23437523.66906   7369073.22247  23437519.34147
 08 11 15  0 41  0.0010000  0  9  3  6 13 16 19 21 23 25 31
  -4027436.09808  20308570.00508  -3132903.20249  20308564.93849
   -682512.71908  20529535.28608   -531818.82149  20529530.94649
  -2621216.17207  22441622.71607  -2041922.18548  22441617.04048
   5178919.64807  21382340.65307   4021754.87649  21382335.57949
  -8126154.94906  22308129.09906  -6329093.44948  22308123.13448
         0.00000  24179388.39601         0.00000         0.00000
   2530740.18807  21907910.52807   1967093.30648  21907905.02148
  -5642345.93406  23298909.39606  -4396714.36548  23298904.44248
   9591482.29306  23457528.26306   7450984.60847  23457523.44647
 08 11 15  0 41 30.0010000  0  9  3  6 13 16 19 21 23 25 31
  -4045614.44508  20305110.78608  -3147068.13449  20305105.97449
   -667649.63707  20532363.56707   -520237.20049  20532359.43849
  -2621330.23007  22441601.20807  -2042011.08348  22441595.47448
   5235918.23807  21393187.29407   4066169.36248  21393181.89948
  -8197201.78906  22294609.21606  -6384454.61248  22294603.90748
     75985.34401  24184375.01301         0.00000         0.00000
   2582804.86307  21917818.26307   2007663.16848  21917811.29448
  -5709455.83606  23286138.56006  -4449007.77847  23286133.94247
   9696806.17606  23477570.05206   7533055.14347  23477565.57947
 08 11 15  0 42  0.0010000  0  8  3  6 13 16 19 23 25 31
  -4063310.54308  20301743.32508  -3160857.29549  20301739.20449
   -652341.73007  20535276.49707   -508308.95249  20535272.31749
  -2620870.00807  22441688.70807  -2041652.46448  22441684.15348
   5293040.87507  21404057.25507   4110680.50148  21404052.35348
  -8267950.27006  22281146.24706  -6439583.26948  22281140.28648
   2635392.37907  21927825.66907   2048640.46248  21927818.33748
  -5776447.48007  23273390.50507  -4501209.03247  23273385.91547
   9802335.50805  23497651.84105   7615285.77447  23497646.86447
 08 11 15  0 42 30.0010000  0  8  3  6 13 16 19 23 25 31
  -4080523.02008  20298468.04408  -3174269.61049  20298463.57549
   -636588.66407  20538274.02107   -496033.83549  20538270.16949
  -2619834.01607  22441885.59907  -2040845.20448  22441880.52448
   5350288.04707  21414950.88807   4155288.67849  21414945.26749
  -8338397.68807  22267740.60607  -6494477.35748  22267734.26748
   2688502.53107  21937931.72407   2090024.95848  21937925.13448
  -5843317.75406  23260665.50506  -4553315.73847  23260660.46247
   9908070.37105  23517771.65305   7697676.51247  23517767.83347
 08 11 15  0 43  0.0010000  0  9  3  6 13 16 19 21 23 25 31
  -4097258.28508  20295283.22408  -3187310.07549  20295278.85649
   -620397.73407  20541355.32507   -483417.53149  20541351.16549
  -2618228.20707  22442191.28607  -2039593.91348  22442186.68848
   5407652.61307  21425867.30207   4199988.32748  21425861.44248
  -8408548.92207  22254391.13807  -6549140.65448  22254384.45848
     47233.41011  24199839.31001         0.00000         0.00000
   2742126.63307  21948137.06007   2131809.95848  21948129.78648
  -5910070.93406  23247962.73106  -4605331.18747  23247957.52447
  10014003.10505  23537929.66905   7780221.44947  23537926.96247
 08 11 15  0 43 30.0010000  0  9  3  6 13 16 19 21 23 25 31
  -4113515.17208  20292189.40308  -3199977.76149  20292185.77149
   -603769.14507  20544519.26307   -470460.18749  20544515.08749
  -2616051.75007  22442605.36407  -2037897.98748  22442601.00148
   5465134.91007  21436805.61407   4244779.72148  21436799.80648
  -8478401.47707  22241098.57507  -6603571.17548  22241092.55248
     75173.27701  24205151.68501         0.00000         0.00000
   2796263.52007  21958438.20007   2173994.54548  21958431.53648
  -5976704.39506  23235283.13806  -4657253.34247  23235277.95047
  10120133.05906  23558126.41906   7862920.06748  23558123.22448
 08 11 15  0 44  0.0010000  0  8  3  6 13 16 19 23 25 31
  -4129305.09408  20289184.72408  -3212281.58749  20289180.65349
   -586715.12507  20547764.84907   -457171.34049  20547760.48149
  -2613315.76207  22443126.09107  -2035766.04547  22443121.37247
   5522723.15207  21447764.35607   4289653.66948  21447759.00948
  -8547964.80507  22227861.27807  -6657776.35248  22227854.38848
   2850899.94907  21968835.11407   2216568.38048  21968828.44248
  -6043227.39806  23222624.45006  -4709089.44247  23222619.21647
  10226447.78906  23578357.56006   7945762.70548  23578353.56748
 08 11 15  0 44 30.0010000  0  9  3  6 13 16 19 21 23 25 31
  -4144627.27307  20286269.08307  -3224220.95449  20286265.26349
   -569235.97707  20551091.04407   -443551.23149  20551087.21249
  -2610019.34807  22443752.95007  -2033197.41448  22443748.55248
   5580417.24607  21458743.32507   4334610.09449  21458737.87649
  -8617236.75807  22214679.53607  -6711754.48248  22214673.23948
     30110.85911  24216024.23101         0.00000         0.00000
   2906034.60207  21979326.68507   2259530.43048  21979320.27148
  -6109637.37106  23209986.50506  -4760837.44947  23209982.36447
  10332946.32806  23598624.13806   8028748.56148  23598619.64648
 08 11 15  0 45  0.0010000  0  8  3  6 13 16 19 23 25 31
  -4159479.69508  20283442.75508  -3235794.25849  20283438.79449
   -551330.61708  20554498.44208   -429598.99449  20554493.67349
  -2606160.09407  22444487.86407  -2030190.19748  22444483.30648
   5638218.65607  21469742.43507   4379650.15249  21469737.38849
  -8686213.57007  22201553.77107  -6765502.64448  22201546.54848
   2961667.22707  21989913.07507   2302880.52148  21989906.43148
  -6175930.17606  23197371.63006  -4812494.19147  23197366.82547
  10439629.44106  23618924.84906   8111878.23047  23618920.72447
 08 11 15  0 45 30.0010000  0  8  3  6 13 16 19 23 25 31
  -4173871.52308  20280704.32508  -3247008.67949  20280699.92749
   -533009.37508  20557984.83308   -415322.70249  20557980.17349
  -2601747.70307  22445327.47407  -2026751.97948  22445322.53648
   5696117.59807  21480760.30207   4424766.19048  21480755.02848
  -8754903.16806  22188482.34106  -6819026.96848  22188476.14648
   3017786.58207  22000592.95807   2346609.88448  22000585.85648
  -6242113.35506  23184777.45006  -4864065.49747  23184773.10347
  10546486.62505  23639259.23105   8195143.50547  23639255.67347
 08 11 15  0 46  0.0010000  0  8  3  6 13 16 19 23 25 31
  -4187798.62108  20278054.03608  -3257860.96149  20278049.47849
   -514269.18008  20561550.97408   -400719.95749  20561546.50549
  -2596777.94107  22446273.29407  -2022879.43648  22446268.02448
   5754117.48806  21491797.06706   4469960.89948  21491791.36448
  -8823299.66006  22175467.00506  -6872322.90848  22175460.91548
   3074394.64806  22011364.29406   2390720.04848  22011357.73948
  -6308180.65606  23172204.93506  -4915546.48947  23172200.87647
  10653520.40605  23659626.62205   8278546.39747  23659622.92347
 08 11 15  0 46 30.0010000  0  8  3  6 13 16 19 23 25 31
  -4201257.99208  20275492.88008  -3268348.77549  20275488.45849
   -495107.80508  20565197.31008   -385789.01149  20565192.80649
  -2591247.57807  22447325.91907  -2018570.07348  22447320.51348
   5812220.97707  21502854.01307   4515236.32448  21502848.49348
  -8891398.27307  22162508.52807  -6925386.74648  22162501.35648
   3131492.53107  22022230.14607   2435211.88148  22022222.12648
  -6374126.83606  23159656.10606  -4966933.12347  23159650.99347
  10760732.73005  23680029.21605   8362088.38947  23680024.38847
 08 11 15  0 47  0.0010000  0  9  3  6 13 16 19 21 23 25 31
  -4214252.27008  20273020.21608  -3278474.19449  20273015.57949
   -475529.25408  20568923.06008   -370532.99949  20568918.76349
  -2585159.87107  22448484.05207  -2013826.41348  22448478.97048
   5870424.66007  21513930.02807   4560589.82949  21513924.23549
  -8959200.67607  22149605.98907  -6978219.78148  22149598.71648
     31472.12511  24244594.96601         0.00000         0.00000
   3189075.09006  22033187.93506   2480081.40648  22033181.35348
  -6439952.95306  23147129.80206  -5018226.20947  23147124.27147
  10868119.14505  23700463.48105   8445766.05947  23700458.38047
 08 11 15  0 47 30.0010000  0  8  3  6 13 16 19 23 25 31
  -4226778.93008  20270636.34908  -3288235.24049  20270631.84149
   -455531.93808  20572728.45808   -354950.67549  20572724.21249
  -2578511.48407  22449749.48107  -2008645.87348  22449744.22048
   5928730.59007  21525025.36407   4606022.99948  21525019.84948
  -9026702.25007  22136761.17707  -7030818.38148  22136753.84548
   3247142.72707  22044237.70007   2525328.89648  22044230.91948
  -6505654.15606  23134627.04406  -5069421.94747  23134622.20847
  10975680.93006  23720932.14606   8529580.38347  23720926.80247
 08 11 15  0 48  0.0010000  0  9  3  6 13 16 19 21 23 25 31
  -4238833.01208  20268342.28608  -3297628.00749  20268338.18149
   -435112.02307  20576614.51307   -339039.06349  20576609.91949
  -2571297.37907  22451122.07507  -2003024.49448  22451117.31748
   5987142.79307  21536140.41107   4651539.00448  21536135.57148
  -9093896.84406  22123974.06706  -7083177.79948  22123967.34548
     19619.05912  24256582.99702         0.00000         0.00000
   3305698.21507  22055381.27807   2570956.52848  22055373.15748
  -6571223.67205  23122150.03605  -5120515.07247  23122144.16547
  11083421.55905  23741434.67705   8613534.11847  23741430.55647
 08 11 15  0 48 30.0010000  0  9  3  6 13 16 19 21 23 25 31
  -4250414.49208  20266138.61408  -3306652.53949  20266134.15749
   -414270.02008  20580580.36408   -322798.53949  20580575.87649
  -2563518.06307  22452603.22407  -1996962.70248  22452598.02148
   6045661.49607  21547276.02107   4697137.98748  21547271.51748
  -9160782.34006  22111245.88006  -7135296.34048  22111239.33348
     51744.40201  24262696.18501         0.00000         0.00000
   3364740.05906  22066615.81006   2616963.14348  22066608.54448
  -6636659.09405  23109698.37205  -5171503.71647  23109692.33347
  11191340.32406  23761971.40306   8697626.60247  23761967.43147
 08 11 15  0 49  0.0010000  0  9  3  6 13 16 19 21 23 25 31
  -4261520.69508  20264025.05208  -3315306.72149  20264020.68149
   -393004.39808  20584626.99708   -306227.93349  20584622.68849
  -2555170.36307  22454190.88007  -1990458.02247  22454185.86847
   6104289.00807  21558432.67707   4742821.74848  21558427.13848
  -9227354.43807  22098578.15307  -7187170.69548  22098571.29048
     84295.93812  24268892.69202         0.00000         0.00000
   3424268.75807  22077944.20807   2663349.12648  22077937.18848
  -6701955.49206  23097271.93506  -5222384.00247  23097267.11047
  11299438.41004  23782541.13804   8781858.82047  23782537.04847
 08 11 15  0 49 30.0010000  0  9  3  6 13 16 19 21 23 25 31
  -4272153.81308  20262001.63808  -3323592.27049  20261997.20449
   -371318.57408  20588753.54408   -289329.87549  20588749.71249
  -2546256.59407  22455887.59107  -1983512.22448  22455882.67348
   6163022.30107  21569609.06007   4788587.92648  21569604.44648
  -9293613.81307  22085969.31007  -7238801.37348  22085962.42348
    117270.60501  24275175.23101         0.00000         0.00000
   3484279.43407  22089363.57507   2710110.70848  22089356.78648
  -6767113.11306  23084872.77806  -5273156.17847  23084867.93847
  11407712.18004  23803144.59904   8866227.94947  23803140.73547
 08 11 15  0 50  0.0010000  0  8  3  6 13 16 19 23 25 31
  -4282314.93007  20260068.24707  -3331510.02049  20260063.74349
   -349214.59808  20592959.87208   -272106.00449  20592955.83349
  -2536778.10507  22457690.80207  -1976126.38848  22457686.02448
   6221859.99607  21580805.79407   4834435.46348  21580800.68148
  -9359560.00407  22073420.06707  -7290187.99048  22073413.90348
   3544768.93807  22100874.08307   2757245.35148  22100867.28248
  -6832130.96106  23072500.17706  -5323819.39447  23072495.72447
  11516159.12104  23823782.40304   8950732.02147  23823778.37247
 08 11 15  0 50 30.0010000  0  8  3  6 13 16 19 23 25 31
  -4292004.58208  20258224.17708  -3339060.40149  20258220.10649
   -326693.42207  20597245.31707   -254557.04149  20597241.29049
  -2526734.84407  22459601.69207  -1968300.49247  22459596.91547
   6280801.96107  21592022.37207   4880364.26248  21592016.84148
  -9425191.17207  22060931.06007  -7341329.16348  22060924.14648
   3605735.23007  22112476.41907   2804751.54548  22112469.19648
  -6897006.72305  23060154.19205  -5374371.92447  23060150.63447
  11624777.91004  23844451.50504   9035370.02347  23844447.57147
 08 11 15  0 51  0.0010000  0  8  3  6 13 16 19 23 25 31
  -4301227.53908  20256469.13008  -3346247.12249  20256464.91149
   -303761.34007  20601609.37207   -236687.89649  20601605.09549
  -2516132.35907  22461619.29407  -1960038.82848  22461614.51348
   6339842.42607  21603257.16907   4926369.80148  21603251.76748
  -9490511.18806  22048500.58306  -7392227.85948  22048494.34948
   3667170.96107  22124166.43507   2852623.52148  22124159.75948
  -6961743.60506  23047836.27106  -5424816.26247  23047831.55647
  11733562.00005  23865152.45005   9120136.80747  23865148.59147
 08 11 15  0 51 30.0010000  0  8  3  6 13 16 19 23 25 31
  -4309984.84808  20254802.52808  -3353070.98549  20254798.16949
   -280420.16008  20606050.98108   -218499.96149  20606046.60349
  -2504971.16007  22463743.95807  -1951341.80147  22463739.27147
   6398979.79307  21614510.95007   4972450.85349  21614505.57549
  -9555519.36307  22036129.97407  -7442883.54848  22036123.82548
   3729073.26207  22135946.06007   2900859.07348  22135939.09548
  -7026340.16406  23035543.55206  -5475151.22847  23035539.14647
  11842509.26206  23885885.02806   9205030.72947  23885880.43147
 08 11 15  0 52  0.0010000  0  9  3  6 13 16 19 21 23 25 31
  -4318265.94107  20253226.96607  -3359523.79349  20253222.32149
   -256660.57007  20610572.01307   -199985.99949  20610567.89649
  -2493241.11707  22465975.88807  -1942201.52547  22465971.09547
   6458224.29707  21625784.46607   5018615.37748  21625779.13848
  -9620203.38306  22023821.02806  -7493286.67248  22023814.72848
     71712.20311  24307736.35601         0.00000         0.00000
   3791449.77307  22147815.73107   2949464.13748  22147809.48948
  -7090783.84406  23023280.50506  -5525367.07647  23023275.80647
  11951628.84006  23906648.57506   9290058.91847  23906644.69247
 08 11 15  0 52 30.0010000  0  9  3  6 13 16 19 21 23 25 31
  -4326077.15607  20251740.42707  -3365610.44849  20251736.09549
   -232489.77307  20615171.70807   -181151.61549  20615167.27149
  -2480948.80507  22468314.85607  -1932623.10348  22468310.52848
   6517569.48807  21637077.34107   5064858.37048  21637072.40348
  -9684567.97306  22011572.20006  -7543440.88248  22011566.70448
    107211.18011  24314493.63801         0.00000         0.00000
   3854292.34407  22159774.27807   2998432.35148  22159767.91948
  -7155078.58206  23011046.31006  -5575466.85947  23011040.13047
  12060913.18406  23927445.28606   9375215.50547  23927440.78247
 08 11 15  0 53  0.0010000  0  9  3  6 13 16 19 21 23 25 31
  -4333407.03508  20250345.92708  -3371322.04349  20250341.86049
   -207896.80907  20619851.56007   -161988.25649  20619847.33349
  -2468082.22707  22470763.54407  -1922597.19148  22470758.69648
   6577027.00007  21648392.04407   5111188.89748  21648387.10648
  -9748599.46106  21999387.77806  -7593335.52148  21999381.52848
    143141.96502  24321334.40302         0.00000         0.00000
   3917610.73807  22171823.60607   3047771.37748  22171816.39948
  -7219210.06305  22998842.03605  -5625439.42147  22998836.58347
  12170373.00806  23948274.31006   9460508.81347  23948271.21247
 08 11 15  0 53 30.0010000  0  9  3  6 13 16 19 21 23 25 31
  -4340261.50008  20249041.34908  -3376663.17249  20249037.20449
   -182888.80507  20624610.38007   -142501.50749  20624605.93149
  -2454647.69107  22473320.14607  -1912128.74848  22473314.91148
   6636590.69907  21659726.80207   5157602.15948  21659721.28648
  -9812302.48006  21987265.74706  -7642974.23948  21987259.47848
         0.00000  24328249.06701         0.00000         0.00000
   3981396.88707  22183961.27107   3097474.85848  22183955.03248
  -7283182.26606  22986668.54406  -5675287.87947  22986662.95847
  12280000.92206  23969136.57506   9545933.10047  23969132.46647
 08 11 15  0 54  0.0010000  0  8  3  6 13 16 19 23 25 31
  -4346635.37108  20247828.39608  -3381629.81949  20247824.52449
   -157461.34807  20629449.37207   -122687.90349  20629444.73149
  -2440640.07807  22475985.59107  -1901213.73948  22475980.09948
   6696265.71907  21671082.32507   5204102.17148  21671077.06748
  -9875669.83207  21975207.54407  -7692351.36548  21975200.64648
   4045653.82807  22196189.41107   3147545.18248  22196183.80248
  -7346987.29305  22974526.98105  -5725006.10347  22974521.67747
  12389801.18006  23990030.42706   9631491.71747  23990026.32947
 08 11 15  0 54 30.0010000  0  9  3  6 13 16 19 21 23 25 31
  -4352527.89807  20246706.90307  -3386221.38849  20246702.82149
   -131615.08607  20634367.80207   -102547.95249  20634363.33349
  -2426058.90607  22478760.57507  -1889851.79447  22478755.41547
   6756052.17607  21682459.20807   5250689.00748  21682453.99348
  -9938699.44506  21963212.81006  -7741465.34148  21963206.86048
     16163.13711  24342335.79401         0.00000         0.00000
   4110379.74607  22208506.22407   3197980.95048  22208499.29848
  -7410622.59406  22962417.70806  -5774592.02447  22962413.57547
  12499772.80506  24010958.24706   9717183.82847  24010953.14947
 08 11 15  0 55  0.0010000  0  9  3  6 13 16 19 21 23 25 31
  -4357937.39107  20245677.64607  -3390436.58549  20245673.40749
   -105349.32407  20639365.48907    -82081.11449  20639361.58749
  -2410902.39507  22481644.17707  -1878041.56247  22481639.13047
   6815951.34807  21693857.66907   5297363.66748  21693852.36048
 -10001388.05906  21951283.75506  -7790313.60148  21951277.72448
     53814.00011  24349496.55201         0.00000         0.00000
   4175574.18007  22220912.67707   3248781.79148  22220905.19648
  -7474083.90605  22950340.70805  -5824042.36947  22950336.61047
  12609916.52306  24031916.92706   9803010.04847  24031912.25947
 08 11 15  0 55 30.0010000  0  9  3  6 13 16 19 21 23 25 31
  -4362862.05908  20244740.51308  -3394273.97949  20244736.16149
    -78662.80907  20644444.11407    -61286.42949  20644439.63049
  -2395168.66807  22484638.52107  -1865781.52447  22484633.45047
   6875965.16807  21705278.09907   5344127.66848  21705272.43148
 -10063731.81606  21939420.32506  -7838893.11448  21939413.77148
     91899.87101  24356744.24701         0.00000         0.00000
   4241237.06607  22233407.61407   3299947.66848  22233401.18548
  -7537366.96905  22938298.66905  -5873353.87547  22938294.03247
  12720232.82806  24052909.96606   9888970.75847  24052905.29447
 08 11 15  0 56  0.0010000  0  9  3  6 13 16 19 21 23 25 31
  -4367296.81307  20243896.34907  -3397729.63649  20243892.40349
    -51551.27007  20649603.43507    -40160.55849  20649598.81749
  -2378852.89106  22487742.47406  -1853067.92647  22487738.39947
   6936099.35207  21716721.34907   5390985.44748  21716716.00948
 -10125723.72706  21927623.57506  -7887198.49648  21927617.00548
    130425.71102  24364075.48902         0.00000         0.00000
   4307371.47307  22245992.48907   3351480.93648  22245985.83748
  -7600463.82806  22926292.27806  -5922520.26947  22926286.79447
  12830726.02306  24073936.15306   9975069.31047  24073931.51747
 08 11 15  0 56 30.0010000  0  9  3  6 13 16 19 21 23 25 31
  -4371228.88707  20243148.18507  -3400793.57749  20243143.81349
    -24003.33607  20654845.42707    -18694.62149  20654841.13449
  -2361942.98407  22490961.13807  -1839891.40147  22490956.34147
   6996365.76607  21728189.99707   5437946.26948  21728183.91548
 -10187349.75006  21915896.45806  -7935218.73848  21915890.25948
    169403.57802  24371492.27802         0.00000         0.00000
   4373987.54307  22258669.65307   3403389.52848  22258662.45048
  -7663359.86306  22914323.48906  -5971530.15947  22914318.45847
  12941407.19505  24094998.09905  10061314.32547  24094993.72047
 08 11 15  0 57  0.0010000  0  9  3  6 13 16 19 21 23 25 31
  -4374660.87107  20242495.16107  -3403467.84449  20242491.02449
      3977.65607  20660170.08307      3108.74249  20660165.84149
  -2344441.27006  22494291.00506  -1826253.69447  22494287.38447
   7056761.83607  21739682.44207   5485008.12648  21739677.49348
 -10248610.57006  21904238.92706  -7982954.41248  21904232.75548
    208831.25813  24378996.80203         0.00000         0.00000
   4441080.76607  22271437.28607   3455669.97448  22271430.32148
  -7726055.03905  22902392.65305  -6020383.56747  22902387.42347
  13052272.85205  24116095.39605  10147703.06946  24116091.83346
 08 11 15  0 57 30.0010000  0  9  3  6 13 16 19 21 23 25 31
  -4377592.54708  20241937.34108  -3405752.27249  20241932.89249
     32391.18007  20665577.02107     25249.14649  20665572.66549
  -2326347.41806  22497734.31006  -1812154.57647  22497730.23547
   7117287.98006  21751200.17706   5532171.34048  21751195.33748
 -10309504.22706  21892651.33306  -8030403.99748  21892645.24348
    248708.76602  24386583.88002         0.00000         0.00000
   4508649.29707  22284294.43507   3508320.74548  22284288.38448
  -7788546.40206  22890500.97406  -6069078.11047  22890496.04447
  13163322.05905  24137226.27105  10234234.89146  24137224.42346
 08 11 15  0 58  0.0010000  0  9  3  6 13 16 19 21 23 25 31
  -4380033.48807  20241472.84907  -3407654.30149  20241468.57549
     61226.63307  20671063.83307     47718.32549  20671059.76749
  -2307671.42206  22501288.65306  -1797601.85247  22501283.63047
   7177934.62907  21762740.98907   5579428.45648  21762736.08348
 -10370038.43806  21881132.50506  -8077573.50648  21881125.69248
    289026.44903  24394255.46603         0.00000         0.00000
   4576681.38307  22297241.02807   3561332.73648  22297233.98548
  -7850841.02006  22878646.59106  -6117619.36247  22878641.25147
  13274544.30506  24158392.84106  10320901.44447  24158388.73547
 08 11 15  0 58 30.0010000  0  9  3  6 13 16 19 21 23 25 31
  -4381975.51207  20241103.46607  -3409167.54649  20241098.92349
     90491.64107  20676632.76307     70522.22749  20676628.70849
  -2288405.51206  22504954.86406  -1782589.45747  22504949.86047
   7238710.20707  21774306.63807   5626786.01848  21774301.32548
 -10430203.00006  21869683.16106  -8124454.95448  21869676.64948
    329792.87101  24402012.61401         0.00000         0.00000
   4645183.14507  22310276.65307   3614710.73648  22310269.50948
  -7912927.98006  22866832.07506  -6165998.79747  22866827.29047
  13385946.97705  24179591.09105  10407708.67946  24179587.22446
 08 11 15  0 59  0.0010000  0  9  3  6 13 16 19 21 23 25 31
  -4383418.96107  20240828.69207  -3410292.31749  20240823.97049
    120184.62907  20682283.57507     93659.60949  20682279.54049
  -2268549.80506  22508733.29406  -1767117.48047  22508728.95847
   7299613.97706  21785895.73906   5674243.47948  21785890.54848
 -10489997.08606  21858304.97406  -8171047.74348  21858297.85348
    371006.93801  24409854.52101         0.00000         0.00000
   4714152.12507  22323400.38007   3668452.76048  22323393.80648
  -7974805.23405  22855056.43505  -6214214.84747  22855051.95847
  13497527.87905  24200823.75505  10494654.79046  24200820.63046
 08 11 15  0 59 30.0010000  0  9  3  6 13 16 19 21 23 25 31
  -4384358.36707  20240650.34107  -3411024.31349  20240645.70049
    150309.92607  20688016.24707    117133.87249  20688011.75949
  -2248099.41006  22512625.25506  -1751182.11547  22512619.92747
   7360651.42206  21797510.98106   5721805.10348  21797505.31048
 -10549413.20306  21846998.26306  -8217346.00748  21846991.17348
    412674.17601  24417784.63801         0.00000         0.00000
   4783591.21107  22336615.40307   3722561.11948  22336607.89648
  -8036464.92205  22843322.81705  -6262261.33847  22843318.61447
  13609291.75405  24222092.10605  10581743.44146  24222089.71646
 08 11 15  1  0  0.0010000  0  9  3  6 13 16 19 21 23 25 31
  -4384800.81607  20240565.72407  -3411369.08349  20240561.23549
    180859.85907  20693829.66907    140939.00949  20693825.04449
  -2227061.62106  22516628.95806  -1734789.04647  22516623.19247
   7421815.80906  21809149.97406   5769465.65348  21809145.07148
 -10608456.67607  21835762.58307  -8263353.88748  21835756.07148
    454787.52301  24425796.18501         0.00000         0.00000
   4853491.39807  22349916.07507   3777028.79948  22349909.06348
  -8097911.41006  22831630.78606  -6310141.72647  22831625.70047
  13721230.19904  24243393.33304  10668968.16346  24243390.82546
 08 11 15  1  0 30.0010000  0  8  3  6 13 16 19 21 23 25
  -4384748.18007  20240575.56007  -3411328.05449  20240571.26749
    211831.66007  20699723.20007    165072.88249  20699718.36849
  -2205438.21507  22520743.26307  -1717939.65747  22520738.06347
   7483105.41807  21820813.32507   5817223.77548  21820807.98548
 -10667127.55107  21824597.86407  -8309071.44648  21824591.66948
    497345.59801  24433896.10601   1072850.74255  24433890.03645
   4923848.76607  22363304.66907   3831852.68748  22363297.97848
  -8159143.84806  22819978.01306  -6357855.31547  22819973.29447
 08 11 15  1  1  0.0010000  0  9  3  6  7 13 16 19 21 23 25
  -4384190.48807  20240681.94207  -3410893.49549  20240677.40349
    243234.79707  20705699.23107    189542.85649  20705694.52149
   -123765.57415  24208237.96605    -88361.44457  24208233.48147
  -2183219.09006  22524971.34906  -1700626.06147  22524965.98547
   7544530.57407  21832502.09907   5865087.51448  21832497.02448
 -10725413.95306  21813506.25506  -8354489.41348  21813500.12648
    540357.69102  24442082.52802   1106366.59444  24442076.32944
   4994671.38707  22376781.77807   3887039.13248  22376775.13448
  -8220149.30906  22808369.30206  -6405392.04247  22808365.08747
 08 11 15  1  1 30.0010000  0  9  3  6  7 13 16 19 21 23 25
  -4383129.00807  20240883.94207  -3410066.36049  20240879.47449
    275066.75007  20711756.85607    214346.97649  20711752.12249
   -208567.12505  24192100.66905   -154440.54747  24192096.52147
  -2160406.28506  22529312.48106  -1682849.88047  22529307.61047
   7606090.03106  21844216.52106   5913055.89948  21844210.84948
 -10783315.52706  21802488.00506  -8399607.52248  21802481.47848
    583822.49204  24450353.98904   1140235.30945  24450347.84945
   5065955.56607  22390346.48107   3942585.23148  22390340.18848
  -8280926.55506  22796803.78606  -6452750.90647  22796799.71247
 08 11 15  1  2  0.0010000  0  9  3  6  7 13 16 19 21 23 25
  -4381571.78907  20241180.29407  -3408852.94249  20241175.88049
    307318.98407  20717893.92707    239478.58549  20717889.36449
   -293295.16006  24175977.64606   -220462.37847  24175973.28247
  -2137007.89806  22533764.81006  -1664617.36347  22533760.83747
   7667776.04306  21855954.74706   5961122.93148  21855949.26348
 -10840838.18807  21791541.65307  -8444430.34948  21791535.84948
    627731.85904  24458709.80204   1174450.43845  24458704.17345
   5137691.40607  22403996.93507   3998483.24548  22403990.62648
  -8341480.73406  22785281.02806  -6499935.97947  22785276.33747
 08 11 15  1  2 30.0010000  0  9  3  6  7 13 16 19 21 23 25
  -4379519.25807  20241570.98907  -3407253.57549  20241566.91549
    339989.75807  20724111.31007    264936.33549  20724106.54449
   -377948.05505  24159868.73105   -286425.69447  24159864.57547
  -2113024.83606  22538329.01306  -1645929.28647  22538324.27147
   7729588.14106  21867717.23106   6009288.19748  21867711.79448
 -10897981.03106  21780667.80206  -8488957.22448  21780661.65748
    672085.57404  24467149.51304   1209011.77045  24467145.09945
   5209875.98407  22417733.60607   4054730.95848  22417727.09148
  -8401809.85906  22773800.24706  -6546945.67747  22773796.91147
 08 11 15  1  3  0.0010000  0  9  3  6  7 13 16 19 21 23 25
  -4376978.19907  20242054.01307  -3405273.53349  20242050.03249
    373071.53907  20730406.29407    290714.34449  20730401.62249
   -462530.39506  24143774.13006   -352334.00347  24143768.62247
  -2088463.94907  22543002.63807  -1626790.92647  22542997.57947
   7791519.79307  21879502.70807   6057546.60548  21879497.11448
 -10954748.91406  21769864.84106  -8533191.92948  21769858.81048
    716876.62104  24475672.64604   1243913.92645  24475668.11445
   5282500.64807  22431553.56007   4111321.57948  22431547.57148
  -8461917.98806  22762362.73106  -6593783.15248  22762358.52848
 08 11 15  1  3 30.0010000  0  9  3  6  7 13 16 19 21 23 25
  -4373950.21507  20242630.48107  -3402914.07349  20242626.09549
    406561.84407  20736779.27107    316810.68649  20736774.37249
   -547040.77005  24127691.58305   -418186.22747  24127687.29047
  -2063327.36306  22547786.26306  -1607203.99147  22547781.67347
   7853569.47306  21891310.42706   6105896.99848  21891304.77148
 -11011141.83606  21759133.64606  -8577134.45848  21759128.00148
    762103.69503  24484278.84903   1279155.75845  24484275.04845
   5355561.08607  22445456.32507   4168251.77048  22445450.26348
  -8521803.91406  22750966.41906  -6640447.51748  22750961.97048
 08 11 15  1  4  0.0010000  0  9  3  6  7 13 16 19 21 23 25
  -4370446.30507  20243297.24707  -3400183.75149  20243293.10649
    440448.86307  20743227.74707    343216.14949  20743223.61049
   -631487.20305  24111621.68505   -483988.61447  24111616.99347
  -2037626.16006  22552676.63006  -1587177.12447  22552671.38847
   7915726.69907  21903138.73107   6154331.17048  21903133.34148
 -11067168.85506  21748472.25506  -8620791.85748  21748465.98548
    807755.09802  24492963.95002   1314728.28945  24492962.46645
   5429044.59007  22459439.91107   4225511.60148  22459434.02448
  -8581475.89106  22739611.25506  -6686945.16747  22739606.46647
 08 11 15  1  4 30.0010000  0  9  3  6  7 13 16 19 21 23 25
  -4366455.43007  20244056.70007  -3397073.98649  20244052.63449
    474743.28507  20749753.66107    369939.07849  20749749.38449
   -715855.77704  24095566.77804   -549730.34147  24095561.90747
  -2011349.67606  22557677.05206  -1566701.97647  22557672.27147
   7978003.09806  21914989.07506   6202858.22648  21914983.74748
 -11122816.53907  21737882.70007  -8664153.67548  21737876.66148
    853841.89502  24501735.45002   1350640.04745  24501732.47045
   5502960.31607  22473505.59107   4283108.25448  22473499.91148
  -8640919.73006  22728299.23106  -6733265.04147  22728294.38847
 08 11 15  1  5  0.0010000  0  9  3  6  7 13 16 19 21 23 25
  -4361987.93008  20244906.62208  -3393592.81449  20244902.98949
    509433.53507  20756354.77107    396970.44649  20756350.84549
   -800154.34405  24079525.70005   -615417.51547  24079520.29447
  -1984508.46506  22562785.09106  -1545786.76547  22562779.62647
   8040388.23807  21926860.66907   6251470.00848  21926854.86048
 -11178094.07007  21727364.12207  -8707227.05349  21727358.00949
    900353.83201  24510585.47401   1386883.02745  24510583.43145
   5577295.35507  22487651.02107   4341031.64248  22487644.76348
  -8700143.31306  22717029.76306  -6779413.27348  22717025.07948
 08 11 15  1  5 30.0010000  0  9  3  6  7 13 16 19 21 23 25
  -4357044.00408  20245847.69208  -3389740.40549  20245843.47049
    544518.12507  20763031.10607    424309.08049  20763026.96249
   -884380.32804  24063497.09904   -681048.16147  24063492.25947
  -1957103.33606  22567999.27106  -1524432.09647  22567994.83747
   8102882.19907  21938752.59907   6300166.58848  21938747.17748
 -11233000.02007  21716916.52107  -8750010.89749  21716909.86849
    947290.05513  24519518.59103   1423456.67255  24519514.61845
   5652047.30507  22501876.44207   4399279.87948  22501869.91548
  -8759144.19906  22705802.01306  -6825387.99248  22705797.45048
 08 11 15  1  6  0.0010000  0  9  3  6  7 13 16 19 21 23 25
  -4351627.03507  20246878.40307  -3385519.39549  20246874.13849
    579993.84007  20769781.98907    451952.49549  20769777.69649
   -968533.77204  24047484.29404   -746622.33247  24047478.53247
  -1929137.68806  22573321.26306  -1502640.71347  22573316.57947
   8165482.18007  21950665.45807   6348945.78148  21950660.02848
 -11287535.40207  21706537.98907  -8792505.98949  21706532.04849
    994648.27305  24528531.78605   1460359.16446  24528526.75546
   5727211.31607  22516180.02807   4457849.22448  22516173.25148
  -8817922.32006  22694617.39606  -6871189.10748  22694612.81048
 08 11 15  1  6 30.0010000  0  9  3  6  7 13 16 19 21 23 25
  -4345740.98408  20247999.08308  -3380932.85649  20247994.29849
    615855.54307  20776606.62207    479896.68449  20776601.72049
  -1052615.93404  24031482.83304   -812140.85747  24031478.89247
  -1900615.89506  22578749.37206  -1480415.95547  22578744.03247
   8228184.99207  21962597.59107   6397805.11448  21962592.49348
 -11341702.53106  21696230.27106  -8834714.10449  21696224.27149
   1042424.36304  24537622.34904   1497587.27046  24537618.45446
   5802780.91007  22530560.65307   4516734.60248  22530553.50548
  -8876479.10906  22683474.56706  -6916817.78448  22683469.36848
 08 11 15  1  7  0.0010000  0  9  3  6  7 13 16 19 21 23 25
  -4339391.07407  20249206.73907  -3375984.86949  20249202.76749
    652097.27307  20783503.23107    508136.98649  20783498.46249
  -1136628.94104  24015496.31704   -877605.48147  24015492.18547
  -1871543.19107  22584281.30207  -1457761.91247  22584276.18147
   8290985.57807  21974547.66907   6446740.61748  21974542.88448
 -11395504.51207  21685992.18507  -8876637.71249  21685985.82149
   1090611.99205  24546792.29405   1535136.16946  24546787.74346
   5878748.83607  22545016.74707   4575930.35048  22545009.91548
  -8934816.34806  22672373.06706  -6962275.37747  22672368.04447
 08 11 15  1  7 30.0010000  0  9  3  6  7 13 16 19 21 23 25
  -4332577.29708  20250503.43508  -3370675.42449  20250498.88449
    688718.08607  20790471.70007    536672.68849  20790467.52149
  -1220570.05505  23999522.68505   -943014.11947  23999518.72847
  -1841920.09406  22589918.34906  -1434679.00647  22589913.07147
   8353884.05907  21986516.86407   6495752.39348  21986511.81748
 -11448939.85207  21675824.02807  -8918275.62548  21675817.11848
   1139211.62105  24556040.73105   1573005.95646  24556035.77146
   5955112.69507  22559548.17707   4635434.62948  22559541.14648
  -8992931.79306  22661313.71606  -7007560.14148  22661308.89948
 08 11 15  1  8  0.0010000  0  9  3  6  7 13 16 19 21 23 25
  -4325302.62507  20251887.56007  -3365006.84049  20251883.67349
    725714.37907  20797511.80207    565500.96049  20797507.45449
  -1304439.16005  23983563.20005  -1008366.66747  23983558.68547
  -1811749.91406  22595659.26306  -1411169.78747  22595654.60647
   8416878.31307  21998504.38007   6544838.79748  21998499.33748
 -11502009.62907  21665725.26307  -8959628.68648  21665718.54048
   1188220.33205  24565366.39605   1611194.51846  24565361.52146
   6031868.07007  22574154.33307   4695243.99448  22574147.96248
  -9050825.03106  22650296.97406  -7052671.74247  22650292.23947
 08 11 15  1  8 30.0010000  0  9  3  6  7 13 16 19 21 23 25
  -4317571.81307  20253358.78607  -3358982.81449  20253354.27149
    763080.80907  20804622.66907    594617.67749  20804618.39949
  -1388238.07005  23967616.91105  -1073664.51047  23967611.86847
  -1781037.88706  22601503.73106  -1387238.33647  22601498.61047
   8479964.29707  22010509.31707   6593996.68148  22010504.57148
 -11554716.64507  21655695.16107  -9000699.05849  21655688.23149
   1237633.73805  24574768.63005   1649698.45345  24574763.27445
   6109007.60207  22588833.27807   4755352.70548  22588826.68148
  -9108497.93806  22639323.16906  -7097611.66348  22639317.96648
 08 11 15  1  9  0.0010000  0  9  3  6  7 13 16 19 21 23 25
  -4309381.08607  20254917.69207  -3352600.44349  20254913.02449
    800820.18007  20811804.28607    624024.97149  20811799.67349
  -1471959.97705  23951685.23905  -1138902.37447  23951680.02847
  -1749780.58606  22607452.33306  -1362882.02547  22607447.42747
   8543145.54707  22022532.56007   6643228.80548  22022527.39948
 -11607055.63707  21645735.46607  -9041482.69249  21645728.55649
   1287454.39105  24584249.00505   1688519.75845  24584244.23945
   6186532.86707  22603585.86407   4815761.98748  22603579.57948
  -9165943.83606  22628390.18506  -7142374.69448  22628386.08748
 08 11 15  1  9 30.0010000  0  9  3  6  7 13 16 19 21 23 25
  -4300736.37507  20256562.65307  -3345864.28649  20256558.10649
    838925.37507  20819055.58307    653717.34349  20819050.96649
  -1555608.40605  23935767.27805  -1204082.91847  23935762.39647
  -1717984.84006  22613502.36406  -1338106.10947  22613497.72447
   8606416.83607  22034572.46607   6692531.10648  22034566.97048
 -11659030.93807  21635844.91907  -9081982.91349  21635838.27149
   1337676.65205  24593806.27805   1727654.04646  24593801.13046
   6264435.61707  22618410.67707   4876465.40548  22618404.47448
  -9223166.09406  22617501.14606  -7186963.42748  22617496.57148
 08 11 15  1 10  0.0010000  0  9  3  6  7 13 16 19 21 23 25
  -4291634.97307  20258294.52107  -3338772.28249  20258290.00149
    877398.77707  20826376.59907    683696.60249  20826372.45049
  -1639176.98805  23919864.77805  -1269201.25747  23919859.68147
  -1685647.85906  22619655.71606  -1312908.45847  22619652.23947
   8669782.01207  22046630.46607   6741906.54148  22046625.29048
 -11710637.34807  21626024.48107  -9122195.67748  21626017.20048
   1388303.23805  24603439.96605   1767103.25646  24603435.59946
   6342716.82407  22633306.93507   4937463.72548  22633301.16148
  -9280158.55507  22606656.56007  -7231373.14048  22606651.03648
 08 11 15  1 10 30.0020000  0  9  3  6  7 13 16 19 21 23 25
  -4282072.05507  20260114.45507  -3331320.66449  20260109.90049
    916245.75807  20833768.43907    713966.98549  20833764.53349
  -1722660.64506  23903978.97106  -1334253.45947  23903973.59247
  -1652764.59006  22625913.29906  -1287285.14547  22625909.02547
   8733247.86307  22058707.51007   6791360.42948  22058701.98648
 -11761870.21107  21616275.61107  -9162117.39148  21616267.81148
   1439340.90205  24613152.87705   1806872.86946  24613147.14646
   6421381.84007  22648275.92407   4998761.11448  22648269.90048
  -9336915.37107  22595856.14307  -7275599.24848  22595850.52148
 08 11 15  1 11  0.0020000  0  9  3  6  7 13 16 19 21 23 25
  -4272047.89807  20262021.81407  -3323509.62849  20262017.35049
    955463.14807  20841231.59607    744525.98149  20841227.67849
  -1806050.72306  23888109.84606  -1399232.68647  23888105.29547
  -1619337.07407  22632274.76807  -1261237.75747  22632269.65447
   8796811.26207  22070803.31407   6840890.35348  22070797.55348
 -11812723.94907  21606597.97907  -9201743.65949  21606590.74049
   1490785.92205  24622942.29905   1846959.88447  24622937.42447
   6500423.41407  22663317.35407   5060351.96048  22663311.07648
  -9393429.49607  22585101.86907  -7319636.23448  22585096.37748
 08 11 15  1 11 30.0020000  0  9  3  6  7 13 16 19 21 23 25
  -4261570.16407  20264015.63507  -3315345.15549  20264011.08449
    995043.65207  20848763.26807    775367.93749  20848759.02549
  -1889354.19906  23872257.76006  -1464144.49147  23872253.09647
  -1585372.27006  22638737.67406  -1234771.69247  22638732.83847
   8860467.16407  22082916.34607   6890492.34848  22082911.64348
 -11863206.19107  21596991.93207  -9241080.43449  21596984.79949
   1542632.91006  24632807.80706   1887360.10046  24632804.01846
   6579834.52307  22678428.43907   5122230.75748  22678422.00248
  -9449707.69107  22574392.52507  -7363489.36848  22574387.66648
 08 11 15  1 12  0.0020000  0  9  3  6  7 13 16 19 21 23 25
  -4250623.82007  20266098.65007  -3306815.55149  20266093.97149
   1035000.96107  20856367.32207    806503.49749  20856362.54149
  -1972553.94506  23856425.23606  -1528975.42947  23856420.31447
  -1550856.29306  22645306.40006  -1207876.15347  22645302.26047
   8924230.20307  22095050.35407   6940177.80148  22095045.32248
 -11913300.96907  21587458.45507  -9280115.33249  21587451.91649
   1594894.68806  24642753.90006   1928083.54747  24642748.61547
   6659626.98007  22693612.65807   5184406.65448  22693606.56848
  -9505732.26206  22563731.54906  -7407144.86548  22563726.52148
 08 11 15  1 12 30.0020000  0  9  3  6  7 13 16 19 21 23 25
  -4239217.77307  20268269.41607  -3297927.72749  20268265.01449
   1075325.97707  20864041.04907    837925.58249  20864036.19749
  -2055655.03906  23840611.84606  -1593729.52747  23840606.43647
  -1515798.19105  22651976.93905  -1180558.18547  22651973.10047
   8988093.20307  22107203.43207   6989941.16148  22107197.99048
 -11963014.73406  21577998.17406  -9318853.31649  21577992.26449
   1647563.66806  24652776.47106   1969124.29947  24652771.36947
   6739790.58207  22708867.18207   5246871.76248  22708861.38948
  -9561508.74207  22553117.82207  -7450607.06148  22553112.54548
 08 11 15  1 13  0.0020000  0  9  3  6  7 13 16 19 21 23 25
  -4227349.85207  20270527.81407  -3288680.01149  20270523.22949
   1116020.16807  20871784.61907    869635.34649  20871780.51049
  -2138652.16006  23824817.29106  -1658402.61447  23824812.73647
  -1480196.24206  22658752.92406  -1152816.41647  22658748.13947
   9052058.49207  22119375.47907   7039784.20348  22119369.86948
 -12012343.56307  21568611.29107  -9357291.36149  21568604.75249
   1700641.96506  24662876.61106   2010483.96447  24662871.44347
   6820325.17607  22724193.48607   5309625.97848  22724186.55348
  -9617031.87106  22542551.65806  -7493871.84348  22542546.56848
 08 11 15  1 13 30.0020000  0  9  3  6  7 13 16 19 21 23 25
  -4215015.64508  20272875.00208  -3279068.93949  20272870.68249
   1157087.02707  20879599.20507    901635.49849  20879594.96349
  -2221537.89806  23809045.08806  -1722988.90447  23809040.27147
  -1444046.71106  22665631.04906  -1124647.95647  22665626.52147
   9116131.19907  22131567.86107   7089710.97248  22131562.81148
 -12061281.25407  21559299.26807  -9395424.61449  21559292.65449
   1754133.85206  24673056.46306   2052165.92947  24673050.58447
   6901233.25807  22739588.56407   5372671.21048  22739582.59648
  -9672294.31306  22532035.44706  -7536933.47548  22532030.42448
 08 11 15  1 14  0.0020000  0  9  3  6  7 13 16 19 21 23 25
  -4202208.43807  20275311.87707  -3269089.29249  20275307.69349
   1198532.73007  20887486.05707    933930.85749  20887481.95949
  -2304302.04706  23793295.63506  -1787480.46547  23793290.72947
  -1407343.34806  22672616.10406  -1096047.95547  22672611.40047
   9180318.89507  22143782.40807   7139727.34348  22143777.80748
 -12109819.08607  21550062.68907  -9433246.30549  21550055.84249
   1808045.62906  24683315.44706   2094175.09447  24683309.92447
   6982519.25407  22755056.24407   5436010.94648  22755050.68948
  -9727286.07006  22521570.76806  -7579784.19648  22521566.04148
 08 11 15  1 14 30.0020000  0  9  3  6  7 13 16 19 21 23 25
  -4188925.92607  20277839.61107  -3258739.29549  20277835.50649
   1240358.62507  20895445.76807    966522.44949  20895440.98649
  -2386939.62906  23777569.83806  -1851873.34047  23777564.87747
  -1370084.57006  22679706.40806  -1067015.16347  22679701.65847
   9244624.27307  22156019.36107   7189835.40948  22156014.67048
 -12157953.22707  21540903.04907  -9470753.41949  21540896.53749
   1862379.26606  24693654.31406   2136512.99247  24693649.13547
   7064182.98807  22770597.36107   5499645.00248  22770591.27548
  -9782001.93806  22511158.17406  -7622419.91448  22511153.65848
 08 11 15  1 15  0.0020000  0  9  3  6  7 13 16 19 21 23 25
  -4175172.58607  20280456.93907  -3248022.40849  20280452.25249
   1282560.07807  20903476.18207    999406.69249  20903471.73649
  -2469450.97305  23761868.37705  -1916167.86347  23761863.82247
  -1332274.78106  22686900.88506  -1037553.01547  22686896.40847
   9309044.34807  22168278.18207   7240032.87148  22168272.95948
 -12205685.81607  21531819.81407  -9507947.64749  21531813.38549
   1917131.21506  24704073.10406   2179176.83547  24704068.61547
   7146218.92607  22786208.29907   5563569.09948  22786201.85048
  -9836442.52706  22500798.87706  -7664841.16448  22500793.71748
 08 11 15  1 15 30.0020000  0  9  3  6  7 13 16 19 21 23 25
  -4160942.36708  20283164.82208  -3236933.91749  20283160.37749
   1325142.40207  20911579.43207   1032587.73149  20911574.63949
  -2551826.77005  23746192.44705  -1980356.76747  23746188.25647
  -1293908.65606  22694201.29106  -1007657.34947  22694197.62747
   9373585.59007  22180559.81407   7290324.73748  22180554.48248
 -12253009.16007  21522814.22107  -9544822.96149  21522808.17849
   1972306.98006  24714573.22906   2222170.90946  24714568.44746
   7228630.82407  22801890.53307   5627786.12648  22801883.87748
  -9890599.02306  22490492.86106  -7707041.01748  22490488.52948
 08 11 15  1 16  0.0020000  0  9  3  6  7 13 16 19 21 23 25
  -4146251.14507  20285960.36107  -3225486.21149  20285955.98249
   1368088.84407  20919751.77507   1066052.49649  20919747.65449
  -2634079.59806  23730540.58806  -2044449.88547  23730536.16647
  -1255002.62906  22701606.26006   -977341.01547  22701600.40047
   9438233.00007  22192862.26007   7340699.31148  22192857.14348
 -12299937.43007  21513884.26007  -9581390.43249  21513877.55749
   2027890.27306  24725150.64306   2265482.51646  24725145.20546
   7311400.68407  22817641.73607   5692282.07947  22817634.11147
  -9944484.02006  22480239.20506  -7749029.33648  22480234.18648
 08 11 15  1 16 30.0020000  0  9  3  6  7 13 16 19 21 23 25
  -4131094.41408  20288844.72908  -3213675.78349  20288839.88549
   1411403.00407  20927994.15807   1099803.78349  20927989.76449
  -2716202.09005  23714913.29905  -2108441.42947  23714909.16647
  -1215552.76206  22709111.91606   -946600.84047  22709108.22947
   9502991.61307  22205185.15807   7391160.55248  22205180.38948
 -12346464.14107  21505030.68207  -9617645.00949  21505024.03749
   2083885.34406  24735806.92406   2309115.03946  24735800.70946
   7394530.31307  22833460.48607   5757058.41448  22833452.45548
  -9998090.18007  22470038.05707  -7790800.36948  22470033.88148
 08 11 15  1 17  0.0020000  0  9  3  6  7 13 16 19 21 23 25
  -4115467.60907  20291818.51807  -3201499.05249  20291813.75249
   1455089.35207  20936307.66607   1133845.10449  20936303.59249
  -2798185.90205  23699312.90805  -2172324.92047  23699307.84247
  -1175554.93406  22716723.92406   -915433.72047  22716719.74847
   9567866.82807  22217530.66607   7441712.65448  22217525.22148
 -12392582.77707  21496254.61107  -9653581.59249  21496247.60749
   2140297.28906  24746540.66606   2353072.45946  24746535.77146
   7478022.78907  22849348.43207   5822117.49048  22849341.91648
 -10051409.21507  22459892.10407  -7832347.65448  22459887.40448
 08 11 15  1 17 30.0020000  0  9  3  6  7 13 16 19 21 23 25
  -4099358.29707  20294883.73607  -3188946.34549  20294879.15449
   1499159.31307  20944693.68907   1168185.32149  20944689.99449
  -2880015.21906  23683740.26806  -2236087.99347  23683736.46347
  -1134997.19906  22724441.43906   -883830.31047  22724436.43947
   9632872.18007  22229900.67407   7492366.15348  22229895.93248
 -12438279.27707  21487558.54107  -9689189.25649  21487551.92449
   2197138.01205  24757357.19705   2397363.94246  24757352.61146
   7561888.85207  22865307.01007   5887467.60947  22865301.29147
 -10104425.67607  22449803.18207  -7873659.19748  22449797.85448
 08 11 15  1 18  0.0020000  0  9  3  6  7 13 16 19 21 23 25
  -4082776.84408  20298039.18208  -3176025.73049  20298034.61549
   1543601.83607  20953150.83807   1202815.86349  20953146.70149
  -2961697.40606  23668197.09606  -2299736.40647  23668192.70547
  -1093890.75806  22732264.70506   -851799.33847  22732259.56447
   9697998.02307  22242293.60407   7543113.53648  22242288.29548
 -12483562.35207  21478941.79107  -9724474.76349  21478934.72149
   2254397.21506  24768252.75206   2441981.42046  24768248.26046
   7646115.23807  22881335.60407   5953098.53748  22881328.59648
 -10157146.89107  22439771.24407  -7914740.66548  22439766.07248
 08 11 15  1 18 30.0020000  0  9  3  6  7 13 16 19 21 23 25
  -4065724.68807  20301284.04107  -3162738.33949  20301279.44749
   1588415.57807  20961678.54907   1237735.66249  20961674.49849
  -3043229.44505  23652681.36905  -2363267.84447  23652677.07247
  -1052237.21106  22740190.51806   -819342.05947  22740186.22547
   9763244.17207  22254709.48607   7593954.67648  22254703.93248
 -12528430.83607  21470403.57207  -9759437.21349  21470396.97549
   2312073.77705  24779227.62705   2486924.20845  24779223.65045
   7730699.51207  22897431.69707   6019008.34548  22897424.47148
 -10209570.40607  22429795.00207  -7955590.15648  22429790.10448
 08 11 15  1 19  0.0020000  0  9  3  6  7 13 16 19 21 23 25
  -4048200.98807  20304618.57207  -3149083.50149  20304613.88149
   1633600.03107  20970276.91607   1272944.32649  20970272.30349
  -3124607.66406  23637196.92406  -2426679.43247  23637191.69747
  -1010036.60906  22748221.42406   -786458.49247  22748216.45947
   9828611.93807  22267149.11907   7644890.57748  22267143.37748
 -12572882.69507  21461944.86107  -9794075.02149  21461937.99049
   2370168.01205  24790284.29905   2532192.38145  24790278.46745
   7815639.71507  22913594.58807   6085195.44747  22913588.33847
 -10261692.60507  22419876.61907  -7996204.86148  22419871.99848
 08 11 15  1 19 30.0020000  0  9  3  6  7 13 16 19 21 23 25
  -4030208.12507  20308042.42407  -3135063.08749  20308038.11949
   1679152.53507  20978945.29907   1308439.79849  20978940.61149
  -3205830.94906  23621740.60406  -2489970.30947  23621735.95547
   -967291.84406  22756355.43906   -753150.90047  22756349.38547
   9894100.19907  22279610.67407   7695920.37348  22279605.81148
 -12616917.98406  21453564.72106  -9828388.22449  21453558.20149
   2428677.23005  24801417.36105   2577783.94446  24801412.88946
   7900931.60906  22929824.83806   6151656.61147  22929819.17047
 -10313512.46107  22410015.80707  -8036583.97048  22410010.94348
 08 11 15  1 20  0.0020000  0  9  3  6  7 13 16 19 21 23 25
  -4011735.28508  20311557.80708  -3120668.65449  20311553.47149
   1725083.13307  20987685.65807   1344229.86049  20987681.26849
  -3286885.00806  23606316.25206  -2553129.28547  23606311.42847
   -923992.66006  22764594.31406   -719411.29947  22764589.92447
   9959720.53107  22292098.06407   7747053.07648  22292092.76848
 -12660524.39807  21445266.65007  -9862367.24749  21445260.18249
   2487612.37504  24812632.15804   2623707.32545  24812628.10045
   7986584.05107  22946123.90007   6218398.76347  22946118.07247
 -10365015.93807  22400215.51807  -8076716.55548  22400209.42448
 08 11 15  1 20 30.0020000  0  9  3  6  7 13 16 19 21 23 25
  -3992794.79708  20315161.88508  -3105909.82249  20315158.02949
   1771378.80907  20996495.37707   1380304.41549  20996490.51849
  -3367778.60206  23590921.82206  -2616163.23747  23590917.73647
   -880152.41806  22772936.81406   -685250.10047  22772931.51847
  10025461.34407  22304608.43907   7798279.66248  22304602.85748
 -12703712.44506  21437048.31406  -9896020.26249  21437041.77949
   2546961.10505  24823926.71305   2669953.15645  24823921.61945
   8072582.39107  22962489.30707   6285410.45847  22962482.95947
 -10416212.16407  22390472.51807  -8116609.71948  22390466.93648
 08 11 15  1 21  0.0020000  0  9  3  6  7 13 16 19 21 23 25
  -3973378.30108  20318856.98608  -3090780.07949  20318852.26049
   1818047.32007  21005375.94707   1416669.48449  21005371.34249
  -3448499.75805  23575561.29105  -2679062.79747  23575557.04547
   -835763.24605  22781384.00205   -650661.16347  22781378.22547
  10091331.95307  22317142.85407   7849607.37148  22317137.73648
 -12746472.17207  21428911.50207  -9929339.51649  21428905.06849
   2606731.29705  24835300.72105   2716527.31645  24835296.02545
   8158933.12106  22978920.34606   6352696.71447  22978915.34647
 -10467089.53507  22380790.79107  -8156254.41948  22380785.44348
 08 11 15  1 21 30.0020000  0  9  3  6  7 13 16 19 21 23 25
  -3953495.37508  20322640.58008  -3075286.89349  20322635.92849
   1865078.98407  21014325.78307   1453317.53549  21014322.07249
  -3529054.21505  23560232.37705  -2741832.52447  23560228.12747
   -790834.93406  22789933.90006   -615652.12247  22789928.70547
  10157324.13707  22329700.51007   7901029.81348  22329695.36148
 -12788810.75007  21420854.68907  -9962330.61549  21420848.47949
   2666913.81305  24846752.60405   2763422.74645  24846748.92445
   8245625.02707  22995419.04107   6420248.78247  22995412.52147
 -10517653.83207  22371168.90007  -8195655.17548  22371163.69348
 08 11 15  1 22  0.0020000  0  9  3  6  7 13 16 19 21 23 25
  -3933150.26608  20326512.26808  -3059433.56249  20326507.56449
   1912468.62907  21023343.77507   1490244.52749  21023339.57249
  -3609443.22306  23544935.62706  -2804473.29447  23544930.68947
   -745372.56606  22798584.59606   -580226.89547  22798579.70947
  10223434.55907  22342281.15807   7952544.39348  22342275.64648
 -12830730.89807  21412877.48607  -9994995.65049  21412871.26849
   2727503.83605  24858282.07205   2810635.78545  24858278.90445
   8332651.58607  23011979.41607   6488061.67948  23011972.26048
 -10567906.21907  22361605.89307  -8234812.88048  22361601.18248
 08 11 15  1 22 30.0020000  0  9  3  6  7 13 16 19 21 23 25
  -3912345.06308  20330470.83808  -3043221.71349  20330466.35749
   1960213.69107  21032429.65007   1527448.47749  21032425.20949
  -3689664.75406  23529669.75206  -2866983.58447  23529665.05347
   -699378.74206  22807337.19706   -544387.58847  22807332.13547
  10289662.52007  22354883.72907   8004150.57948  22354878.44348
 -12872232.59007  21404980.18207 -10027334.64049  21404973.30349
   2788499.37105  24869890.11105   2858164.71145  24869885.95945
   8420008.71507  23028602.88507   6556132.19247  23028596.11547
 -10617845.27307  22352103.01807  -8273726.42348  22352098.67048
 08 11 15  1 23  0.0020000  0  9  3  6  7 13 16 19 21 23 25
  -3891082.59408  20334516.99408  -3026653.55449  20334512.50649
   2008310.70707  21041582.02507   1564926.66749  21041577.50249
  -3769718.05506  23514436.33806  -2929362.76148  23514431.33448
   -652857.32006  22816190.37706   -508137.13847  22816184.96747
  10356005.68007  22367508.89307   8055846.52748  22367503.58448
 -12913317.31307  21397161.53307 -10059348.69049  21397155.27149
   2849897.28905  24881573.79105   2906007.26645  24881569.11545
   8507691.54306  23045287.75206   6624456.41647  23045280.93247
 -10667470.74607  22342659.91607  -8312395.62848  22342654.73648
 08 11 15  1 23 30.0020000  0  9  3  6  7 13 16 19 21 23 25
  -3869373.62908  20338648.15008  -3009737.48149  20338643.66649
   2056748.32407  21050799.43207   1602670.27449  21050795.27149
  -3849610.37106  23499233.17406  -2991616.50847  23499227.74447
   -605819.62506  22825140.83006   -471484.40347  22825136.12347
  10422454.55907  22380153.56407   8107624.86148  22380148.19748
 -12953993.60506  21389421.26806 -10091044.51449  21389414.54149
   2911686.93001  24893329.74401   2954154.95344  24893327.56444
   8595687.52307  23062033.13507   6693024.63947  23062026.50247
 -10716789.89107  22333274.72907  -8350826.13648  22333269.84648
 08 11 15  1 24  0.0020000  0  9  3  6  7 13 16 19 21 23 25
  -3847215.34408  20342864.65808  -2992471.28749  20342860.51049
   2105529.16807  21060082.18907   1640681.32249  21060077.69349
  -3929334.98006  23484061.78306  -3053739.56047  23484056.18647
   -558263.06306  22834191.26806   -434427.38447  22834186.03747
  10489013.34807  22392819.15007   8159488.84548  22392814.02548
 -12994256.70707  21381759.40007 -10122418.34649  21381753.04549
   2973871.33203  24905165.59603   3002610.14845  24905160.57245
   8683997.63307  23078838.87707   6761837.67647  23078831.45547
 -10765796.38307  22323948.93907  -8389013.01248  22323943.43948
 08 11 15  1 24 30.0020000  0  9  3  6  7 13 16 19 21 23 25
  -3824608.93407  20347166.54107  -2974855.90849  20347162.46749
   2154651.44107  21069429.47107   1678958.42049  21069425.67449
  -4008889.45706  23468922.83006  -3115730.07347  23468917.97147
   -510189.89506  22843338.65806   -396967.77847  22843333.88947
  10555681.69907  22405506.03307   8211438.19848  22405500.58448
 -13034106.09007  21374176.32207 -10153469.80849  21374169.84649
   3036448.95704  24917074.56404   3051371.94145  24917068.77145
   8772618.55107  23095702.50207   6830892.92847  23095696.08047
 -10814487.92207  22314683.04107  -8426954.48548  22314678.51048
 08 11 15  1 25  0.0020000  0  9  3  6  7 13 16 19 21 23 25
  -3801561.62508  20351552.49408  -2956896.97549  20351547.85749
   2204107.00807  21078840.77507   1717495.20949  21078836.79949
  -4088277.72305  23453815.74405  -3177591.04648  23453811.21348
   -461608.15206  22852583.78306   -359111.90847  22852578.71347
  10622453.35207  22418212.04107   8263468.04748  22418206.46348
 -13073547.63707  21366670.91607 -10184203.46949  21366664.49849
   3099412.05501  24929054.15801   3100434.10945  24929050.12345
   8861540.84806  23112622.81406   6900183.01447  23112617.13947
 -10862868.71107  22305476.38507  -8464653.79748  22305472.21748
 08 11 15  1 25 30.0020000  0  9  3  6  7 13 16 19 21 23 25
  -3778075.62108  20356021.54908  -2938596.19149  20356016.98249
   2253893.57407  21088314.90007   1756289.92849  21088310.51849
  -4167497.53906  23438741.10406  -3239320.77248  23438736.21748
   -412520.67206  22861924.86906   -320861.96647  22861919.85047
  10689327.47707  22430937.73607   8315577.76448  22430932.26048
 -13112581.18807  21359243.36907 -10214619.21849  21359236.28749
   3162758.55102  24941107.98602   3149794.98845  24941104.97145
   8950760.41006  23129600.83806   6969704.73647  23129595.40847
 -10910937.37107  22296329.56407  -8502109.90248  22296324.79548
 08 11 15  1 26  0.0020000  0  9  3  6  7 13 16 19 21 23 25
  -3754154.74208  20360573.96308  -2919956.56249  20360569.38549
   2304006.44507  21097850.84607   1795338.91849  21097846.78749
  -4246549.44106  23423697.64306  -3300919.64847  23423693.20147
   -362931.96906  22871361.01006   -282221.43447  22871356.43647
  10756301.18007  22443682.29907   8367765.04348  22443677.62348
 -13151208.81307  21351892.71307 -10244718.64949  21351885.88549
   3226484.45702  24953234.71302   3199451.57045  24953231.29145
   9040271.30907  23146634.72107   7039453.48147  23146628.74847
 -10958694.30507  22287241.60407  -8539323.08648  22287237.00648
 08 11 15  1 26 30.0020000  0  9  3  6  7 13 16 19 21 23 25
  -3729801.33208  20365208.32208  -2900979.86849  20365203.99449
   2354443.35207  21107448.54907   1834640.38649  21107444.60049
  -4325431.57806  23408687.29906  -3362386.27848  23408682.04548
   -312844.73806  22880891.79906   -243192.43847  22880888.33447
  10823373.80507  22456445.72907   8420029.42148  22456440.84648
 -13189430.83607  21344619.04907 -10274502.03049  21344612.58849
   3290587.76204  24965433.53304   3249402.18045  24965429.87345
   9130070.16807  23163723.26807   7109426.63847  23163717.43247
 -11006138.05907  22278213.33807  -8576292.23248  22278209.07248
 08 11 15  1 27  0.0020000  0  9  3  6  7 13 16 19 21 23 25
  -3705021.13308  20369923.66608  -2881670.64049  20369919.03749
   2405197.69907  21117106.96307   1874189.22849  21117102.54549
  -4404146.34806  23393707.68906  -3423722.43848  23393703.02148
   -262265.89106  22890517.29906   -203780.36947  22890513.96347
  10890540.45707  22469227.47907   8472367.04948  22469222.30348
 -13227251.71107  21337421.58007 -10303972.84149  21337414.71749
   3355062.17204  24977703.07204   3299641.89145  24977698.19745
   9220148.59406  23180864.18906   7179617.56147  23180857.97547
 -11053271.34407  22269244.21307  -8613019.46748  22269239.57248
 08 11 15  1 27 30.0020000  0  9  3  6  7 13 16 19 21 23 25
  -3679816.95708  20374719.65008  -2862031.02249  20374715.09249
   2456266.10507  21126824.91607   1913982.79349  21126820.50249
  -4482692.93006  23378761.51806  -3484927.53248  23378756.58848
   -211199.24606  22900234.61906   -163988.19347  22900230.87347
  10957799.22707  22482026.47907   8524776.48948  22482021.19348
 -13264672.29307  21330300.97107 -10333131.73049  21330294.47149
   3419904.62505  24990041.60405   3350168.44944  24990037.63544
   9310501.82807  23198057.92407   7250022.60947  23198051.85747
 -11100093.57007  22260334.22907  -8649504.31048  22260329.41248
 08 11 15  1 28  0.0020000  0  8  3  6  7 13 16 19 23 25
  -3654190.33608  20379596.22908  -2842062.24049  20379591.69749
   2507646.68807  21136602.66607   1954019.59949  21136598.36149
  -4561068.66006  23363846.79906  -3545999.51648  23363841.79148
   -159646.63706  22910044.90806   -123817.33147  22910040.87347
  11025150.23807  22494842.17407   8577257.76148  22494837.23648
 -13301692.22707  21323256.21307 -10361978.42749  21323249.67049
   9401126.44507  23215304.01007   7320639.15647  23215297.38147
 -11146602.67207  22251483.89307  -8685745.16348  22251479.08448
 08 11 15  1 28 30.0020000  0  8  3  6  7 13 16 19 23 25
  -3628140.68408  20384553.21308  -2821763.81849  20384548.98249
   2559339.71107  21146439.21307   1994299.87949  21146435.56849
  -4639268.67206  23348965.76806  -3606934.57148  23348960.67048
   -107607.93006  22919947.50206    -83267.73247  22919943.88147
  11092595.39507  22507676.99407   8629812.40748  22507672.01448
 -13338308.89107  21316288.69707 -10390510.87949  21316281.77549
   9492021.43407  23232600.11107   7391466.43947  23232593.63947
 -11192794.43807  22242693.66607  -8721738.75048  22242689.19348
 08 11 15  1 29  0.0020000  0  8  3  6  7 13 16 19 23 25
  -3601675.23808  20389589.48608  -2801141.40949  20389585.01049
   2611337.09407  21156334.55707   2034817.31349  21156330.06149
  -4717297.10906  23334117.47106  -3667735.93548  23334112.58448
    -55091.71906  22929941.00206    -42346.04248  22929936.53348
  11160128.23807  22520527.81407   8682435.39048  22520522.52548
 -13374528.40607  21309396.24407 -10418733.87649  21309388.77949
   9583177.07806  23249946.90006   7462496.75747  23249941.03747
 -11238672.93407  22233963.32207  -8757488.22548  22233959.10748
 08 11 15  1 29 30.0020000  0  8  3  6  7 13 16 19 23 25
  -3574787.73008  20394706.10408  -2780190.12249  20394701.31849
   2663644.96907  21166287.87707   2075576.68549  21166283.65449
  -4795143.76206  23319303.36106  -3728395.64048  23319298.80348
     -2092.45307  22940026.82207     -1047.96047  22940021.63947
  11227756.60907  22533397.47107   8735132.80648  22533392.04148
 -13410342.07807  21302581.00207 -10446640.63049  21302573.95949
   9674598.15606  23267342.95506   7533733.91247  23267337.26047
 -11284228.34807  22225294.96307  -8792985.94448  22225289.20948
 08 11 15  1 30  0.0020000  0  8  3  6  7 13 16 19 23 25
  -3547485.94908  20399901.64308  -2758916.01849  20399896.52549
   2716254.98807  21176299.23607   2116571.50449  21176294.76449
  -4872812.35207  23304524.11107  -3788916.59548  23304519.09648
     51381.37907  22950202.25207     40619.92547  22950197.28747
  11295473.76607  22546283.77507   8787899.42248  22546278.07648
 -13445756.23007  21295841.79907 -10474236.07149  21295835.51849
   9766274.78107  23284790.02507   7605170.26047  23284782.87747
 -11329464.96907  22216686.09607  -8828235.26348  22216681.06848
 08 11 15  1 30 30.0020000  0  8  3  6  7 13 16 19 23 25
  -3519771.09408  20405175.59608  -2737320.03449  20405170.69749
   2769165.35507  21186367.67407   2157800.34149  21186363.41649
  -4950300.38306  23289778.54106  -3849296.86648  23289773.30748
    105327.56606  22960468.26806     82655.88948  22960463.13948
  11363280.04707  22559186.87707   8840735.46248  22559181.12348
 -13480770.11707  21289179.22107 -10501519.61449  21289172.31849
   9858203.85206  23302281.79106   7676803.28047  23302276.93647
 -11374380.56607  22208139.22907  -8863234.43048  22208134.58448
 08 11 15  1 31  0.0020000  0  8  3  6  7 13 16 19 23 25
  -3491630.09808  20410530.54108  -2715391.98449  20410526.18649
   2822389.47707  21196495.97907   2199273.68549  21196491.54549
  -5027590.14107  23275070.74407  -3909522.63948  23275065.29148
    159759.03906  22970825.91606    125069.98248  22970821.98248
  11431190.14107  22572109.79107   8893652.39848  22572104.62348
 -13515368.56607  21282594.96307 -10528479.42249  21282588.43949
   9950397.00407  23319825.89307   7748642.06047  23319819.84647
 -11418957.98807  22199656.25207  -8897970.08448  22199651.59648
 08 11 15  1 31 30.0020000  0  8  3  6  7 13 16 19 23 25
  -3463066.51608  20415965.87708  -2693134.65649  20415961.89649
   2875922.75407  21206683.12707   2240987.90649  21206678.55349
  -5104681.70306  23260400.44706  -3969593.96748  23260395.81448
    214670.84407  22981275.94707    167858.36148  22981271.02548
  11499201.45307  22585051.81407   8946648.20148  22585046.43648
 -13549553.87107  21276090.09607 -10555117.32949  21276083.09649
  10042848.56307  23337419.53307   7820682.20047  23337412.67447
 -11463197.87907  22191237.47107  -8932442.72948  22191232.70948
 08 11 15  1 32  0.0020000  0  8  3  6  7 13 16 19 23 25
  -3434077.22708  20421482.26008  -2670545.60149  20421478.08849
   2929767.71507  21216929.59607   2282945.00849  21216924.96349
  -5181568.31307  23245769.24407  -4029505.58748  23245764.24048
    270065.05507  22991817.33007    211022.66848  22991811.87348
  11567318.24607  22598013.90007   8999726.19448  22598008.83448
 -13583321.09807  21269664.18207 -10581429.45049  21269657.17049
  10135559.33606  23355061.01006   7892924.33147  23355055.55747
 -11507093.69507  22182884.73607  -8966647.25448  22182880.48248
 08 11 15  1 32 30.0020000  0  8  3  6  7 13 16 19 23 25
  -3404671.14808  20427078.13508  -2647631.77649  20427073.77149
   2983915.48008  21227233.76808   2325138.06349  21227229.40849
  -5258254.44507  23231176.65807  -4089261.01748  23231171.54148
    325932.36306  23002448.16606    254555.61648  23002443.47548
  11635533.16407  22610995.02507   9052880.62348  22610989.53748
 -13616677.30107  21263316.91607 -10607421.30649  21263310.25649
  10228518.75806  23372750.85406   7965360.21847  23372745.10747
 -11550650.50807  22174596.19707  -9000587.63948  22174591.44748
 08 11 15  1 33  0.0020000  0  8  3  6  7 13 16 19 23 25
  -3374845.25408  20432753.96308  -2624390.81949  20432749.59249
   3038368.48807  21237595.97907   2367568.95549  21237591.21749
  -5334733.40606  23216622.25206  -4148854.98848  23216618.07248
    382275.02006  23013169.97106    298458.95048  23013165.59248
  11703850.40607  22623995.17407   9106114.80948  22623989.93948
 -13649617.59407  21257048.11907 -10633089.04849  21257041.62749
  10321728.09006  23390488.08006   8037990.85247  23390481.81447
 -11593861.98407  22166373.20507  -9034258.91448  22166368.70948
 08 11 15  1 33 30.0020000  0  8  3  6  7 13 16 19 23 25
  -3344601.28508  20438509.08008  -2600824.09749  20438504.84249
   3093124.61707  21248015.21307   2410236.08049  21248011.01849
  -5411002.71906  23202109.65806  -4208285.64048  23202104.82648
    439090.12906  23023981.29106    342730.45347  23023976.72147
  11772269.80107  22637015.02507   9159428.58248  22637010.38948
 -13682142.03507  21250859.25207 -10658432.77249  21250852.77549
  10415183.63306  23408271.77506   8110813.34147  23408266.70547
 -11636726.31307  22158216.61107  -9067659.69648  22158211.77548
 08 11 15  1 34  0.0020000  0  8  3  6  7 13 16 19 23 25
  -3313943.74208  20444342.92408  -2576935.10449  20444338.55349
   3148179.31608  21258491.96308   2453135.84349  21258487.78749
  -5487062.84407  23187636.17407  -4267553.24848  23187631.63148
    496372.66006  23034881.86106    387366.17147  23034877.41647
  11840788.63307  22650054.10407   9212819.87448  22650048.93648
 -13714253.15207  21244748.42407 -10683454.39949  21244742.31449
  10508879.47306  23426101.53306   8183823.07447  23426096.06447
 -11679244.06307  22150125.88507  -9100790.41848  22150121.18648
 08 11 15  1 34 30.0020000  0  8  3  6  7 13 16 19 23 25
  -3282858.35908  20450258.43908  -2552712.72849  20450254.18949
   3203545.99607  21269027.99407   2496278.70749  21269023.27149
  -5562895.82806  23173205.67406  -4326643.89147  23173200.44347
    554135.33605  23045873.25205    432376.03347  23045868.84647
  11909422.10207  22663114.29107   9266300.46648  22663109.65048
 -13745935.51607  21238719.31407 -10708141.97849  21238713.33449
  10602827.51606  23443978.78306   8257029.27147  23443973.44747
 -11721398.05107  22142103.83007  -9133637.68448  22142098.97148
 08 11 15  1 35  0.0020000  0  8  3  6  7 13 16 19 23 25
  -3251358.21508  20456252.86108  -2528167.16049  20456248.49449
   3259211.19108  21279620.57208   2539654.18649  21279615.81449
  -5638510.30506  23158816.15806  -4385564.25748  23158811.93648
    612364.65605  23056953.86905    477749.52647  23056949.77547
  11978158.58607  22676194.58007   9319861.32748  22676189.45948
 -13777200.15607  21232769.93907 -10732504.02549  21232763.74449
  10697012.87506  23461901.83006   8330420.44747  23461896.26447
 -11763197.74607  22134149.61907  -9166208.88248  22134144.88948
 08 11 15  1 35 30.0020000  0  8  3  6  7 13 16 19 23 25
  -3219433.55508  20462327.72108  -2503290.80649  20462323.95949
   3315184.68408  21290272.06408   2583269.90249  21290267.54549
  -5713892.56607  23144471.31407  -4444303.64548  23144467.75648
    671069.54306  23068125.00206    523493.58347  23068120.86947
  12047009.26207  22689296.79107   9373511.16548  22689290.92448
 -13808035.40207  21226902.47107 -10756531.48549  21226896.14349
  10791443.75806  23479871.38506   8404002.90947  23479866.24047
 -11804629.54707  22126265.50207  -9198493.40048  22126260.57648
 08 11 15  1 36  0.0020000  0  8  3  6  7 13 16 19 23 25
  -3187094.41408  20468481.99408  -2478091.47149  20468477.60449
   3371455.51207  21300979.97907   2627117.30649  21300975.70549
  -5789049.15606  23130169.45506  -4502867.23047  23130165.99047
    730238.42606  23079384.27506    569599.18147  23079379.97147
  12115965.13707  22702418.40007   9427243.00048  22702413.06148
 -13838450.19107  21221114.76807 -10780231.32649  21221108.48649
  10886107.78106  23497885.57206   8477767.04547  23497880.19747
 -11845700.50807  22118450.09607  -9230496.75548  22118445.13948
 08 11 15  1 36 30.0020000  0  8  3  6  7 13 16 19 23 25
  -3154342.87508  20474714.22908  -2452570.78449  20474709.65849
   3428021.53107  21311744.11107   2671194.73049  21311739.89349
  -5863977.72306  23115911.85406  -4561253.13247  23115906.95947
    789868.70706  23090731.79106    616064.29547  23090727.04147
  12185025.88707  22715560.10407   9481056.53148  22715554.78748
 -13868444.87107  21215407.05707 -10803603.79749  21215400.68249
  10981000.98406  23515943.34606   8551709.78647  23515937.68647
 -11886408.90207  22110703.50207  -9262217.56848  22110698.82248
 08 11 15  1 37  0.0020000  0  8  3  6  7 13 16 19 23 25
  -3121182.42208  20481024.27508  -2426731.47749  20481019.72949
   3484879.22707  21322563.78307   2715499.42049  21322559.99849
  -5938677.36306  23101696.76006  -4619460.64047  23101691.58447
    849956.30106  23102165.93206    662885.79347  23102161.84247
  12254189.93807  22728721.55707   9534950.56348  22728716.11948
 -13898020.44907  21209778.85407 -10826649.69749  21209772.45949
  11076118.84006  23534044.02506   8625827.57247  23534038.46347
 -11926754.21907  22103026.31407  -9293655.48448  22103020.85448
 08 11 15  1 37 30.0020000  0  8  3  6  7 13 16 19 23 25
  -3087610.18408  20487412.79908  -2400571.28649  20487408.51449
   3542030.96508  21333439.30708   2760033.23549  21333435.93949
  -6013141.53107  23087526.44707  -4677484.67647  23087521.29547
    910502.99606  23113688.09606    710064.97647  23113683.34247
  12323461.38307  22741903.66607   9588928.30848  22741898.48648
 -13927172.73407  21204231.79907 -10849365.77249  21204224.72549
  11171462.19106  23552187.04106   8700121.08047  23552180.84247
 -11966730.40607  22095418.54107  -9324805.75648  22095413.69348
 08 11 15  1 38  0.0020000  0  8  3  6  7 13 16 19 23 25
  -3053625.02708  20493880.04908  -2374089.35349  20493876.18249
   3599477.77007  21344370.86907   2804796.98249  21344366.91249
  -6087364.32806  23073403.05706  -4735320.63747  23073397.09647
    971509.06306  23125296.87706    757602.12947  23125292.71747
  12392843.25807  22755106.49407   9642992.05148  22755101.63948
 -13955898.57407  21198765.39307 -10871749.54249  21198758.39649
  11267030.28506  23570372.96306   8774589.68247  23570366.92447
 -12006332.59007  22087883.04107  -9355664.60648  22087877.95948
 08 11 15  1 38 30.0020000  0  8  3  6  7 13 16 19 23 25
  -3019220.88708  20500426.70508  -2347280.93449  20500422.78749
   3657225.61307  21355360.21307   2849795.30049  21355356.26849
  -6161335.44506  23059325.47106  -4792960.46547  23059320.30747
   1032980.04706  23136994.89306    805501.54347  23136989.92847
  12462343.30107  22768331.76007   9697147.91248  22768326.83848
 -13984190.01207  21193381.49407 -10893794.80249  21193374.60449
  11362827.88306  23588602.47906   8849237.10547  23588596.95147
 -12045550.82007  22080420.12707  -9386224.26148  22080414.90448
 08 11 15  1 39  0.0020000  0  8  3  6  7 13 16 19 23 25
  -2984397.69507  20507053.47107  -2320145.98449  20507049.28749
   3715273.42607  21366406.17407   2895027.34949  21366402.73649
  -6235051.77306  23045297.91606  -4850401.76747  23045292.99847
   1094914.01606  23148780.54106    853761.71247  23148775.49447
  12531961.70307  22781579.79107   9751395.99048  22781575.08048
 -14012046.24607  21188080.35407 -10915500.95649  21188073.71749
  11458852.25406  23606875.92406   8924061.24547  23606869.13147
 -12084382.41807  22073030.60407  -9416482.65748  22073025.15848
 08 11 15  1 39 30.0020000  0  8  3  6  7 13 16 19 23 25
  -2949153.48807  20513760.18207  -2292682.97049  20513755.71349
   3773623.35207  21377509.98607   2940494.81149  21377506.01049
  -6308506.52006  23031319.63506  -4907639.19647  23031315.06847
   1157312.46106  23160654.98606    902383.84247  23160650.15447
  12601702.87907  22794850.83007   9805739.73648  22794845.94348
 -14039463.09007  21182863.51807 -10936864.72849  21182856.49449
  11555103.96106  23625191.88506   8999062.53547  23625185.70947
 -12122821.32007  22065715.76807  -9446435.05848  22065710.46748
 08 11 15  1 40  0.0020000  0  8  3  6  7 13 16 19 23 25
  -2913492.11307  20520546.24407  -2264894.90249  20520542.11949
   3832271.37508  21388670.46308   2986194.56349  21388666.46749
  -6381699.44506  23017391.88506  -4964672.64347  23017387.10447
   1220170.53506  23172615.99406    951364.11947  23172612.13147
  12671564.63707  22808145.09607   9860177.46048  22808140.22148
 -14066442.52007  21177729.33007 -10957887.64649  21177722.43949
  11651577.89506  23643550.98606   9074236.96647  23643544.08847
 -12160867.67607  22058475.86107  -9476081.57948  22058470.74448
 08 11 15  1 40 30.0020000  0  8  3  6  7 13 16 19 23 25
  -2877415.85507  20527411.61907  -2236783.53649  20527407.24049
   3891214.31307  21399886.86907   3032124.10849  21399882.75649
  -6454629.03906  23003514.47906  -5021500.85247  23003509.18247
   1283484.63707  23184665.23607   1000699.78747  23184659.75647
  12741545.53507  22821461.66607   9914708.01148  22821458.22148
 -14092985.95307  21172678.01807 -10978570.83249  21172671.19749
  11748269.21505  23661950.04905   9149580.77947  23661944.54147
 -12198520.87908  22051310.76008  -9505421.75348  22051305.49048
 08 11 15  1 41  0.0020000  0  8  3  6  7 13 16 19 23 25
  -2840932.09808  20534354.17408  -2208354.65449  20534349.61549
   3950445.27707  21411157.99407   3078278.07949  21411153.91649
  -6527297.80106  22989685.40006  -5078125.84647  22989680.66247
   1347247.03506  23196798.45506   1050384.68247  23196793.75647
  12811640.52006  22834800.43906   9969327.44947  22834796.77947
 -14119098.46107  21167709.29907 -10998918.24949  21167702.15049
  11845169.41405  23680389.32205   9225087.40647  23680383.86147
 -12235784.15207  22044219.51807  -9534458.08048  22044214.46748
 08 11 15  1 41 30.0020000  0  8  3  6  7 13 16 19 23 25
  -2804032.15208  20541376.26808  -2179601.45449  20541371.74849
   4009972.38307  21422485.65007   3124662.83949  21422481.41649
  -6599693.05906  22975909.16606  -5134537.70947  22975904.61147
   1411465.10906  23209018.32206   1100424.71747  23209013.18947
  12881859.57807  22848162.74407  10024043.55748  22848158.05348
 -14144769.78107  21162823.94707 -11018921.86649  21162817.33849
  11942285.01206  23698869.84606   9300761.83047  23698864.72147
 -12272645.36307  22037205.33807  -9563181.10348  22037200.89348
 08 11 15  1 42  0.0020000  0  8  3  6  7 13 16 19 23 25
  -2766727.59808  20548475.23608  -2150532.98449  20548470.76849
   4069783.97707  21433867.58007   3171269.26848  21433863.42848
  -6671822.17206  22962183.63506  -5190742.20548  22962178.68248
   1476126.50806  23221323.67406   1150810.16747  23221318.30347
  12952192.84006  22861546.55706  10078848.68347  22861542.34647
 -14170009.77307  21158020.85407 -11038589.38749  21158014.36549
  12039602.98006  23717389.54106   9376594.04747  23717383.52547
 -12309112.45707  22030266.05707  -9591597.02748  22030260.95548
 08 11 15  1 42 30.0020000  0  8  3  6  7 13 16 19 23 25
  -2729022.09808  20555650.02508  -2121152.08349  20555645.34649
   4129875.85507  21445302.65007   3218094.08849  21445298.20549
  -6743684.92206  22948508.90806  -5246739.17348  22948503.52148
   1541226.29706  23233711.00206   1201537.25747  23233706.65847
  13022638.08607  22874952.29907  10133741.07348  22874948.24448
 -14194820.66407  21153299.56407 -11057922.54149  21153293.42849
  12137117.88705  23735945.80705   9452579.67247  23735939.15047
 -12345185.71507  22023401.18207  -9619706.06448  22023396.59648
 08 11 15  1 43  0.0020000  0  8  3  6  7 13 16 19 23 25
  -2690919.23807  20562900.81407  -2091461.55749  20562896.69349
   4190244.21507  21456790.26807   3265134.36149  21456786.22149
  -6815280.51607  22934884.43207  -5302527.94147  22934879.17047
   1606759.53906  23246181.26006   1252602.09947  23246177.35447
  13093193.17606  22888378.62706  10188719.04048  22888374.30348
 -14219204.47307  21148659.36907 -11076922.90449  21148652.88149
  12234824.80505  23754539.82205   9528714.90747  23754532.99447
 -12380865.34007  22016611.40807  -9647508.35348  22016607.22548
 08 11 15  1 43 30.0020000  0  8  3  6  7 13 16 19 23 25
  -2652420.94908  20570226.69708  -2061462.90349  20570222.17849
   4250887.11307  21468330.50207   3312388.54349  21468326.05749
  -6886606.64807  22921311.79107  -5358106.71248  22921306.47148
   1672723.72306  23258733.67406   1304002.77047  23258730.54147
  13163858.10506  22901826.11106  10243782.59148  22901821.62348
 -14243161.19107  21144100.36107 -11095590.46349  21144094.38549
  12332719.51205  23773167.62705   9604996.41947  23773162.04947
 -12416149.38707  22009897.09607  -9675002.41348  22009893.06848
 08 11 15  1 44  0.0020000  0  8  3  6  7 13 16 19 23 25
  -2613531.43407  20577627.36107  -2031159.41449  20577622.65049
   4311799.99607  21479921.71307   3359853.11349  21479917.70949
  -6957663.36306  22907790.07206  -5413475.58447  22907784.16647
   1739113.73006  23271367.53306   1355735.24647  23271363.99447
  13234630.40606  22915293.57206  10298929.79648  22915288.49048
 -14266693.77007  21139622.65007 -11113927.54449  21139616.14649
  12430795.88705  23791830.67405   9681419.52747  23791824.95947
 -12451038.64807  22003258.26807  -9702188.86948  22003253.60448
 08 11 15  1 44 30.0020000  0  8  3  6  7 13 16 19 23 25
  -2574257.91007  20585101.06407  -2000556.66449  20585096.31149
   4372975.82007  21491562.90807   3407522.57749  21491558.65849
  -7028452.92207  22894319.26807  -5468636.29448  22894313.52148
   1805921.52706  23284080.94706   1407793.24347  23284077.04547
  13305504.59006  22928780.32206  10354156.43348  22928774.89348
 -14289807.00807  21135224.38507 -11131937.86549  21135218.26849
  12529045.76205  23810527.76805   9757977.78547  23810521.90047
 -12485536.45707  21996693.44707  -9729070.26248  21996689.18948
 08 11 15  1 45  0.0020000  0  8  3  6  7 13 16 19 23 25
  -2534593.50808  20592648.47908  -1969649.36449  20592643.86949
   4434420.64107  21503255.57207   3455401.63849  21503251.20149
  -7098965.32407  22880901.09607  -5523581.02247  22880895.71347
   1873152.07006  23296874.06406   1460180.65747  23296869.90047
  13376488.66806  22942288.21306  10409468.64847  22942282.91647
 -14312493.40207  21130907.20507 -11149615.57449  21130901.18649
  12627473.46904  23829256.27504   9834674.67947  23829252.28747
 -12519633.01607  21990204.93907  -9755639.00748  21990200.43948
 08 11 15  1 45 30.0020000  0  8  3  6  7 13 16 19 23 25
  -2494535.07408  20600271.79908  -1938435.00249  20600267.06849
   4496137.57407  21514999.82207   3503492.76649  21514995.19349
  -7169192.56606  22867537.29906  -5578303.52448  22867532.00248
   1940808.03906  23309749.54106   1512899.56047  23309744.16647
  13447587.67606  22955817.89306  10464870.47748  22955813.15448
 -14334747.99607  21126672.01007 -11166956.80649  21126665.64349
  12726081.03505  23848021.96305   9911511.71147  23848016.48647
 -12553321.39107  21983794.17407  -9781889.68949  21983789.31149
 08 11 15  1 46  0.0020000  0  8  3  6  7 13 16 19 23 25
  -2454081.70707  20607969.45507  -1906912.91449  20607965.32649
   4558127.50807  21526796.21307   3551796.59549  21526791.92449
  -7239129.41807  22854228.74407  -5632799.77948  22854223.65848
   2008888.94506  23322704.54106   1565949.57847  23322700.49047
  13518804.09006  22969370.17406  10520363.76048  22969365.33848
 -14356568.18007  21122520.39307 -11183959.55949  21122514.06149
  12824867.80905  23866821.09605   9988488.39647  23866815.01447
 -12586597.05107  21977461.97107  -9807818.77548  21977457.26448
 08 11 15  1 46 30.0020000  0  8  3  6  7 13 16 19 23 25
  -2413235.07007  20615742.45507  -1875084.36349  20615738.50649
   4620388.35207  21538644.07207   3600311.52549  21538639.54149
  -7308773.44106  22840975.73606  -5687067.86148  22840971.42448
   2077392.12506  23335740.36906   1619328.64347  23335735.77147
  13590137.93006  22982944.43206  10575948.52548  22982939.60448
 -14377954.22307  21118450.76007 -11200624.00249  21118443.97949
  12923829.80906  23885653.39306  10065601.60347  23885646.93247
 -12619458.30507  21971209.10407  -9833424.95449  21971204.25249
 08 11 15  1 47  0.0020000  0  8  3  6  7 13 16 19 23 25
  -2371999.80908  20623589.51008  -1842953.00349  20623584.96349
   4682915.32008  21550542.60408   3649033.83749  21550538.22149
  -7378125.06606  22827778.22106  -5741108.07247  22827773.36547
   2146311.68006  23348855.11906   1673032.19247  23348850.06447
  13661586.29706  22996540.04106  10631622.55748  22996535.81448
 -14398909.17607  21114462.79907 -11216952.51949  21114456.33449
  13022960.96106  23904517.04906  10142846.61047  23904510.69747
 -12651906.23807  21965034.35407  -9858709.06148  21965029.63548
 08 11 15  1 47 30.0020000  0  8  3  6  7 13 16 19 23 25
  -2330373.71107  20631510.35407  -1810517.08549  20631506.58849
   4745710.74607  21562492.15007   3697965.33448  21562487.73248
  -7447177.75807  22814638.34607  -5794915.37947  22814632.54147
   2215649.17206  23362050.15006   1727061.37747  23362044.73247
  13733153.17606  23010159.01006  10687388.94048  23010154.63948
 -14419429.23807  21110558.03307 -11232942.17549  21110551.56449
  13122262.18406  23923413.55706  10220224.17147  23923407.64647
 -12683934.84407  21958939.35407  -9883666.41448  21958933.94748
 08 11 15  1 48  0.0020000  0  8  3  6  7 13 16 19 23 25
  -2288356.15608  20639506.03308  -1777776.14249  20639502.04149
   4808774.73007  21574492.77507   3747106.08748  21574488.54948
  -7515926.52306  22801555.25206  -5848485.83047  22801550.76447
   2285404.03906  23375324.16606   1781415.77247  23375319.09247
  13804840.79706  23023800.96306  10743249.38548  23023796.95548
 -14439512.16007  21106736.23607 -11248591.20549  21106730.43949
  13221732.24606  23942341.68206  10297733.25947  23942336.25647
 -12715540.19508  21952925.28308  -9908293.97248  21952919.92448
 08 11 15  1 48 30.0020000  0  8  3  6  7 13 16 19 23 25
  -2245937.72707  20647577.72907  -1744722.82049  20647573.71349
   4872116.77007  21586546.24407   3796463.51349  21586542.12749
  -7584357.53106  22788533.08806  -5901808.68047  22788528.26047
   2355584.25406  23388678.58006   1836101.65447  23388674.12347
  13876660.08206  23037467.62706  10799212.44148  23037463.31848
 -14459146.84407  21103000.11907 -11263890.95949  21102993.50649
  13321379.10906  23961304.68906  10375380.11247  23961298.52147
 -12746709.40607  21946993.62707  -9932581.66749  21946988.76449
 08 11 15  1 49  0.0020000  0  8  3  6  7 13 16 19 23 25
  -2203112.14107  20655727.43907  -1711352.21949  20655722.99449
   4935742.61707  21598653.79907   3846042.07648  21598649.84248
  -7652460.64506  22775573.65806  -5954876.02847  22775568.73247
   2426194.87506  23402114.93206   1891122.89447  23402111.11147
  13948618.87106  23051161.42406  10855284.20348  23051156.16248
 -14478325.94907  21099350.03307 -11278835.71649  21099343.45949
  13421206.59806  23980300.65806  10453167.76547  23980294.03347
 -12777432.93807  21941147.10407  -9956522.08348  21941141.99848
 08 11 15  1 49 30.0020000  0  8  3  6  7 13 16 19 23 25
  -2159872.73807  20663955.61107  -1677659.17649  20663951.39649
   4999658.91407  21610816.72107   3895846.99249  21610813.01049
  -7720224.75807  22762679.15007  -6007679.23048  22762673.64348
   2497241.66006  23415634.93206   1946483.98847  23415630.76047
  14020726.25406  23064883.25206  10911471.75548  23064877.39348
 -14497041.15207  21095788.93207 -11293418.99349  21095782.13949
  13521220.07406  23999333.29106  10531100.30047  23999326.49047
 -12807700.37507  21935387.53307  -9980107.09449  21935382.81149
 08 11 15  1 50  0.0020000  0  8  3  6  7 13 16 19 23 25
  -2116213.35507  20672263.72907  -1643638.88349  20672259.64349
   5063872.03507  21623036.07207   3945883.17848  21623032.86148
  -7787638.94906  22749850.34606  -6060209.78047  22749845.56447
   2568730.11306  23429238.89306   2002189.19047  23429234.67847
  14092989.59406  23078633.87706  10967780.83648  23078628.85048
 -14515284.57407  21092317.11907 -11307634.63749  21092310.65049
  13621424.71906  24018401.28306  10609181.79447  24018395.34247
 -12837501.78108  21929716.56408 -10003328.98149  21929711.82249
 08 11 15  1 50 30.0020000  0  8  3  6  7 13 16 19 23 25
  -2072137.19907  20680651.32207  -1609293.82849  20680646.60049
   5128378.52007  21635311.27507   3996147.96849  21635307.51449
  -7854702.14107  22737088.66607  -6112466.78448  22737084.50648
   2640655.46505  23442925.86905   2058234.93347  23442920.91647
  14165407.55506  23092414.81406  11024210.38848  23092409.72548
 -14533057.83607  21088935.16607 -11321483.93849  21088928.72149
  13721815.37906  24037504.51006  10687408.27447  24037498.70547
 -12866836.91808  21924134.26808 -10026187.52849  21924129.60449
 08 11 15  1 51  0.0020000  0  8  3  6  7 13 16 19 23 25
  -2027642.19107  20689118.60407  -1574622.39149  20689114.31449
   5193180.28107  21647642.75207   4046642.83648  21647638.83848
  -7921408.23007  22724395.33007  -6164445.53248  22724390.14648
   2713018.65605  23456695.50205   2114621.78647  23456692.52947
  14237984.02306  23106225.35406  11080763.43447  23106220.67047
 -14550357.88307  21085643.53307 -11334964.49349  21085636.57249
  13822392.52006  24056644.01806  10765780.04347  24056636.35747
 -12895700.53907  21918641.60407 -10048678.67749  21918636.74049
 08 11 15  1 51 30.0020000  0  8  3  6  7 13 16 19 23 25
  -1982732.10907  20697664.64307  -1539627.51649  20697660.21349
   5258273.56307  21660029.68207   4097364.86548  21660025.43948
  -7987756.40207  22711769.61107  -6216145.39548  22711764.44748
   2785814.66406  23470548.38506   2171345.91847  23470545.18647
  14310717.01206  23120065.98606  11137438.46847  23120061.51847
 -14567186.51607  21082440.93907 -11348077.70349  21082434.36149
  13923150.66806  24075815.92406  10844292.81747  24075810.20147
 -12924092.79707  21913238.75207 -10070802.52749  21913233.87749
 08 11 15  1 52  0.0020000  0  8  3  6  7 13 16 19 23 25
  -1937421.25407  20706286.73607  -1504320.35549  20706282.23649
   5323643.82807  21672469.21307   4148302.72148  21672464.80748
  -8053756.72307  22699210.33007  -6267574.22048  22699204.95148
   2859028.19106  23484480.97906   2228395.42947  23484476.62747
  14383594.00006  23133934.09606  11194225.71747  23133928.83447
 -14583556.45307  21079325.76807 -11360833.49349  21079319.12349
  14024073.97705  24095020.74405  10922934.26747  24095016.20947
 -12952024.32407  21907923.70507 -10092567.35148  21907919.01048
 08 11 15  1 52 30.0020000  0  8  3  6  7 13 16 19 23 25
  -1891703.03507  20714986.73607  -1468695.77949  20714982.31449
   5389297.37107  21684962.41607   4199461.33248  21684958.32248
  -8119398.41407  22686719.18207  -6318723.56848  22686714.11148
   2932664.64806  23498493.36106   2285774.44847  23498489.29547
  14456623.21906  23147831.08806  11251131.59247  23147826.11147
 -14599460.29707  21076299.39307 -11373226.08849  21076292.64349
  14125167.24605  24114259.75205  11001708.16646  24114253.36946
 -12979485.43008  21902697.93208 -10113965.61349  21902693.31149
 08 11 15  1 53  0.0020000  0  8  3  6  7 13 16 19 23 25
  -1845574.90207  20723764.66607  -1432751.78349  20723760.45949
   5455237.04707  21697510.65807   4250842.86948  21697506.51848
  -8184674.14107  22674297.29907  -6369587.74548  22674292.33048
   3006725.48006  23512586.92406   2343484.17947  23512582.94347
  14529809.29706  23161757.78306  11308159.68547  23161753.18247
 -14614893.38307  21073362.40807 -11385251.86549  21073355.70949
  14226431.97305  24133529.77505  11080615.68746  24133523.69346
 -13006469.63307  21897562.93907 -10134992.26749  21897558.11949
 08 11 15  1 53 30.0020000  0  8  3  6  7 13 16 19 23 25
  -1799046.56307  20732618.73607  -1396495.93849  20732614.27549
   5521452.46907  21710110.82207   4302439.30348  21710106.59648
  -8249590.16407  22661944.51007  -6420171.67348  22661939.22548
   3081199.43006  23526758.10406   2401515.76247  23526754.68947
  14603143.84006  23175713.17406  11365303.45247  23175708.39347
 -14629864.33207  21070513.46307 -11396917.53549  21070506.85449
  14327856.08604  24152828.36104  11159647.44146  24152824.42046
 -13032983.91807  21892517.40007 -10155652.73949  21892512.77549
 08 11 15  1 54  0.0020000  0  8  3  6  7 13 16 19 23 25
  -1752110.04707  20741550.31407  -1359922.03249  20741546.33049
   5587951.72707  21722765.31407   4354256.90248  21722760.85748
  -8314133.74207  22649662.60407  -6470465.37248  22649657.19748
   3156093.43406  23541010.67406   2459874.70247  23541005.49047
  14676636.35506  23189697.62706  11422570.29747  23189693.58047
 -14644364.06607  21067754.53307 -11408216.03049  21067747.16249
  14429446.35503  24172161.26003  11238808.67546  24172156.58446
 -13059016.57407  21887563.86107 -10175937.93449  21887559.06449
 08 11 15  1 54 30.0020000  0  8  3  6  7 13 16 19 23 25
  -1704771.00407  20750558.45507  -1323034.47549  20750554.48649
   5654729.25407  21735472.44707   4406291.32148  21735468.01048
  -8378305.69507  22637450.86907  -6520469.51948  22637445.31148
   3231400.52005  23555340.61105   2518555.54147  23555336.29947
  14750283.37506  23203712.78306  11479957.55247  23203707.91247
 -14658396.46507  21065083.93907 -11419150.36749  21065077.37749
  14531195.58203  24191523.01803  11318093.71546  24191519.07246
 -13084569.57407  21882701.31407 -10195849.35749  21882696.35749
 08 11 15  1 55  0.0020000  0  8  3  6  7 13 16 19 23 25
  -1657038.13707  20759641.93207  -1285840.04549  20759637.45549
   5721776.69107  21748231.15007   4458536.05648  21748227.15048
  -8442110.59807  22625309.16607  -6570187.62448  22625303.53748
   3307111.23005  23569748.26805   2577550.86747  23569744.00247
  14824078.42206  23217755.65806  11537460.17347  23217750.65047
 -14671968.48407  21062501.57207 -11429725.96949  21062494.31849
  14633093.98405  24210914.36105  11397495.03446  24210909.13946
 -13109647.97307  21877928.72107 -10215390.96949  21877923.97949
 08 11 15  1 55 30.0020000  0  8  3  6  7 13 16 19 23 25
  -1608917.47707  20768798.78307  -1248343.42749  20768794.26449
   5789087.12907  21761039.77507   4510985.74248  21761035.42848
  -8505550.50007  22613236.79107  -6619621.32248  22613231.49048
   3383217.71505  23584231.03305   2636854.57447  23584225.74847
  14898016.57006  23231825.76006  11595074.27247  23231821.08847
 -14685085.43407  21060005.58807 -11439946.97549  21059998.10049
  14735133.23806  24230332.76806  11477006.08747  24230326.63147
 -13134255.13307  21873246.22107 -10234565.37749  21873241.27949
 08 11 15  1 56  0.0020000  0  8  3  6  7 13 16 19 23 25
  -1560404.28907  20778030.62707  -1210540.95249  20778026.17049
   5856665.74206  21773899.51006   4563644.38648  21773895.30348
  -8568616.15607  22601235.58007  -6668763.36448  22601230.65848
   3459723.99206  23598789.76806   2696469.82947  23598784.45947
  14972104.62106  23245923.58806  11652805.19147  23245919.47947
 -14697740.74607  21057597.11907 -11449808.24349  21057590.28749
  14837316.78106  24249777.58006  11556629.60247  24249771.98647
 -13158382.44907  21868655.20507 -10253365.88949  21868650.28349
 08 11 15  1 56 30.0020000  0  8  3  6  7 13 16 19 23 25
  -1511504.44507  20787336.22107  -1172437.19749  20787331.52149
   5924506.37107  21786809.50207   4616507.19748  21786805.40448
  -8631309.05507  22589305.42407  -6717614.96948  22589300.56848
   3536622.80506  23613423.59606   2756390.91847  23613418.11147
  15046338.67206  23260050.37706  11710649.90547  23260045.82647
 -14709939.12507  21055275.70507 -11459313.46549  21055269.11149
  14939637.15206  24269248.90806  11636359.72847  24269243.41647
 -13182032.59007  21864154.77507 -10271794.56949  21864150.26449
 08 11 15  1 57  0.0020000  0  8  3  6  7 13 16 19 23 25
  -1462221.19107  20796714.49407  -1134034.68449  20796709.62749
   5992605.91406  21799768.40006   4669571.75648  21799763.99048
  -8693627.86307  22577446.74407  -6766175.07448  22577441.52948
   3613909.76606  23628130.84606   2816614.49547  23628125.62747
  15120717.02706  23274204.47906  11768607.02947  23274199.34247
 -14721682.11707  21053041.47107 -11468463.85949  21053034.67849
  15042089.64506  24288743.95506  11716192.80447  24288739.51447
 -13205205.14107  21859745.04107 -10289851.12449  21859740.06849
 08 11 15  1 57 30.0020000  0  8  3  6  7 13 16 19 23 25
  -1412556.38307  20806165.80707  -1095334.85349  20806161.41249
   6060962.51607  21812776.41607   4722836.62848  21812772.53348
  -8755570.02307  22565659.35407  -6814441.70148  22565653.99048
   3691581.73805  23642910.75205   2877138.07747  23642907.15847
  15195239.54306  23288385.89306  11826676.49047  23288379.66647
 -14732970.54707  21050893.20507 -11477260.03349  21050886.36549
  15144670.99606  24308265.34606  11796126.27947  24308259.54147
 -13227898.75007  21855426.51807 -10307534.44749  21855421.88549
 08 11 15  1 58  0.0020000  0  8  3  6  7 13 16 19 23 25
  -1362515.61307  20815687.97907  -1056342.04749  20815683.27549
   6129570.31307  21825832.01807   4776297.23949  21825828.06849
  -8817137.21107  22553943.40807  -6862416.11448  22553938.84248
   3769631.58205  23657762.86905   2937956.11747  23657759.89347
  15269902.75806  23302593.38506  11884855.60047  23302588.27547
 -14743808.68807  21048830.43207 -11485705.35149  21048823.85449
  15247374.02706  24327809.47906  11876154.63447  24327803.61147
 -13250115.63707  21851198.90007 -10324846.33149  21851194.33849
 08 11 15  1 58 30.0020000  0  8  3  6  7 13 16 19 23 25
  -1312085.11307  20825284.35407  -1017045.56149  20825279.85049
   6198443.16407  21838937.69707   4829964.38148  21838934.48248
  -8878311.05107  22542302.91607  -6910084.04748  22542297.74448
   3848072.14505  23672689.40005   2999078.57647  23672687.04947
  15344722.18806  23316830.79906  11943156.40447  23316826.08047
 -14754181.58607  21046856.69707 -11493788.11749  21046850.02149
  15350210.91806  24347379.00206  11956287.28847  24347372.51847
 -13271838.73007  21847065.01007 -10341773.41249  21847060.31849
 08 11 15  1 59  0.0020000  0  8  3  6  7 13 16 19 23 25
  -1261267.41007  20834954.59607   -977447.36049  20834950.51849
   6267578.61307  21852094.39307   4883836.12848  21852089.61948
  -8939089.80107  22530736.89307  -6957444.10748  22530732.09648
   3926899.62505  23687690.91605   3060502.52247  23687687.24847
  15419697.25807  23331098.34607  12001578.52747  23331093.96747
 -14764090.12907  21044970.95507 -11501509.06149  21044963.89649
  15453177.92606  24366972.29906  12036521.28047  24366966.63147
 -13293067.15607  21843025.51007 -10358315.05349  21843020.77149
 08 11 15  1 59 30.0020000  0  8  3  6  7 13 16 19 23 25
  -1210069.13307  20844697.36107   -937552.61449  20844692.98249
   6336969.91807  21865298.85407   4937907.25748  21865294.97948
  -8999475.72707  22519245.18907  -7004498.08848  22519240.13548
   4006105.87505  23702761.31405   3122221.70247  23702760.10047
  15494822.93006  23345394.32206  12060117.97547  23345390.03347
 -14773539.99607  21043172.72107 -11508872.59249  21043166.09249
  15556266.66006  24386589.36106  12116850.06447  24386584.04947
 -13313804.19107  21839079.11107 -10374473.78449  21839074.80349
 08 11 15  2  0  0.0020000  0  8  3  6  7 13 16 19 23 25
  -1158488.88707  20854512.68207   -897360.21049  20854508.54549
   6406618.09007  21878552.48607   4992178.53548  21878548.64648
  -9059463.45307  22507830.19707  -7051241.76948  22507824.92048
   4085690.99604  23717907.08804   3184236.05747  23717904.13147
  15570101.92206  23359719.58806  12118776.92147  23359714.61547
 -14782528.27707  21041462.45507 -11515876.44449  21041455.69749
  15659476.75406  24406229.42406  12197273.47647  24406224.09247
 -13334045.64107  21835227.58807 -10390246.34349  21835222.65049
 08 11 15  2  0 30.0020000  0  8  3  6  7 13 16 19 23 25
  -1106535.81607  20864398.99407   -856877.33049  20864394.99449
   6476514.55907  21891853.39307   5046643.30248  21891849.45948
  -9119057.17207  22496490.37707  -7097678.43348  22496484.70548
   4165644.67206  23733121.83006   3246537.58047  23733118.47947
  15645527.73807  23374072.47907  12177550.26847  23374067.66247
 -14791062.55507  21039838.40007 -11522526.54449  21039831.85749
  15762798.02005  24425890.72905  12277783.48646  24425885.43946
 -13353796.62507  21831468.97907 -10405636.73249  21831464.13149
 08 11 15  2  1  0.0020000  0  8  3  6  7 13 16 19 23 25
  -1054216.87907  20874355.08807   -816109.33349  20874351.02549
   6546652.14807  21905200.28307   5101295.95648  21905196.05348
  -9178259.66807  22485223.96307  -7143810.24248  22485219.34648
   4245958.89805  23748404.50205   3309120.09547  23748402.13947
  15721094.96507  23388452.60407  12236433.79847  23388447.04547
 -14799148.88307  21038299.65007 -11528827.57749  21038292.58049
  15866222.11305  24445571.68905  12358373.61546  24445566.38546
 -13373061.10207  21827803.22107 -10420648.01349  21827798.31149
 08 11 15  2  1 30.0020000  0  8  3  6  7 13 16 19 23 25
  -1001535.96107  20884379.77507   -775059.27349  20884376.09249
   6617027.27707  21918592.36107   5156133.69648  21918587.90848
  -9237070.40207  22474032.68907  -7189636.78448  22474028.35748
   4326628.64805  23763755.21305   3371979.57847  23763752.76047
  15796801.78907  23402859.43907  12295426.11147  23402853.06447
 -14806789.85207  21036845.69707 -11534781.57849  21036838.44749
  15969743.62504  24465270.03304  12439039.60546  24465266.02946
 -13391839.44907  21824229.64307 -10435280.49849  21824225.06449
 08 11 15  2  2  0.0020000  0  8  3  6  7 13 16 19 23 25
   -948496.23407  20894472.93207   -733729.61349  20894469.10049
   6687636.31607  21932028.61107   5211153.72448  21932024.89348
  -9295488.54707  22462916.18207  -7235157.40048  22462911.75648
   4407648.71505  23779174.29105   3435112.13447  23779169.74447
  15872646.36706  23417291.80706  12354525.74747  23417286.73247
 -14813987.18407  21035475.96307 -11540389.88549  21035469.35449
  16073357.36305  24484988.88505  12519777.53447  24484983.59647
 -13410131.89507  21820749.01007 -10449534.36349  21820743.89349
 08 11 15  2  2 30.0020000  0  8  3  6  7 13 16 19 23 25
   -895096.15607  20904634.63507   -692119.17649  20904630.65849
   6758480.85907  21945510.04907   5266357.22448  21945505.61548
  -9353507.91807  22451875.30707  -7280367.31548  22451870.60448
   4489019.91806  23794658.26006   3498518.23347  23794654.17447
  15948632.77006  23431751.80706  12413735.90347  23431747.15447
 -14820738.16007  21034191.31407 -11545650.39549  21034184.72149
  16177064.02705  24504723.81405  12600587.86247  24504718.77947
 -13427933.48007  21817361.22107 -10463405.74149  21817356.60749
 08 11 15  2  3  0.0020000  0  8  3  6  7 13 16 19 23 25
   -841338.93808  20914864.41608   -650230.44949  20914860.06449
   6829557.82007  21959035.63507   5321741.85848  21959030.91648
  -9411127.81307  22440910.91607  -7325265.93048  22440905.75648
   4570737.23406  23810209.32206   3562194.02947  23810205.35047
  16024758.84406  23446237.18206  12473054.89647  23446233.67047
 -14827045.10908  21032991.24408 -11550564.90249  21032984.68949
  16280858.32806  24524476.51806  12681466.48847  24524470.02547
 -13445244.48807  21814067.33007 -10476894.84449  21814062.38549
 08 11 15  2  3 30.0020000  0  8  3  6  7 13 16 19 23 25
   -787227.77308  20925161.26008   -608065.92349  20925157.02149
   6900864.03507  21972604.47907   5377305.11348  21972600.26848
  -9468346.97307  22430022.24407  -7369852.27648  22430017.92448
   4652796.32006  23825825.13506   3626136.13247  23825820.01047
  16101023.54706  23460750.75206  12532481.88947  23460746.25647
 -14832910.17608  21031875.20508 -11555135.08849  21031868.49849
  16384735.95305  24544243.07205  12762410.04847  24544236.88547
 -13462064.78507  21810866.43907 -10490001.57649  21810861.65049
 08 11 15  2  4  0.0020000  0  8  3  6  7 13 16 19 23 25
   -732766.37108  20935525.36908   -565628.45349  20935520.98649
   6972396.16807  21986216.86107   5433044.43248  21986212.49048
  -9525164.00007  22419210.76007  -7414125.26748  22419205.31148
   4735192.64806  23841503.73606   3690341.02947  23841498.99847
  16177425.51606  23475289.29906  12592015.86447  23475285.56847
 -14838334.91008  21030842.80708 -11559362.15449  21030836.03749
  16488692.23805  24564024.34605  12843414.91147  24564019.93247
 -13478394.25807  21807758.96307 -10502725.83949  21807754.22549
 08 11 15  2  4 30.0020000  0  8  3  6  7 13 16 19 23 25
   -677951.46107  20945956.21307   -522915.55849  20945951.78349
   7044157.24607  21999872.27507   5488962.14748  21999867.71748
  -9581572.31607  22408476.66607  -7458079.81248  22408471.18248
   4817927.78106  23857247.52506   3754809.89947  23857242.82647
  16253969.40206  23489855.70506  12651660.37847  23489850.89647
 -14843315.40208  21029895.06408 -11563243.06949  21029888.17049
  16592728.68405  24583821.11905  12924482.20947  24583817.13947
 -13494226.91407  21804745.73607 -10515062.98049  21804741.28749
 08 11 15  2  5  0.0020000  0  8  3  6  7 13 16 19 23 25
   -622793.25007  20956452.50207   -479935.13549  20956448.00649
   7116136.99207  22013569.64307   5545050.23248  22013564.95148
  -9637577.24207  22397819.18907  -7501720.01248  22397813.40048
   4900990.10206  23873054.43906   3819533.78247  23873048.54947
  16330647.02706  23504446.81406  12711409.14947  23504442.33447
 -14847861.00408  21029030.19708 -11566785.09149  21029023.45549
  16696833.53505  24603632.22105  13005602.76647  24603626.99847
 -13509569.83607  21801826.04907 -10527018.49649  21801821.75649
 08 11 15  2  5 30.0020000  0  8  3  6  7 13 16 19 23 25
   -567290.28907  20967014.29107   -436686.07749  20967010.08849
   7188337.34007  22027309.13507   5601310.23948  22027303.87348
  -9693172.72707  22387239.65807  -7545041.17048  22387234.01448
   4984379.85506  23888923.18906   3884512.77147  23888918.18247
  16407461.74606  23519063.92406  12771264.72747  23519059.61147
 -14851968.14807  21028248.62707 -11569985.45949  21028242.45149
  16801006.89505  24623455.70505  13086776.81347  24623451.15847
 -13524418.08207  21799000.68907 -10538588.56749  21798996.39349
 08 11 15  2  6  0.0020000  0  8  3  6  7 13 16 19 23 25
   -511442.21908  20977641.67408   -393168.10649  20977637.21349
   7260758.37507  22041090.17407   5657742.20348  22041086.02948
  -9748354.68407  22376739.13507  -7588040.09848  22376733.40448
   5068096.23806  23904853.10406   3949746.27347  23904849.21347
  16484415.64506  23533707.72906  12831228.78947  23533703.56147
 -14855635.91807  21027550.76807 -11572843.45449  21027544.38549
  16905247.77705  24643291.89305  13168003.42646  24643287.79946
 -13538768.36307  21796270.12707 -10549770.60649  21796265.77149
 08 11 15  2  6 30.0020000  0  8  3  6  7 13 16 19 23 25
   -455247.47708  20988335.37708   -349380.01349  20988330.60749
   7333401.72307  22054913.82207   5714347.38648  22054909.35748
  -9803117.05107  22366317.74407  -7630712.06948  22366312.47148
   5152139.03906  23920846.58806   4015234.11447  23920842.18647
  16561512.12906  23548378.79106  12891303.92147  23548374.54947
 -14858861.72707  21026936.59607 -11575357.08149  21026930.38549
  17009556.37505  24663142.37705  13249282.81646  24663136.85046
 -13552616.08607  21793634.90807 -10560561.03749  21793630.47949
 08 11 15  2  7  0.0020000  0  7  3  6  7 13 16 19 25
   -398718.91407  20999092.17407   -305331.79149  20999087.68249
   7406254.72307  22068777.35407   5771115.95348  22068772.85048
  -9857468.38707  22355974.97107  -7673063.75248  22355969.73648
   5236494.26206  23936898.01806   4080965.45347  23936894.62347
  16638740.21106  23563075.35406  12951481.60047  23563070.54147
 -14861657.12907  21026404.83007 -11577535.31549  21026398.16249
 -13565970.74607  21791093.68907 -10570967.27249  21791089.25249
 08 11 15  2  7 30.0020000  0  7  3  6  7 13 16 19 25
   -341848.93007  21009914.15807   -261017.53149  21009909.97149
   7479324.99207  22082682.01007   5828053.79048  22082678.27548
  -9911396.93007  22345712.93207  -7715085.99948  22345708.33848
   5321168.14106  23953011.59606   4146945.08147  23953007.69747
  16716109.35906  23577798.16606  13011769.22347  23577793.62347
 -14864013.35507  21025956.26807 -11579371.32849  21025949.54149
 -13578821.91007  21788648.38507 -10580981.15849  21788643.90849
 08 11 15  2  8  0.0020000  0  7  3  6  7 13 16 19 25
   -284647.09407  21020799.54107   -216444.66949  21020795.25649
   7552603.02307  22096626.42407   5885153.55148  22096622.10448
  -9964907.84407  22335529.90807  -7756782.79748  22335525.16248
   5406149.55506  23969183.01006   4213164.33647  23969178.57647
  16793612.16406  23592546.58006  13072160.97847  23592541.02147
 -14865938.93807  21025589.91607 -11580871.77949  21025583.52949
 -13591175.82807  21786297.58007 -10590607.60849  21786292.98249
 08 11 15  2  8 30.0020000  0  7  3  6  7 13 16 19 25
   -227112.93007  21031747.90807   -171612.85349  21031743.26449
   7626089.20707  22110610.56407   5942415.49948  22110606.78348
 -10017996.47307  22325427.51807  -7798150.57548  22325422.61548
   5491437.81306  23985412.35406   4279622.66947  23985408.43947
  16871250.22305  23607320.17405  13132658.14947  23607315.19347
 -14867432.52307  21025305.65007 -11582035.61849  21025299.36949
 -13603029.12907  21784041.71307 -10599843.95849  21784036.66649
 08 11 15  2  9  0.0020000  0  7  3  6  7 13 16 19 25
   -169252.47307  21042758.29907   -126526.78849  21042753.97949
   7699778.16807  22124632.60407   5999835.46148  22124628.47948
 -10070664.09407  22315404.98607  -7839190.27548  22315400.79148
   5577025.79706  24001698.07206   4346314.58947  24001695.26047
  16949020.11706  23622119.36906  13193258.05847  23622115.02947
 -14868498.65207  21025102.75207 -11582866.36549  21025096.44749
 -13614384.39107  21781880.78307 -10608692.20749  21781875.86549
 08 11 15  2  9 30.0030000  0  7  3  6  7 13 16 19 25
   -111067.72307  21053830.34307    -81188.03649  21053825.81549
   7773668.16007  22138694.04607   6057412.06848  22138689.08548
 -10122912.49607  22305462.54607  -7879903.30548  22305458.47948
   5662910.59006  24018041.64006   4413237.75947  24018038.48747
  17026922.23406  23636943.51506  13253960.96747  23636939.33947
 -14869140.28507  21024980.89707 -11583366.32649  21024974.37849
 -13625243.17608  21779814.79608 -10617153.60149  21779809.87449
 08 11 15  2 10  0.0030000  0  8  3  6  7 11 13 16 19 25
    -52571.50807  21064962.05407    -35606.56549  21064957.92549
   7847745.65207  22152790.29607   6115134.78948  22152786.38248
 -10174742.68407  22295599.52207  -7920290.45348  22295594.82348
   -145073.52015  24777817.83505   -104793.69256  24777814.03446
   5749076.58606  24034439.37406   4480380.06147  24034435.27647
  17104944.45706  23651790.58506  13314757.45547  23651785.73347
 -14869365.02307  21024938.21007 -11583541.44249  21024931.49549
 -13635610.35208  21777842.01508 -10625231.93349  21777836.98749
 08 11 15  2 10 30.0030000  0  8  3  6  7 11 13 16 19 25
      6236.15207  21076152.70207     10217.56349  21076148.65549
   7922010.78907  22166922.24907   6173003.71048  22166918.32748
 -10226154.68807  22285816.29607  -7960351.78648  22285810.58548
   -246554.00405  24758506.32705   -183869.37646  24758502.05046
   5835522.54306  24050890.34306   4547740.49347  24050885.23347
  17183088.58206  23666660.99906  13375648.98647  23666656.09747
 -14869174.54307  21024974.11607 -11583393.01549  21024967.60149
 -13645485.92207  21775962.10107 -10632927.19349  21775957.33549
 08 11 15  2 11  0.0030000  0  8  3  6  7 11 13 16 19 25
     65356.21907  21087402.64007     56285.15149  21087398.48349
   7996464.82007  22181090.55407   6231019.81948  22181086.58148
 -10277143.03507  22276113.41307  -8000082.96248  22276108.68748
   -347996.18005  24739202.70205   -262915.15046  24739197.85446
   5922248.50406  24067394.10106   4615319.08947  24067388.43747
  17261357.81306  23681554.92106  13436637.97047  23681549.84747
 -14868566.43007  21025089.78007 -11582919.15649  21025083.22249
 -13654865.55108  21774177.42108 -10640235.99249  21774172.40149
 08 11 15  2 11 30.0030000  0  8  3  6  7 11 13 16 19 25
    124776.10207  21098709.81207    102586.33749  21098705.89449
   8071095.49607  22195292.56907   6289173.57348  22195287.95648
 -10327715.87107  22266489.45207  -8039490.37348  22266485.13648
   -449408.07005  24719904.71805   -341937.24546  24719900.22646
   6009240.53106  24083947.43706   4683105.05747  24083942.92147
  17339741.52706  23696471.95206  13497716.14847  23696466.99147
 -14867552.32808  21025282.81908 -11582128.95349  21025276.77649
 -13663758.71907  21772485.18707 -10647165.74149  21772480.88249
 08 11 15  2 12  0.0030000  0  8  3  6  7 11 13 16 19 25
    184499.69507  21110075.08507    149124.19049  21110070.92949
   8145906.71907  22209528.42907   6347468.01748  22209524.11648
 -10377865.08207  22256946.82707  -8078567.68848  22256942.39748
   -550781.87105  24700612.03005   -420929.73846  24700609.17146
   6096501.06306  24100552.83506   4751100.19047  24100548.37047
  17418245.29706  23711410.37406  13558887.90047  23711405.57747
 -14866127.22707  21025554.23307 -11581018.49049  21025547.96049
 -13672158.77307  21770886.67107 -10653711.24849  21770881.85149
 08 11 15  2 12 30.0030000  0  8  3  6  7 11 13 16 19 25
    244533.25007  21121499.14007    195903.57449  21121495.27249
   8220904.62107  22223799.96007   6405907.92848  22223795.59748
 -10427580.35907  22247486.68707  -8117306.85148  22247481.26148
   -652106.83206  24681332.60106   -499884.17546  24681327.70646
   6184034.71105  24117209.17105   4819308.23546  24117205.87046
  17496877.32806  23726373.08506  13620159.58947  23726369.52647
 -14864284.16407  21025904.69407 -11579582.33249  21025898.51149
 -13680056.54307  21769383.95207 -10659865.36049  21769378.85849
 08 11 15  2 13  0.0030000  0  8  3  6  7 11 13 16 19 25
    304854.87507  21132977.72607    242907.43949  21132973.61249
   8296067.85907  22238103.01507   6464476.67048  22238098.26148
 -10476879.39107  22238104.87407  -8155721.69348  22238100.07748
   -753400.72705  24662055.76505   -578814.35847  24662052.42547
   6271818.25006  24133914.86606   4887710.93847  24133910.12047
  17575617.53106  23741356.76506  13681515.57647  23741352.63247
 -14862043.67207  21026331.28807 -11577836.49349  21026324.60449
 -13687470.97307  21767972.78007 -10665642.83349  21767968.33549
 08 11 15  2 13 30.0030000  0  8  3  6  7 11 13 16 19 25
    365469.42207  21144512.56907    290139.53849  21144508.05449
   8371401.06307  22252438.54607   6523177.85348  22252433.81548
 -10525753.00007  22228804.58507  -8193805.01548  22228799.85148
   -854654.29705  24642787.81905   -657713.10446  24642783.58546
   6359855.35505  24150667.81205   4956311.22647  24150663.48747
  17654472.94506  23756364.01506  13742961.29147  23756358.38647
 -14859400.20307  21026834.01507 -11575776.65049  21026827.37849
 -13694394.19508  21766655.76508 -10671037.57049  21766650.99549
 08 11 15  2 14  0.0030000  0  8  3  6  7 11 13 16 19 25
    426372.19907  21156102.07707    337596.23349  21156097.71849
   8446899.82407  22266805.57707   6582008.03048  22266801.76548
 -10574201.85207  22219585.08507  -8231557.35648  22219580.16748
   -955867.81305  24623527.91305   -736580.77146  24623521.92946
   6448139.62906  24167467.64006   5025104.10447  24167463.19047
  17733440.54306  23771390.24106  13804494.44847  23771385.20647
 -14856357.04307  21027413.65507 -11573405.36749  21027406.57349
 -13700828.15608  21765431.24908 -10676051.05249  21765426.42149
 08 11 15  2 14 30.0030000  0  8  3  6  7 11 13 16 19 25
    487562.97708  21167746.43708    385277.33649  21167742.21449
   8522564.02307  22281204.06207   6640967.10348  22281199.95648
 -10622222.39107  22210447.47607  -8268975.97148  22210442.20248
  -1057037.29705  24604275.24105   -815414.00646  24604270.08146
   6536669.53106  24184314.53006   5094088.38446  24184309.86246
  17812521.43406  23786438.06906  13866115.92747  23786433.41747
 -14852913.83208  21028068.67108 -11570722.34349  21028061.60849
 -13706770.26608  21764300.56908 -10680681.26649  21764296.09349
 08 11 15  2 15  0.0030000  0  8  3  6  7 11 13 16 19 25
    549038.46507  21179444.67107    433180.30049  21179440.44849
   8598390.59007  22295633.48307   6700052.72648  22295629.39048
 -10669813.05107  22201391.12407  -8306059.60849  22201386.18749
  -1158161.83205  24585031.71805   -894212.16946  24585027.27646
   6625440.24206  24201207.12406   5163260.33747  24201202.52247
  17891714.75006  23801508.09306  13927824.94247  23801503.16747
 -14849072.83208  21028799.44408 -11567729.36249  21028792.81949
 -13712220.77308  21763263.37408 -10684928.42449  21763258.56949
 08 11 15  2 15 30.0030000  0  8  3  6  7 11 13 16 19 25
    610787.15208  21191194.70208    481296.15149  21191190.92949
   8674368.12107  22310091.22607   6759255.98948  22310087.78848
 -10716981.55907  22192415.16307  -8342814.27749  22192410.17149
  -1259248.61305  24565796.46805   -972980.95246  24565791.11646
   6714438.80106  24218143.19406   5232609.83647  24218138.72647
  17971010.62506  23816598.60106  13989613.90247  23816592.82747
 -14844844.79708  21029604.10808 -11564434.79849  21029597.78449
 -13717188.66808  21762318.35808 -10688799.52749  21762313.00749
 08 11 15  2 16  0.0030000  0  8  3  6  7 11 13 16 19 25
    672813.28907  21202998.14007    529628.19849  21202994.25749
   8750501.03107  22324578.87407   6818580.31748  22324575.12848
 -10763719.04307  22183521.50707  -8379233.10049  22183516.83549
  -1360289.02305  24546569.03005  -1051713.64346  24546563.81246
   6803668.14506  24235121.67906   5302139.19947  24235118.46447
  18050415.22306  23831708.74906  14051487.58347  23831704.47247
 -14840224.43408  21030483.43708 -11560834.51549  21030476.69849
 -13721666.73008  21761466.11608 -10692288.94549  21761461.03049
 08 11 15  2 16 30.0030000  0  8  3  6  7 11 13 16 19 25
    735112.01608  21214853.03808    578172.64849  21214849.32349
   8826784.91407  22339095.10107   6878022.29948  22339091.15148
 -10810026.52307  22174709.35107  -8415316.84449  22174704.36249
  -1461283.31305  24527350.14005  -1130410.39046  24527346.00746
   6893122.05106  24252145.33506   5371843.50147  24252141.23747
  18129925.78906  23846837.88206  14113443.85447  23846834.37047
 -14835215.29708  21031436.55408 -11556931.29149  21031430.24949
 -13725656.83207  21760706.31207 -10695398.11149  21760702.42949
 08 11 15  2 17  0.0030000  0  8  3  6  7 11 13 16 19 25
    797673.83207  21226758.35107    626922.09249  21226754.73749
   8903209.99207  22353638.67907   6937574.27248  22353634.83948
 -10855909.74607  22165978.43707  -8451070.01649  22165973.51549
  -1562237.32405  24508139.00705  -1209075.79746  24508134.81946
   6982789.03506  24269207.81206   5441713.79047  24269204.51947
  18209534.18806  23861987.62406  14175476.31447  23861983.13647
 -14829826.79308  21032462.05408 -11552732.45749  21032455.65149
 -13729166.13307  21760038.74107 -10698132.64049  21760034.37049
 08 11 15  2 17 30.0030000  0  8  3  6  7 11 13 16 19 25
    860493.22708  21238712.54608    675872.25249  21238708.33949
   8979771.29707  22368208.16307   6997232.42948  22368204.01948
 -10901369.71107  22157327.18707  -8486493.37048  22157322.32748
  -1663151.61705  24488935.30405  -1287710.22246  24488931.36246
   7072662.66806  24286310.88206   5511745.18047  24286306.72947
  18289236.81606  23877154.74106  14237582.24347  23877149.60447
 -14824063.07408  21033558.77208 -11548241.24949  21033552.26149
 -13732197.14507  21759461.76507 -10700494.47549  21759457.64449
 08 11 15  2 18  0.0030000  0  8  3  6  7 11 13 16 19 25
    923571.35508  21250715.91308    725024.03249  21250712.22249
   9056469.85507  22382802.97607   7056997.51548  22382799.56248
 -10946401.37507  22148757.93707  -8521582.98148  22148753.08948
  -1764020.99205  24469740.73305  -1366309.65746  24469735.83546
   7162742.53106  24303452.66306   5581937.25447  24303448.07347
  18369037.08606  23892339.54606  14299764.26547  23892335.14447
 -14817922.07008  21034727.21808 -11543456.05649  21034720.67549
 -13734745.99207  21758976.82707 -10702480.59649  21758972.32749
 08 11 15  2 18 30.0030000  0  8  3  6  7 11 13 16 19 25
    986905.14107  21262767.88207    774375.03449  21262763.93349
   9133303.04307  22397423.89707   7116867.52448  22397421.08148
 -10991003.69907  22140270.16307  -8556338.02848  22140265.73348
  -1864844.16406  24450555.18706  -1444873.12546  24450549.67146
   7253024.09806  24320632.28006   5652286.49446  24320628.51546
  18448933.34806  23907544.11606  14362021.05647  23907539.18347
 -14811405.93408  21035967.31208 -11538378.54949  21035960.64049
 -13736813.00007  21758583.52207 -10704091.26749  21758579.24149
 08 11 15  2 19  0.0030000  0  8  3  6  7 11 13 16 19 25
   1050484.41007  21274866.40507    823917.29849  21274862.55449
   9210260.41407  22412068.14707   7176834.29748  22412064.78048
 -11035182.89507  22131862.97607  -8590763.37048  22131858.24948
  -1965627.41405  24431376.64705  -1523405.42247  24431371.42547
   7343495.21105  24337846.83505   5722783.42146  24337844.00746
  18528917.23806  23922764.44406  14424346.15447  23922760.15147
 -14804524.69108  21037276.81908 -11533016.53649  21037269.68749
 -13738406.14807  21758280.02207 -10705332.67049  21758276.14749
 08 11 15  2 19 30.0030000  0  8  3  6  7 11 13 16 19 25
   1114312.77307  21287012.89007    873653.68549  21287008.35849
   9287346.39507  22426737.51507   7236901.28548  22426734.22648
 -11078931.05907  22123538.17907  -8624852.85648  22123533.31248
  -2066362.15604  24412206.22604  -1601900.00546  24412201.58146
   7434158.68406  24355101.01506   5793430.23947  24355097.32747
  18608994.54706  23938002.05406  14486744.00247  23937998.17147
 -14797273.21908  21038656.89708 -11527366.05949  21038650.30849
 -13739518.60507  21758068.36607 -10706199.53949  21758064.47249
 08 11 15  2 20  0.0030000  0  8  3  6  7 11 13 16 19 25
   1178379.39807  21299204.39007    923575.70849  21299200.31949
   9364550.21107  22441428.98307   7297060.09048  22441425.12848
 -11122254.95307  22115294.00707  -8658611.72148  22115289.40148
  -2167054.96505  24393044.96805  -1680361.78746  24393040.82346
   7525001.96106  24372387.17906   5864217.21047  24372383.89447
  18689156.19506  23953256.55406  14549207.57847  23953252.03447
 -14789661.59808  21040105.10808 -11521434.91349  21040098.33949
 -13740158.65607  21757946.89007 -10706698.26449  21757942.76949
 08 11 15  2 20 30.0030000  0  8  3  6  7 11 13 16 19 25
   1242690.93408  21311442.34308    973688.58249  21311438.40549
   9441878.25007  22456143.98307   7357315.68748  22456139.96848
 -11165144.14507  22107132.19407  -8692031.88248  22107127.22648
  -2267695.34405  24373894.12405  -1758782.79246  24373890.12446
   7616030.17205  24389709.50705   5935148.20647  24389706.25747
  18769410.21506  23968528.98306  14611743.20147  23968524.34747
 -14781682.64808  21041623.53808 -11515217.56349  21041616.97649
 -13740317.25407  21757917.11607 -10706821.86349  21757912.67149
 08 11 15  2 21  0.0030000  0  8  3  6  7 11 13 16 19 25
   1307231.05507  21323724.04607   1023979.58449  21323719.52649
   9519314.71907  22470879.46007   7417655.78648  22470875.97648
 -11207611.03107  22099051.24907  -8725122.94948  22099046.33548
  -2368295.22305  24354750.52205  -1837172.34446  24354745.87446
   7707225.23405  24407062.35105   6006209.29947  24407060.42947
  18849742.55506  23983815.10806  14674339.80847  23983811.43347
 -14773351.60908  21043208.94408 -11508725.84349  21043202.32349
 -13740008.19907  21757975.60107 -10706581.02949  21757971.12449
 08 11 15  2 21 30.0030000  0  8  3  6  7 11 13 16 19 25
   1372004.37507  21336049.98307   1074452.28849  21336046.14749
   9596864.20307  22485637.11607   7478083.93448  22485633.63648
 -11249647.24207  22091052.21807  -8757878.43548  22091047.25348
  -2468845.68805  24335616.66305  -1915523.32047  24335612.10147
   7798590.29705  24424449.99105   6077402.76947  24424446.72947
  18930159.46906  23999118.03806  14737002.30047  23999114.35447
 -14764663.57408  21044862.21808 -11501955.94549  21044855.62849
 -13739224.45307  21758124.85807 -10705970.32449  21758120.02249
 08 11 15  2 22  0.0030000  0  8  3  6  7 11 13 16 19 25
   1437006.84807  21348419.56907   1125103.56249  21348415.49549
   9674523.37507  22500414.81907   7538597.57648  22500411.02648
 -11291251.96507  22083135.06207  -8790297.70148  22083129.95648
  -2569345.83205  24316492.31905  -1993835.07047  24316488.15547
   7890120.41402  24441866.35802   6148724.86846  24441864.47946
  19010658.95706  24014437.24106  14799729.14147  24014432.69047
 -14755621.12508  21046583.10108 -11494909.88149  21046576.19449
 -13737966.82807  21758364.41307 -10704990.36649  21758359.56549
 08 11 15  2 22 30.0030000  0  8  3  6  7 11 13 16 19 25
   1502239.10207  21360832.82707   1175933.87049  21360829.09749
   9752292.90207  22515213.35107   7599197.19748  22515209.66748
 -11332420.93407  22075300.92107  -8822377.42548  22075296.00748
  -2669791.19904  24297376.72604  -2072104.14747  24297374.49147
   7981814.39104  24459315.31904   6220174.67346  24459313.11246
  19091243.28506  24029771.64706  14862522.12047  24029767.23747
 -14746223.07008  21048371.25708 -11487586.73349  21048364.44049
 -13736232.62507  21758693.89007 -10703639.04349  21758689.37049
 08 11 15  2 23  0.0030000  0  8  3  6  7 11 13 16 19 25
   1567707.26207  21373290.78007   1226948.02548  21373286.64748
   9830178.97707  22530035.15507   7659887.63048  22530030.49148
 -11373144.43407  22067551.37407  -8854110.01048  22067546.73348
  -2770171.56604  24278275.65504  -2150322.56646  24278272.28446
   8073676.86303  24476796.45203   6291755.72346  24476793.67146
  19171920.19506  24045123.90506  14925387.17447  24045119.39447
 -14736462.80508  21050228.66308 -11479981.33149  21050221.86649
 -13734013.25807  21759116.25707 -10701909.67949  21759111.13649
 08 11 15  2 23 30.0030000  0  8  3  6  7 11 13 16 19 25
   1633406.03507  21385792.96807   1278141.86748  21385789.28448
   9908176.35207  22544877.12407   7720664.80148  22544873.07748
 -11413423.90607  22059886.60807  -8885496.59948  22059882.18748
  -2870487.77705  24259186.78005  -2228490.99146  24259181.81946
   8165700.98804  24494308.01504   6363462.76246  24494305.15546
  19252685.87906  24060493.45206  14988321.44147  24060488.78047
 -14726345.12908  21052153.92108 -11472097.42949  21052147.05849
 -13731311.66007  21759630.16307 -10699804.53949  21759625.57749
 08 11 15  2 24  0.0030000  0  8  3  6  7 11 13 16 19 25
   1699338.21907  21398339.74107   1329517.58249  21398335.47249
   9986288.19907  22559741.49107   7781531.12748  22559737.79648
 -11453252.46907  22052307.46807  -8916531.85048  22052302.32348
  -2970732.46105  24240110.32705  -2306603.73447  24240105.87447
   8257887.85504  24511850.56204   6435296.66246  24511847.71446
  19333545.49206  24075880.31906  15051328.89547  24075875.99947
 -14715866.17208  21054148.10108 -11463932.01249  21054141.43749
 -13728122.52307  21760237.29607 -10697319.50649  21760232.65949
 08 11 15  2 24 30.0030000  0  9  3  6  7  8 11 13 16 19 25
   1765499.04707  21410929.81207   1381071.45449  21410925.99149
  10064510.29707  22574626.61607   7842483.40948  22574623.03048
 -11492630.50407  22044813.89707  -8947216.04148  22044808.90148
   -118031.55916  25022186.53006    -85354.96957  25022181.53847
  -3070906.02305  24221047.92905  -2384661.01946  24221042.90146
   8350231.64805  24529423.54605   6507252.78446  24529419.61646
  19414496.21906  24091284.60106  15114407.35847  24091280.69047
 -14705029.98408  21056210.31208 -11455488.23349  21056203.64049
 -13724447.84007  21760936.44407 -10694456.11949  21760931.58949
 08 11 15  2 25  0.0030000  0  9  3  6  7  8 11 13 16 19 25
   1831887.21907  21423562.72607   1432802.46849  21423558.53049
  10142841.45307  22589532.78807   7903520.65948  22589529.24148
 -11531555.63307  22037406.90507  -8977547.29948  22037402.05448
   -215224.54706  25003690.79606   -161089.73847  25003686.89747
  -3171005.53104  24201999.59304  -2462660.68346  24201994.06246
   8442729.39106  24547026.01506   6579328.88546  24547021.69046
  19495538.42206  24106706.06206  15177557.13747  24106702.62847
 -14693836.80908  21058340.01508 -11446766.28149  21058333.78049
 -13720286.58607  21761728.56207 -10691213.59149  21761723.69449
 08 11 15  2 25 30.0030000  0  9  3  6  7  8 11 13 16 19 25
   1898499.43407  21436238.70207   1484708.09049  21436234.61249
  10221278.76607  22604458.92107   7964640.61648  22604454.69048
 -11570027.23407  22030086.02207  -9007525.17148  22030081.12448
   -312307.00405  24985216.56905   -236738.35847  24985212.77247
  -3271029.89106  24182966.35806  -2540601.70446  24182959.58546
   8535376.32406  24564656.26506   6651521.30447  24564652.17947
  19576670.64505  24122145.49905  15240776.99347  24122141.30047
 -14682289.28108  21060537.71808 -11437768.21149  21060531.16749
 -13715639.66007  21762612.59307 -10687592.62149  21762608.10149
 08 11 15  2 26  0.0030000  0  9  3  6  7  8 11 13 16 19 25
   1965325.96507  21448955.46007   1536780.68648  21448951.45248
  10299812.32807  22619403.68707   8025835.58548  22619399.75348
 -11608051.71507  22022850.39007  -9037154.63848  22022845.19448
   -409283.99205  24966761.48305   -312304.82047  24966758.10447
  -3370984.82806  24163945.68706  -2618488.59946  24163939.53046
   8628160.76206  24582313.01506   6723820.79147  24582308.53447
  19657884.65605  24137599.41305  15304060.59146  24137595.88646
 -14670396.93808  21062800.42908 -11428501.45249  21062793.67549
 -13710514.73807  21763587.95207 -10683599.18249  21763583.44449
 08 11 15  2 26 30.0030000  0  9  3  6  7  8 11 13 16 19 25
   2032391.33207  21461717.46007   1589039.40749  21461713.32749
  10378466.78507  22634370.81207   8087124.73048  22634367.14748
 -11645600.82407  22015704.71007  -9066413.67748  22015698.98348
   -506127.16404  24948332.94404   -387767.03647  24948329.98347
  -3470841.83605  24144942.41305  -2696299.23347  24144937.22247
   8721105.53906  24599999.52206   6796245.30647  24599995.55447
  19739206.43005  24153074.89705  15367428.18746  24153070.84746
 -14658134.99608  21065133.84308 -11418946.69849  21065127.40949
 -13704885.17207  21764658.92107 -10679212.52049  21764654.90949
 08 11 15  2 27  0.0030000  0  9  3  6  7  8 11 13 16 19 25
   2099684.01207  21474522.79607   1641475.24048  21474518.66348
  10457231.06307  22649359.40507   8148499.47348  22649355.42948
 -11682681.95707  22008648.65507  -9095308.09348  22008643.42548
   -602842.70304  24929928.35104   -463129.75647  24929926.07347
  -3570608.00405  24125957.85105  -2774039.04347  24125952.52647
   8814198.09806  24617713.92906   6868784.95046  24617710.22646
  19820626.44505  24168568.49905  15430872.28046  24168564.19846
 -14645513.95708  21067535.40508 -11409112.12149  21067528.75749
 -13698759.94907  21765824.85107 -10674439.62749  21765820.56249
 08 11 15  2 27 30.0030000  0  9  3  6  7  8 11 13 16 19 25
   2167204.71107  21487371.62407   1694088.74748  21487367.12848
  10536106.00007  22664368.45207   8209960.42848  22664365.36248
 -11719290.87507  22001681.92107  -9123834.51549  22001677.24549
   -699425.33205  24911549.57705   -538388.93347  24911546.22247
  -3670278.08206  24106991.96806  -2851704.01347  24106986.10447
   8907437.30906  24635457.46806   6941438.85946  24635452.51946
  19902147.35505  24184081.75705  15494395.03346  24184077.48746
 -14632532.49208  21070005.84308 -11398996.69149  21069999.36649
 -13692136.12107  21767085.42107 -10669278.20949  21767081.16349
 08 11 15  2 28  0.0030000  0  9  3  6  7  8 11 13 16 19 25
   2234965.21907  21500266.03807   1746889.12148  21500261.30048
  10615104.07007  22679401.75707   8271517.32948  22679398.10148
 -11755411.39807  21994808.57707  -9151980.37849  21994803.38649
   -795858.54704  24893198.90504   -613531.66747  24893195.56547
  -3769835.60505  24088046.41305  -2929281.25847  24088041.42947
   9000833.95306  24653229.98306   7014215.36346  24653225.09346
  19983782.72304  24199615.50704  15558007.00046  24199612.25746
 -14619177.64108  21072547.20208 -11388590.31249  21072540.46049
 -13684999.36307  21768443.49907 -10663717.11549  21768439.26549
 08 11 15  2 28 30.0030000  0  9  3  6  7  8 11 13 16 19 25
   2302962.71907  21513205.25707   1799874.18448  21513201.57348
  10694222.66007  22694456.87407   8333168.17448  22694453.88648
 -11791042.66807  21988028.03807  -9179744.99649  21988023.33549
   -892140.57404  24874877.00704   -688556.61647  24874873.27247
  -3869279.53506  24069122.92106  -3006770.04346  24069117.12846
   9094383.39506  24671032.66306   7087110.97647  24671027.81247
  20065531.26206  24215172.88206  15621707.12446  24215168.17546
 -14605452.08208  21075159.12408 -11377895.06249  21075152.37049
 -13677350.26607  21769899.06907 -10657756.78349  21769894.45649
 08 11 15  2 29  0.0030000  0  9  3  6  7  8 11 13 16 19 25
   2371185.87507  21526188.10107   1853035.05748  21526184.08148
  10773450.46907  22709533.82707   8394904.09448  22709530.01548
 -11826192.74207  21981339.24907  -9207134.67649  21981334.60149
   -988278.18405  24856582.63205   -763469.02347  24856579.06547
  -3968616.80906  24050219.06906  -3084175.69247  24050214.19047
   9188072.68006  24688860.71806   7160115.57647  24688856.31547
  20147383.53106  24230748.74106  15685488.08446  24230744.15946
 -14591366.47708  21077839.60108 -11366919.27249  21077832.94049
 -13669198.18007  21771450.31207 -10651404.50449  21771445.74149
 08 11 15  2 29 30.0030000  0  9  3  6  7  8 11 13 16 19 25
   2439632.19907  21539212.52207   1906369.86348  21539208.92548
  10852785.20707  22724630.77207   8456723.36348  22724627.39748
 -11860860.36707  21974742.00707  -9234148.39549  21974737.81249
  -1084269.28906  24838315.97606   -838267.26647  24838312.41347
  -4067845.87105  24031336.77205  -3161496.96547  24031331.91747
   9281897.73006  24706714.91306   7233226.04247  24706710.90147
  20229338.60906  24246343.95206  15749349.13446  24246339.52646
 -14576923.03908  21080587.90508 -11355664.64749  21080581.39449
 -13660543.60507  21773097.47607 -10644660.69349  21773092.64449
 08 11 15  2 30  0.0030000  0  9  3  6  7  8 11 13 16 19 25
   2508296.48807  21552279.31207   1959874.47648  21552275.55048
  10932222.08607  22739746.89707   8518622.20048  22739743.16748
 -11895046.95707  21968236.77207  -9260787.29749  21968232.09349
  -1180114.58206  24820077.07706   -912951.88047  24820073.87047
  -4166967.07006  24012474.53806  -3238734.22047  24012469.85447
   9375851.61305  24724593.35805   7306436.82646  24724590.25346
  20311393.33605  24261958.07705  15813287.87846  24261954.42546
 -14562125.91408  21083403.79608 -11344134.41549  21083397.14749
 -13651389.28907  21774839.34307 -10637527.46749  21774835.14449
 08 11 15  2 30 30.0030000  0  9  3  6  7  8 11 13 16 19 25
   2577173.27307  21565385.88207   2013544.68348  21565381.92948
  11011755.53507  22754881.56907   8580596.31448  22754877.58948
 -11928754.35507  21961822.17907  -9287052.79349  21961817.49949
  -1275815.18006  24801865.85106   -987523.73747  24801862.64047
  -4265982.80906  23993632.83506  -3315889.36847  23993627.28447
   9469927.32803  24742494.11603   7379742.41046  24742492.12446
  20393543.59006  24277591.67906  15877301.01147  24277587.14447
 -14546980.71508  21086285.99108 -11332332.96549  21086279.01149
 -13641738.92207  21776675.57707 -10630007.70149  21776671.22249
 08 11 15  2 31  0.0030000  0  9  3  6  7  8 11 13 16 19 25
   2646258.32807  21578532.77207   2067377.17948  21578528.77648
  11091381.99607  22770034.38207   8642642.87048  22770030.20648
 -11961983.12507  21955499.11607  -9312945.33949  21955494.42549
  -1371370.13306  24783683.03806  -1061982.13147  24783678.75747
  -4364892.29705  23974810.13205  -3392961.67547  23974805.98747
   9564119.39104  24760419.12404   7453138.83846  24760416.87046
  20475786.87106  24293242.19406  15941386.66547  24293237.50347
 -14531490.48008  21089233.46008 -11320262.65749  21089226.89049
 -13631594.51207  21778605.93707 -10622102.97949  21778601.47649
 08 11 15  2 31 30.0030000  0  9  3  6  7  8 11 13 16 19 25
   2715545.19507  21591717.53007   2121366.93148  21591713.22948
  11171095.29707  22785202.86607   8704757.12248  22785198.82748
 -11994735.97707  21949266.53007  -9338467.03849  21949261.96849
  -1466781.55106  24765527.24906  -1136328.73747  24765521.92547
  -4463697.59005  23956008.58505  -3469952.78447  23956004.81247
   9658419.96904  24778364.53004   7526619.58446  24778361.39746
  20558118.73806  24308909.51506  16005541.31247  24308904.80447
 -14515661.30908  21092245.47608 -11307928.23749  21092239.36649
 -13620960.11707  21780629.78807 -10613816.45049  21780624.92949
 08 11 15  2 32  0.0030000  0  9  3  6  7  8 11 13 16 19 25
   2785035.04307  21604940.92907   2175514.84448  21604937.21448
  11250897.32407  22800388.89007   8766940.50848  22800384.65548
 -12027007.95307  21943125.46807  -9363614.03948  21943119.79248
  -1562043.41006  24747398.43706  -1210558.74346  24747394.31246
  -4562392.61305  23937227.61605  -3546857.97347  23937223.80047
   9752828.49203  24796328.24903   7600184.62646  24796326.73746
  20640542.09005  24324594.22605  16069767.27347  24324589.25347
 -14499491.02008  21095322.92908 -11295328.01749  21095316.15949
 -13609832.36307  21782747.17107 -10605145.47449  21782742.11649
 08 11 15  2 32 30.0030000  0  9  3  6  7  8 11 13 16 19 25
   2854726.96907  21618203.03007   2229820.23148  21618198.69448
  11330786.93007  22815591.60107   8829192.11148  22815587.37848
 -12058796.53907  21937076.00707  -9388384.35149  21937070.72249
  -1657151.96906  24729299.96806  -1284669.27147  24729296.41747
  -4660974.99606  23918468.07706  -3623675.38247  23918464.31947
   9847342.30504  24814315.13204   7673831.72046  24814312.08146
  20723057.50806  24340296.76506  16134064.94947  24340291.75347
 -14482980.61308  21098464.46008 -11282462.76249  21098457.79649
 -13598210.50407  21784958.85107 -10596089.48849  21784954.33949
 08 11 15  2 33  0.0030000  0  9  3  6  7  8 11 13 16 19 25
   2924609.68807  21631501.08507   2284274.29448  21631497.21848
  11410752.82807  22830808.84307   8891503.20348  22830803.76948
 -12090109.59007  21931117.39007  -9412784.13549  21931112.89049
  -1752114.17606  24711228.94406  -1358665.74846  24711225.88246
  -4759451.85506  23899729.33506  -3700410.57547  23899724.85847
   9941948.45706  24832320.19406   7747550.70346  24832314.88246
  20805655.09406  24356014.13206  16198426.64747  24356009.90147
 -14466140.98808  21101669.07708 -11269340.97949  21101662.29649
 -13586103.94107  21787262.48307 -10586655.81749  21787258.30049
 08 11 15  2 33 30.0030000  0  9  3  6  7  8 11 13 16 19 25
   2994682.19107  21644835.56207   2338876.23248  21644831.49948
  11490794.96507  22846040.44407   8953873.69048  22846036.30048
 -12120944.34807  21925250.16307  -9436811.22249  21925245.00749
  -1846926.12505  24693187.38205  -1432545.17147  24693183.59347
  -4857819.44506  23881009.98306  -3777060.62647  23881005.43747
  10036644.66805  24850339.04605   7821339.90346  24850335.39446
  20888336.09405  24371747.40505  16262853.39347  24371743.84747
 -14448972.17608  21104936.54608 -11255962.69649  21104929.15949
 -13573511.37508  21789658.82708 -10576843.44449  21789654.49549
 08 11 15  2 34  0.0030000  0  9  3  6  7  8 11 13 16 19 25
   3064948.53507  21658206.97607   2393629.20748  21658202.23748
  11570917.02707  22861286.93707   9016306.44848  22861282.96048
 -12151293.73407  21919474.72607  -9460460.09649  21919469.30449
  -1941579.16806  24675176.08506  -1506300.78447  24675171.19847
  -4956069.78906  23862312.60806  -3853619.34747  23862308.93747
  10131433.24605  24868375.36605   7895201.13046  24868373.51546
  20971105.88306  24387498.17906  16327349.30447  24387494.06247
 -14431469.85908  21108267.21808 -11242324.53649  21108259.87849
 -13560427.14107  21792149.03807 -10566647.95749  21792144.28449
 08 11 15  2 34 30.0030000  0  9  3  6  7  8 11 13 16 19 25
   3135412.64807  21671615.78007   2448536.29148  21671611.68748
  11651123.32007  22876549.88207   9078804.83148  22876545.74948
 -12181150.50007  21913792.92907  -9483725.12149  21913787.72949
  -2036065.12506  24657195.81206  -1579926.23147  24657191.24947
  -5054194.85505  23843639.52205  -3930080.40547  23843635.99147
  10226316.43005  24886430.71005   7969135.98046  24886429.43346
  21053969.88706  24403266.32706  16391918.61347  24403263.06547
 -14413630.05908  21111661.98308 -11228423.39549  21111655.04649
 -13546845.56608  21794733.38208 -10556064.90849  21794729.36249
 08 11 15  2 35  0.0030000  0  9  3  6  7  8 11 13 16 19 25
   3206079.19907  21685062.89007   2503601.12948  21685058.65948
  11731419.07406  22891829.78006   9141372.94648  22891825.85448
 -12210505.39807  21908207.07707  -9506599.06149  21908202.10449
  -2130374.28505  24639248.32705  -1653413.85046  24639245.46446
  -5152185.51205  23824993.22605  -4006436.75147  23824989.23747
  10321297.44106  24904505.67906   8043147.17547  24904503.01147
  21136935.18806  24419054.87406  16456566.83046  24419050.37446
 -14395447.06608  21115121.96008 -11214254.83749  21115114.93749
 -13532759.75007  21797413.71007 -10545088.96349  21797409.05049
 08 11 15  2 35 30.0030000  0  9  3  6  7  8 11 13 16 19 25
   3276946.59807  21698548.31907   2558822.47248  21698544.92948
  11811803.25006  22907126.60106   9204009.94148  22907122.47648
 -12239356.99207  21902716.57707  -9529080.81849  21902711.56249
  -2224503.59805  24621336.16305  -1726761.30347  24621333.67547
  -5250038.78506  23806372.78806  -4082686.04247  23806368.37047
  10416373.44106  24922598.93706   8117232.30246  24922595.15146
  21220001.15206  24434861.29606  16521293.49647  24434857.38247
 -14376922.18008  21118647.06208 -11199819.85949  21118640.06549
 -13518169.24607  21800190.20207 -10533719.74549  21800185.89049
 08 11 15  2 36  0.0030000  0  9  3  6  7  8 11 13 16 19 25
   3348009.30107  21712071.60807   2614195.98848  21712067.31548
  11892270.16806  22922438.64706   9266711.41748  22922435.29648
 -12267707.75407  21897321.70207  -9551172.31849  21897316.70249
  -2318453.90205  24603457.48305  -1799969.29147  24603455.04247
  -5347756.36306  23787778.31206  -4158829.62147  23787773.12847
  10511536.77006  24940706.85806   8191385.49446  24940703.53046
  21303163.99606  24450686.64706  16586095.66747  24450682.21447
 -14358060.62508  21122236.56208 -11185122.55949  21122229.69849
 -13503077.98807  21803062.01507 -10521960.33849  21803057.63249
 08 11 15  2 36 30.0030000  0  9  3  6  7  8 11 13 16 19 25
   3419269.39107  21725631.82707   2669723.31448  21725628.13648
  11972822.46906  22937766.55406   9329479.41948  22937763.27248
 -12295552.03107  21892022.72607  -9572869.15949  21892018.15949
  -2412218.28906  24585615.67906  -1873032.44347  24585612.19047
  -5445331.99206  23769209.56206  -4234862.54147  23769205.20247
  10606788.12906  24958833.92106   8265607.30146  24958829.47246
  21386427.58606  24466531.46006  16650976.29647  24466526.55047
 -14338859.57408  21125890.42908 -11170160.69849  21125883.51549
 -13487482.00407  21806030.15507 -10509807.63749  21806025.83949
 08 11 15  2 37  0.0030000  0  8  3  6  7  8 11 16 19 25
   3490732.24207  21739231.10107   2725408.63448  21739226.46448
  12053465.85506  22953112.79606   9392318.39348  22953109.55448
 -12322880.82407  21886822.53007  -9594164.31849  21886817.46849
  -2505787.18406  24567810.19406  -1945943.29947  24567806.45247
  -5542755.97306  23750670.63206  -4310777.30547  23750665.77247
  21469798.91806  24482396.53006  16715940.95047  24482392.35447
 -14319313.22308  21129609.91308 -11154929.76749  21129602.89449
 -13471374.14507  21809095.17107 -10497256.06049  21809090.87849
 08 11 15  2 37 30.0030000  0  8  3  6  7  8 11 16 19 25
   3562398.65607  21752868.59307   2781252.56448  21752863.94048
  12134201.43406  22968476.67106   9455229.20348  22968472.70648
 -12349690.07407  21881720.69407  -9615054.65349  21881715.85849
  -2599155.19106  24550043.05406  -2018697.54447  24550038.67547
  -5640023.22306  23732161.13206  -4386569.96047  23732155.81247
  21553280.54306  24498281.74906  16780991.52246  24498278.01546
 -14299420.76208  21133395.06908 -11139429.15449  21133388.78449
 -13454751.72707  21812258.26507 -10484303.52549  21812254.26549
 08 11 15  2 38  0.0030000  0  8  3  6  7  8 11 16 19 25
   3634265.92207  21766544.40507   2837253.01248  21766540.56248
  12215026.65206  22983856.88206   9518209.87448  22983853.14748
 -12375979.44107  21876718.17907  -9635539.88448  21876713.67548
  -2692320.21106  24532313.64706  -2091293.61447  24532309.68747
  -5737132.36306  23713682.03006  -4462239.39447  23713676.78847
  21636871.10906  24514189.02206  16846126.93047  24514184.97647
 -14279184.51208  21137246.05408 -11123660.65949  21137239.32749
 -13437615.94907  21815518.99907 -10470950.99649  21815514.90949
 08 11 15  2 38 30.0030000  0  8  3  6  7  8 11 16 19 25
   3706332.00807  21780258.20207   2893408.39748  21780253.68748
  12295939.86706  22999254.38206   9581259.09848  22999250.23748
 -12401747.44507  21871814.65507  -9655618.84148  21871810.14748
  -2785279.03506  24514624.22606  -2163729.02847  24514620.97647
  -5834081.18806  23695233.17906  -4537783.92347  23695228.89047
  21720570.18806  24530116.85106  16911346.98946  24530112.55846
 -14258605.99208  21141161.90508 -11107625.45949  21141155.11649
 -13419967.09807  21818877.42907 -10457198.64349  21818873.15549
 08 11 15  2 39  0.0030000  0  8  3  6  7  8 11 16 19 25
   3778597.51607  21794009.65507   2949719.17248  21794005.71448
  12376941.80906  23014668.65506   9644377.48348  23014664.39448
 -12426990.35507  21867010.99907  -9675288.64248  21867006.24148
  -2878027.40606  24496975.39706  -2236000.50847  24496970.78447
  -5930865.10205  23676815.15505  -4613199.92947  23676811.58947
  21804379.71106  24546065.43706  16976653.06646  24546060.40146
 -14237684.43408  21145143.22608 -11091322.94749  21145136.30849
 -13401803.16007  21822333.84307 -10443044.94049  21822329.47649
 08 11 15  2 39 30.0030000  0  8  3  6  7  8 11 16 19 25
   3851053.10907  21807797.89007   3006178.06248  21807792.89748
  12458023.83206  23030097.74106   9707558.26148  23030094.17548
 -12451713.87507  21862306.21807  -9694553.73048  21862301.33548
  -2970569.53106  24479365.05406  -2308111.23647  24479361.19847
  -6027488.91405  23658428.09305  -4688491.19447  23658425.02247
  21888292.54306  24562033.10106  17042039.63346  24562028.90946
 -14216428.38308  21149187.85808 -11074759.79049  21149180.83949
 -13383131.45707  21825887.36607 -10428495.57149  21825882.80049
 08 11 15  2 40  0.0030000  0  8  3  6  7  8 11 16 19 25
   3923699.75007  21821621.84307   3062785.83548  21821617.46048
  12539186.83606  23045542.25706   9770802.13348  23045538.55448
 -12475914.33207  21857701.25707  -9713411.22249  21857695.82349
  -3062900.19506  24461794.51506  -2380057.12747  24461791.22647
  -6123948.11706  23640073.50706  -4763654.23447  23640069.31547
  21972310.76606  24578021.24906  17107508.36347  24578017.50747
 -14194837.05508  21153296.34308 -11057935.37249  21153289.76549
 -13363949.66007  21829537.73307 -10413548.71449  21829532.81249
 08 11 15  2 40 30.0030000  0  8  3  6  7  8 11 16 19 25
   3996539.84007  21835483.37407   3119544.31748  21835478.85848
  12620433.50006  23061003.57706   9834111.15948  23060999.86648
 -12499585.96107  21853196.62407  -9731856.65149  21853191.60449
  -3155012.16406  24444266.47606  -2451832.66447  24444262.37447
  -6220235.88306  23621750.74106  -4838683.66547  23621746.94847
  22056438.23406  24594030.99906  17173062.20647  24594026.47647
 -14172907.60507  21157469.71007 -11040847.49349  21157462.71049
 -13344253.78907  21833285.49907 -10398201.29249  21833280.66349
 08 11 15  2 41  0.0030000  0  8  3  6  7  8 11 16 19 25
   4069563.00007  21849378.82707   3176445.46348  21849374.57348
  12701754.34406  23076478.33506   9897478.04848  23076474.49948
 -12522735.58607  21848791.46007  -9749895.32449  21848786.46449
  -3246910.69106  24426778.47606  -2523441.92047  24426774.54647
  -6316357.95306  23603458.53006  -4913583.95947  23603455.18347
  22140666.69105  24610058.77205  17238694.76047  24610054.99147
 -14150649.70307  21161705.16307 -11023503.66949  21161698.45649
 -13324052.38307  21837129.63207 -10382459.95049  21837124.84349
 08 11 15  2 41 30.0030000  0  8  3  6  7  8 11 16 19 25
   4142773.71907  21863310.35807   3233492.78248  21863306.35848
  12783153.66406  23091968.24906   9960906.06448  23091965.05448
 -12545356.04307  21844486.97607  -9767521.64449  21844481.53449
  -3338587.25006  24409333.28006  -2594878.12447  24409329.70247
  -6412306.23806  23585200.06206  -4988348.86247  23585196.58147
  22225001.62105  24626107.43705  17304410.26347  24626103.58547
 -14128058.94908  21166003.85808 -11005900.48049  21165997.26149
 -13303339.67208  21841071.53808 -10366320.18649  21841066.46449
 08 11 15  2 42  0.0030000  0  8  3  6  7  8 11 16 19 25
   4216173.18807  21877277.59307   3290687.14748  21877273.78448
  12864633.12106  23107473.16306  10024396.50648  23107469.79248
 -12567442.65607  21840284.00707  -9784732.00449  21840278.82349
  -3430035.77706  24391931.45206  -2666136.71047  24391928.07347
  -6508075.29306  23566975.63206  -5062974.10247  23566972.75347
  22309446.10904  24642176.03004  17370211.10246  24642172.27646
 -14105133.62108  21170366.59308 -10988036.58649  21170359.92949
 -13282112.85907  21845110.38207 -10349779.82549  21845105.61649
 08 11 15  2 42 30.0030000  0  8  3  6  7  8 11 16 19 25
   4289768.35907  21891282.70207   3348034.01948  21891278.93348
  12946200.08206  23122995.39006  10087955.16248  23122990.49948
 -12588985.50007  21836184.45207  -9801518.62449  21836179.62049
  -3521244.73006  24374575.10106  -2737208.61947  24374571.15547
  -6603654.00406  23548788.17906  -5137450.99947  23548784.40547
  22394008.42605  24658268.21005  17436103.78146  24658264.20646
 -14081866.69907  21174794.05407 -10969906.51249  21174787.71049
 -13260363.60207  21849249.31907 -10332832.35949  21849244.72949
 08 11 15  2 43  0.0030000  0  8  3  6  7  8 11 16 19 25
   4363550.40607  21905322.95207   3405526.50948  21905318.61248
  13027845.80506  23138531.61606  10151575.20548  23138526.52648
 -12609990.55107  21832187.48307  -9817886.19949  21832182.51549
  -3612218.58206  24357263.35106  -2808097.27547  24357259.98347
  -6699047.20306  23530635.75706  -5211783.36747  23530631.33547
  22478681.17204  24674381.29604  17502082.45747  24674376.71847
 -14058266.91007  21179284.96807 -10951517.06349  21179277.78849
 -13238099.35507  21853485.63207 -10315483.58349  21853481.05049
 08 11 15  2 43 30.0030000  0  8  3  6  7  8 11 16 19 25
   4437518.80507  21919398.45207   3463164.21048  21919394.19848
  13109570.44906  23154082.85806  10215256.71547  23154078.61247
 -12630455.16807  21828293.29607  -9833832.67549  21828288.48749
  -3702952.96106  24339997.52206  -2878799.35047  24339993.35847
  -6794250.88306  23512519.54606  -5285968.04247  23512515.40547
  22563465.66005  24690514.88205  17568148.27446  24690511.28046
 -14034334.09007  21183839.60107 -10932868.11349  21183832.54649
 -13215319.02307  21857820.85807 -10297732.69249  21857816.51549
 08 11 15  2 44  0.0030000  0  8  3  6  7  8 11 16 19 25
   4511680.95707  21933510.98307   3520952.88448  21933507.09348
  13191381.70306  23169651.24906  10279005.71248  23169647.26548
 -12650368.58607  21824503.67107  -9849349.61449  21824499.12449
  -3793435.57807  24322778.44407  -2949305.24747  24322774.42947
  -6889253.86305  23494440.47605  -5359996.33347  23494436.50347
  22648370.62903  24706670.87403  17634307.92046  24706667.62046
 -14010060.65208  21188458.53808 -10913953.75749  21188451.71849
 -13192013.77007  21862255.71807 -10279572.76349  21862251.21049
 08 11 15  2 44 30.0030000  0  8  3  6  7  8 11 16 19 25
   4586037.81607  21947660.53807   3578893.27748  21947656.73348
  13273280.98407  23185236.11607  10342823.29348  23185232.69448
 -12669726.91007  21820819.85807  -9864434.02449  21820815.32349
  -3883661.11306  24305609.47606  -3019610.85347  24305604.91347
  -6984050.94905  23476401.09305  -5433864.18047  23476396.88647
  22733398.87903  24722851.33503  17700563.68846  24722848.17146
 -13985445.12508  21193142.61608 -10894772.83449  21193135.77649
 -13168181.14807  21866791.05407 -10261001.89949  21866786.52649
 08 11 15  2 45  0.0030000  0  8  3  6  7  8 11 16 19 25
   4660585.55907  21961846.98307   3636982.40848  21961842.06948
  13355264.55106  23200837.54606  10406706.55048  23200833.63248
 -12688531.20707  21817241.65507  -9879086.72349  21817236.99149
  -3973628.75806  24288488.27206  -3089715.49047  24288484.42547
  -7078641.92206  23458401.61606  -5507571.39847  23458397.37847
  22818547.68003  24739054.71003  17766913.36846  24739051.38246
 -13960491.39807  21197891.16307 -10875328.35949  21197884.63249
 -13143823.86307  21871425.81907 -10242022.20149  21871421.53049
 08 11 15  2 45 30.0030000  0  8  3  6  7  8 11 16 19 25
   4735321.48407  21976068.32707   3695218.17748  21976063.83548
  13437329.98007  23216453.93707  10470653.60848  23216449.55048
 -12706781.42207  21813768.50707  -9893307.66349  21813764.43349
  -4063336.79706  24271418.30406  -3159617.84447  24271413.79247
  -7173025.51206  23440440.60806  -5581117.05547  23440436.51547
  22903815.56303  24755280.83503  17833355.80046  24755277.93746
 -13935202.27308  21202703.68708 -10855622.54849  21202696.69049
 -13118943.50807  21876160.64007 -10222634.91349  21876156.06549
 08 11 15  2 46  0.0030000  0  8  3  6  7  8 11 16 19 25
   4810262.30107  21990328.96807   3753613.60348  21990324.94448
  13519494.44907  23232089.30407  10534677.85248  23232084.51948
 -12724457.85907  21810404.64707  -9907081.52849  21810399.94049
  -4152763.71506  24254400.38206  -3229301.13247  24254396.76147
  -7267180.93406  23422523.13206  -5654484.87247  23422519.32347
  22989221.31603  24771533.28803  17899905.68746  24771530.13646
 -13909560.65608  21207582.74108 -10835642.07149  21207576.14049
 -13093521.90207  21880997.89707 -10202825.87549  21880993.68749
 08 11 15  2 46 30.0030000  0  8  3  6  7  8 11 16 19 25
   4885417.13307  22004630.28007   3812175.79148  22004626.26148
  13601767.28106  23247745.20206  10598786.51548  23247740.56548
 -12741548.64807  21807152.77207  -9920399.02449  21807148.24549
  -4241896.09806  24237438.81906  -3298754.92347  24237435.40147
  -7361095.22306  23404651.68706  -5727664.80847  23404647.41747
  23074775.24203  24787813.52203  17966571.03246  24787810.09346
 -13883557.17608  21212531.17908 -10815379.62149  21212524.42149
 -13067548.94507  21885940.77207 -10182587.21749  21885936.24149
 08 11 15  2 47  0.0030000  0  8  3  6  7  8 11 16 19 25
   4960776.10207  22018971.38207   3870897.05148  22018967.58948
  13684139.11707  23263419.92107  10662972.34447  23263416.35847
 -12758060.21107  21804010.99907  -9933265.18049  21804005.99949
  -4330738.98406  24220532.91306  -3367983.16047  24220528.65547
  -7454773.66806  23386826.17106  -5800660.96447  23386821.16347
  23160468.49204  24804120.89704  18033344.94646  24804117.69846
 -13857201.30107  21217546.30407 -10794842.56749  21217539.72249
 -13041033.00408  21890986.40508 -10161925.44549  21890981.90949
 08 11 15  2 47 30.0030000  0  8  3  6  7  8 11 16 19 25
   5036342.78907  22033351.15507   3929780.17748  22033347.08548
  13766614.09807  23279114.85807  10727238.53248  23279110.50748
 -12773986.37907  21800980.31907  -9945675.18649  21800975.36249
  -4419284.04306  24203683.25706  -3436979.30047  24203679.37847
  -7548208.82006  23369046.51506  -5873467.58947  23369040.10147
  23246306.45304  24820454.93704  18100231.62946  24820452.60446
 -13830489.43807  21222629.44407 -10774028.13749  21222622.86649
 -13013969.17607  21896136.21807 -10140836.74249  21896131.74949
 08 11 15  2 48  0.0030000  0  8  3  6  7  8 11 16 19 25
   5112115.62107  22047770.14707   3988823.92748  22047766.23348
  13849190.76206  23294828.17906  10791583.97748  23294824.40948
 -12789326.07407  21798061.21807  -9957628.19949  21798056.10149
  -4507528.39506  24186890.34306  -3505741.08547  24186886.43747
  -7641398.49606  23351312.27206  -5946082.88947  23351307.54247
  23332288.97304  24836817.17104  18167230.98546  24836814.22646
 -13803422.96107  21227780.14707 -10752937.38349  21227773.35149
 -12986358.12107  21901390.88207 -10119321.63949  21901386.37449
 08 11 15  2 48 30.0030000  0  8  3  6  7  8 11 16 19 25
   5188087.30907  22062226.98307   4048022.61448  22062223.37848
  13931862.00007  23310560.45207  10856003.09848  23310556.51148
 -12804083.80907  21795252.95207  -9969127.73349  21795247.49549
  -4595474.77006  24170156.17906  -3574270.73447  24170151.40547
  -7734345.89106  23333624.76506  -6018509.38747  23333619.85847
  23418410.07804  24853205.97604  18234338.31146  24853202.22946
 -13776009.12107  21232997.08507 -10731575.94749  21232989.92549
 -12958206.00407  21906747.98307 -10097384.92049  21906743.16749
 08 11 15  2 49  0.0030000  0  8  3  6  7  8 11 16 19 25
   5264262.19107  22076722.93707   4107379.67248  22076718.36248
  14014632.64106  23326311.29606  10920499.70048  23326307.26148
 -12818252.34807  21792556.78807  -9980168.16349  21792551.58149
  -4683114.35506  24153478.72606  -3642561.32747  24153473.84747
  -7827042.73806  23315985.37406  -6090740.67748  23315981.42148
  23504675.80904  24869621.90504  18301558.36546  24869618.47946
 -13748243.71508  21238280.35808 -10709940.57149  21238273.75749
 -12929507.37107  21912209.22607 -10075022.36849  21912204.26949
 08 11 15  2 49 30.0030000  0  8  3  6  7  8 11 16 19 25
   5340644.01207  22091257.33507   4166897.96448  22091253.81248
  14097506.41406  23342081.86606  10985076.62848  23342077.87848
 -12831826.03507  21789973.75707  -9990745.06849  21789968.57349
  -4770439.44506  24136860.67906  -3710606.80447  24136856.35447
  -7919481.10206  23298394.95206  -6162770.48647  23298390.32747
  23591090.52003  24886065.17903  18368894.41246  24886062.10846
 -13720122.74608  21243631.75708 -10688028.12449  21243625.15949
 -12900257.80107  21917775.10807 -10052230.48749  21917769.94849
 08 11 15  2 50  0.0030000  0  8  3  6  7  8 11 16 19 25
   5417231.11307  22105832.27207   4226576.20448  22105827.47948
  14180482.73406  23357871.78806  11049733.47048  23357867.99148
 -12844802.73807  21787504.15507 -10000856.79549  21787499.05049
  -4857445.93806  24120304.13206  -3778404.09647  24120298.36247
  -8011658.41006  23280854.58506  -6234596.97347  23280849.18747
  23677654.82003  24902538.80403  18436347.07546  24902534.67146
 -13691646.91008  21249050.50708 -10665839.17549  21249043.95249
 -12870457.10907  21923445.99907 -10029009.16449  21923441.30449
 08 11 15  2 50 30.0030000  0  8  3  6  7  8 11 16 19 25
   5494022.42607  22120445.11607   4286413.57148  22120440.37048
  14263561.02006  23373680.26506  11114469.76848  23373677.69048
 -12857180.90207  21785148.97607 -10010502.14549  21785143.83149
  -4944130.73406  24103807.43706  -3845950.62247  24103803.72647
  -8103571.82406  23263363.94406  -6306217.78247  23263359.09747
  23764369.03903  24919038.78803  18503916.55646  24919035.68746
 -13662817.35508  21254536.62408 -10643374.58949  21254530.16749
 -12840105.44107  21929221.33507 -10005358.52449  21929217.00349
 08 11 15  2 51  0.0030000  0  8  3  6  7  8 11 16 19 25
   5571016.63707  22135096.29607   4346409.05148  22135091.74148
  14346740.00406  23389508.71006  11179284.50948  23389506.21848
 -12868959.52707  21782907.70207 -10019680.29749  21782902.44449
  -5030490.53106  24087374.52206  -3913243.90047  24087371.14747
  -8195218.81606  23245923.71006  -6377630.97247  23245918.65947
  23851233.06304  24935569.64004  18571602.70746  24935565.05446
 -13633635.64108  21260089.60808 -10620635.59949  21260082.99549
 -12809203.16807  21935102.51507  -9981278.84849  21935097.19849
 08 11 15  2 51 30.0030000  0  8  3  6  7  8 11 16 19 25
   5648212.89506  22149785.95206   4406561.97948  22149781.67148
  14430018.69106  23405356.81206  11244176.97848  23405353.55448
 -12880137.49207  21780780.55407 -10028390.37549  21780775.24149
  -5116522.17206  24071002.96806  -3980281.49147  24070999.59347
  -8286596.50406  23228534.89006  -6448834.34347  23228529.62847
  23938246.81305  24952127.66305  18639405.63646  24952123.48746
 -13604103.12908  21265709.44408 -10597623.26649  21265702.74549
 -12777750.84007  21941087.39007  -9956770.53549  21941082.69849
 08 11 15  2 52  0.0030000  0  8  3  6  7  8 11 16 19 25
   5725601.32807  22164512.99107   4466864.64648  22164508.50748
  14513388.18806  23421220.79606  11309140.21848  23421217.96448
 -12890721.41007  21778766.48307 -10036637.60249  21778761.49549
  -5202230.60906  24054693.61606  -4047067.31247  24054688.94847
  -8377710.39106  23211196.42106  -6519832.12447  23211190.89047
  24025402.36305  24968713.00705  18707319.02046  24968708.60146
 -13574228.77707  21271394.36607 -10574344.55449  21271387.51949
 -12745756.82407  21947175.78007  -9931840.15549  21947171.07349
 08 11 15  2 52 30.0030000  0  8  3  6  7  8 11 16 19 25
   5803181.18807  22179275.57707   4527316.45448  22179271.13248
  14596847.82006  23437103.43706  11374173.69248  23437099.67548
 -12900709.59408  21776865.95208 -10044420.62549  21776860.89749
  -5287612.33206  24038446.06906  -4113598.49347  24038442.36247
  -8468557.89506  23193908.12406  -6590622.34647  23193902.32747
  24112699.77305  24985324.51505  18775342.92946  24985320.81546
 -13544013.53507  21277144.26507 -10550800.22349  21277137.21049
 -12713221.33207  21953366.74907  -9906487.82049  21953362.13649
 08 11 15  2 53  0.0030000  0  8  3  6  7  8 11 16 19 25
   5880942.09407  22194072.73307   4587909.37248  22194068.50348
  14680387.63706  23452999.88206  11439269.64748  23452996.72948
 -12910110.10907  21775076.61607 -10051745.70549  21775072.22649
  -5372673.07406  24022258.90506  -4179879.55247  24022255.39747
  -8559145.12906  23176670.98306  -6661209.78548  23176665.24948
  24200130.27305  25001961.75705  18843470.58646  25001958.09746
 -13513467.43407  21282956.88207 -10526998.06749  21282950.05449
 -12680153.54307  21959659.45207  -9880720.72749  21959654.47649
 08 11 15  2 53 30.0030000  0  8  3  6  7  8 11 16 19 25
   5958881.84407  22208904.62407   4648641.59648  22208900.82748
  14764005.75406  23468912.30406  11504426.55348  23468909.32348
 -12918922.47707  21773399.66307 -10058612.49749  21773394.76149
  -5457410.17206  24006134.23306  -4245908.42347  24006130.46447
  -8649470.27306  23159482.81906  -6731592.97948  23159477.71048
  24287693.27305  25018625.33505  18911701.41546  25018621.39446
 -13482592.85207  21288832.24907 -10502939.96649  21288825.03849
 -12646554.97707  21966053.33507  -9854540.05148  21966047.70648
 08 11 15  2 54  0.0030000  0  8  3  6  7  8 11 16 19 25
   6037005.11707  22223771.06907   4709516.87848  22223766.91348
  14847707.32006  23484840.01506  11569648.52547  23484836.72247
 -12927139.70307  21771835.98307 -10065015.53249  21771831.17949
  -5541814.27306  23990072.58506  -4311677.84547  23990069.15547
  -8739524.86306  23142345.42906  -6801765.34548  23142341.24948
  24375394.34805  25035314.44405  18980039.82846  25035310.60146
 -13451385.18807  21294770.78807 -10478622.31549  21294763.85149
 -12612420.05507  21972548.66307  -9827941.41249  21972544.15549
 08 11 15  2 54 30.0030000  0  8  3  6  7  8 11 16 19 25
   6115300.80907  22238669.76507   4770526.50248  22238666.24948
  14931481.64506  23500781.67906  11634927.19947  23500778.28447
 -12934770.44507  21770383.49107 -10070961.55449  21770378.86649
  -5625892.43406  23974073.19406  -4377193.26447  23974069.77247
  -8829315.89506  23125258.98306  -6871732.33448  23125254.93748
  24463223.87905  25052027.28805  19048478.38746  25052023.71846
 -13419855.18407  21300770.90507 -10454053.48449  21300764.02249
 -12577759.10507  21979144.43707  -9800932.90049  21979139.86249
 08 11 15  2 55  0.0030000  0  8  3  6  7  8 11 16 19 25
   6193772.40207  22253602.86607   4831673.16848  22253598.34348
  15015332.69906  23516737.43706  11700265.66147  23516734.38647
 -12941808.67207  21769044.68707 -10076445.89549  21769039.44049
  -5709636.55105  23958137.87405  -4442448.39747  23958133.56947
  -8918836.00807  23108224.15507  -6941488.24448  23108219.66748
  24551186.63704  25068765.87404  19117020.74546  25068762.43746
 -13387999.43407  21306832.33507 -10429230.83049  21306826.43349
 -12542567.78107  21985841.26507  -9773511.08649  21985836.23349
 08 11 15  2 55 30.0030000  0  8  3  6  7  8 11 16 19 25
   6272423.09407  22268569.53007   4892959.41948  22268564.83948
  15099263.89506  23532709.49106  11765666.56447  23532705.89047
 -12948248.93807  21767818.85107 -10081464.27149  21767814.08149
  -5793038.93005  23942266.34305  -4507437.27747  23942262.21847
  -9008078.43407  23091241.47607  -7011027.77748  23091236.96448
  24639287.20304  25085530.47604  19185670.42946  25085527.88246
 -13355814.80107  21312957.16307 -10404151.88949  21312950.49149
 -12506842.32407  21992639.33507  -9745673.08549  21992635.04249
 08 11 15  2 56  0.0030000  0  8  3  6  7  8 11 16 19 25
   6351247.41407  22283569.15507   4954380.94548  22283565.09748
  15183270.10206  23548695.54606  11831125.92648  23548692.28848
 -12954094.29707  21766706.85107 -10086019.09449  21766702.31949
  -5876100.32805  23926460.03805  -4572160.43847  23926456.92547
  -9097044.30506  23074311.95206  -7080351.81648  23074306.01148
  24727521.32804  25102321.56904  19254424.28546  25102318.25346
 -13323306.43007  21319143.17907 -10378820.69549  21319136.93349
 -12470587.28907  21999538.81207  -9717422.42049  21999534.00749
 08 11 15  2 56 30.0030000  0  8  3  6  7  8 11 16 19 25
   6430242.53107  22298601.49107   5015935.54748  22298596.76148
  15267348.64806  23564695.10106  11896641.61748  23564692.10848
 -12959345.94107  21765707.60107 -10090111.26349  21765702.71049
  -5958819.86705  23910719.32705  -4636617.19747  23910715.83947
  -9185733.39506  23057434.75706  -7149460.15848  23057429.00748
  24815886.48004  25119138.14004  19323280.11146  25119133.15146
 -13290477.80907  21325390.55407 -10353239.95849  21325383.90149
 -12433805.40207  22006538.30407  -9688761.22249  22006533.47249
 08 11 15  2 57  0.0030000  0  8  3  6  7  8 11 16 19 25
   6509416.40607  22313668.10107   5077629.46048  22313663.49548
  15351508.21906  23580710.52206  11962220.47048  23580706.76148
 -12963993.18407  21764823.07707 -10093732.49949  21764818.41749
  -6041184.57006  23895045.24106  -4700797.48847  23895041.81547
  -9274133.41407  23040612.71807  -7218343.27448  23040606.93348
  24904392.74203  25135979.06903  19392245.99346  25135975.42546
 -13257320.49607  21331700.03807 -10327403.09949  21331693.60149
 -12396487.60207  22013639.22607  -9659682.43249  22013635.21449
 08 11 15  2 57 30.0030000  0  8  3  6  7  8 11 16 19 25
   6588766.14807  22328767.60807   5139460.40248  22328763.70248
  15435745.99606  23596740.47606  12027860.28848  23596736.60448
 -12968036.44507  21764053.94407 -10096883.09949  21764048.94849
  -6123192.75806  23879440.47606  -4764699.97247  23879436.71847
  -9362243.70706  23023846.02206  -7287000.61448  23023840.22948
  24993038.33203  25152847.32703  19461320.43246  25152844.34346
 -13223837.62507  21338071.85107 -10301312.55349  21338065.20649
 -12358636.30107  22020842.60107  -9630187.92249  22020838.34749
 08 11 15  2 58  0.0030000  0  8  3  6  7  8 11 16 19 25
   6668289.85907  22343900.29607   5201426.91848  22343895.88648
  15520060.80906  23612784.89006  12093560.10047  23612781.42947
 -12971475.94507  21763399.41307 -10099563.23049  21763394.06949
  -6204841.96106  23863903.17906  -4828322.72447  23863899.42147
  -9450062.14106  23007134.34306  -7355430.53748  23007129.22948
  25081822.48402  25169742.33502  19530502.87846  25169739.74546
 -13190031.00007  21344504.81207 -10274969.72449  21344497.82349
 -12320252.84807  22028146.60807  -9600278.73549  22028142.40549
 08 11 15  2 58 30.0030000  0  8  3  6  7  8 11 16 19 25
   6747996.87507  22359068.10107   5263536.24548  22359063.43748
  15604462.30507  23628846.46007  12159327.45047  23628841.91347
 -12974299.87107  21762861.94407 -10101763.71249  21762856.60149
  -6286118.62506  23848436.85106  -4891655.21447  23848431.94447
  -9537575.36306  22990481.25706  -7423622.62748  22990477.01948
  25170756.26604  25186666.98304  19599801.91346  25186664.14046
 -13155890.97307  21351001.49907 -10248367.11749  21350994.92549
 -12281327.16807  22035553.57707  -9569947.04249  22035549.92549
 08 11 15  2 59  0.0030000  0  8  3  6  7  8 11 16 19 25
   6827888.47307  22374271.14707   5325789.41848  22374266.97648
  15688951.72706  23644924.11606  12225163.34347  23644919.57747
 -12976504.98807  21762442.14707 -10103481.98249  21762436.95249
  -6367017.13306  23833042.03006  -4954692.98147  23833038.19047
  -9624778.94506  22973886.76506  -7491573.46748  22973882.00348
  25259841.29705  25203619.75705  19669218.79746  25203616.33546
 -13121416.80908  21357561.74108 -10221504.12349  21357554.79249
 -12241857.79707  22043064.50707  -9539191.69349  22043060.60849
 08 11 15  2 59 30.0030000  0  8  3  6  7  8 11 16 19 25
   6907966.16007  22389509.25707   5388187.57148  22389505.60448
  15773531.54306  23661018.74106  12291069.64547  23661015.63647
 -12978087.44507  21762141.27207 -10104715.07849  21762136.16349
  -6447531.04706  23817720.47606  -5017431.11247  23817717.01947
  -9711666.89106  22957352.47606  -7559278.33348  22957348.01948
  25349080.46905  25220601.11605  19738755.76446  25220598.46446
 -13086606.70707  21364186.26507 -10194379.37949  21364178.88249
 -12201842.32407  22050679.30407  -9508010.82649  22050674.95249
 08 11 15  3  0  0.0030000  0  8  3  6  7  8 11 16 19 25
   6988227.97707  22404782.52207   5450729.22448  22404778.84748
  15858199.68806  23677130.46806  12357044.77547  23677127.87047
 -12979047.48807  21761958.25707 -10105463.17449  21761953.58149
  -6527658.55506  23802472.46806  -5079868.11347  23802469.26547
  -9798238.29706  22940878.33506  -7626736.56148  22940873.97248
  25438473.19905  25237611.63205  19808412.37946  25237608.63646
 -13051462.96108  21370873.74108 -10166994.64749  21370867.15949
 -12161282.60207  22058397.21807  -9476405.84949  22058393.06549
 08 11 15  3  0 30.0030000  0  7  3  6  7  8 11 19 25
   7068686.45707  22420093.40507   5513424.10748  22420089.13648
  15942969.31306  23693261.31206  12423098.96247  23693258.81947
 -12979370.50807  21761897.07707 -10105714.87949  21761892.20649
  -6607382.32406  23787302.12406  -5141990.55047  23787297.98747
  -9884476.17206  22924468.39006  -7693934.88948  22924463.12448
 -13015973.08207  21377626.95207 -10139340.19949  21377620.13649
 -12120165.52707  22066221.82707  -9444366.59149  22066217.50349
 08 11 15  3  1  0.0030000  0  7  3  6  7  8 11 19 25
   7149341.97307  22435441.92907   5576272.54648  22435437.31548
  16027841.33606  23709412.86606  12489232.95347  23709409.44447
 -12979053.72707  21761956.81207 -10105468.03449  21761952.39449
  -6686697.64506  23772208.69406  -5203794.69047  23772204.28847
  -9970376.17606  22908121.97606  -7760869.95748  22908116.73748
 -12980136.25807  21384446.70207 -10111415.41049  21384439.47949
 -12078490.09007  22074152.60807  -9411892.22449  22074147.64449
 08 11 15  3  1 30.0030000  0  7  3  6  7  8 11 19 25
   7230206.76207  22450829.77207   5639284.04348  22450825.44048
  16112828.01206  23725585.29606  12555456.29647  23725581.89047
 -12978083.44907  21762141.72607 -10104711.98548  21762137.08148
  -6765588.01206  23757196.12406  -5265267.66347  23757191.94047
 -10055922.96106  22891842.88206  -7827529.74548  22891837.75348
 -12943940.96107  21391334.32707 -10083211.29549  21391327.28849
 -12036244.12507  22082191.85807  -9378973.31849  22082186.69049
 08 11 15  3  2  0.0030000  0  7  3  6  7  8 11 19 25
   7311283.72707  22466258.22607   5702460.87348  22466254.92148
  16197932.88306  23741779.71006  12621771.73147  23741777.11247
 -12976454.74607  21762451.71807 -10103442.88049  21762446.33149
  -6844045.95706  23742266.20206  -5326403.71948  23742262.01148
 -10141109.76606  22875632.02206  -7893909.07348  22875627.40548
 -12907383.84407  21398290.99107 -10054725.24149  21398284.22649
 -11993424.08207  22090340.27207  -9345607.06949  22090335.44849
 08 11 15  3  2 30.0030000  0  7  3  6  7  8 11 19 25
   7392576.59407  22481727.82707   5765805.92148  22481724.04648
  16283159.86306  23757997.95206  12688182.33247  23757995.11647
 -12974161.51607  21762888.14007 -10101655.93249  21762883.60149
  -6922063.42606  23727420.24106  -5387196.54048  23727415.88648
 -10225929.23806  22859491.89706  -7960002.16148  22859486.74948
 -12870461.71107  21405317.13207 -10025954.74849  21405310.12849
 -11950025.95307  22098598.71007  -9311790.35949  22098593.82749
 08 11 15  3  3  0.0030000  0  7  3  6  7  8 11 19 25
   7474076.82407  22497236.54607   5829312.56648  22497233.05448
  16368500.87506  23774237.33506  12754681.76747  23774235.16747
 -12971211.06307  21763449.87407 -10099356.90549  21763444.41349
  -6999645.05906  23712656.25706  -5447649.72948  23712652.55848
 -10310386.23006  22843420.04606  -8025812.76748  22843415.95248
 -12833183.66407  21412410.78007  -9996906.92749  21412404.17949
 -11906058.35207  22106965.20207  -9277529.90449  22106960.44049
 08 11 15  3  3 30.0030000  0  7  3  6  7  8 11 19 25
   7555792.28907  22512786.74107   5892986.92548  22512782.51548
  16453964.13306  23790500.91306  12821276.47347  23790498.40147
 -12967593.73007  21764138.36607 -10096538.19849  21764133.02649
  -7076778.18006  23697978.39006  -5507753.41848  23697974.01548
 -10394469.23006  22827419.22606  -8091331.97248  22827414.49948
 -12795541.09407  21419573.95207  -9967575.06049  21419567.29649
 -11861512.87107  22115441.90507  -9242819.14749  22115437.19449
 08 11 15  3  4  0.0030000  0  7  3  6  7  8 11 19 25
   7637723.50007  22528377.49107   5956829.39348  22528373.84748
  16539550.64106  23806787.71006  12887967.19647  23806784.51147
 -12963306.85907  21764953.83507 -10093197.79749  21764948.81249
  -7153458.16406  23683386.50706  -5567504.05748  23683383.12048
 -10478174.16806  22811491.14006  -8156556.60648  22811485.72948
 -12757533.73807  21426806.56907  -9937958.95349  21426799.63649
 -11816388.67607  22124028.64707  -9207657.45548  22124023.97948
 08 11 15  3  4 30.0030000  0  7  3  6  7  8 11 19 25
   7719865.18007  22544008.60107   6020835.85948  22544004.60148
  16625255.72306  23823096.67106  12954750.34147  23823093.40147
 -12958354.05907  21765896.46007 -10089338.48649  21765891.06249
  -7229685.82406  23668881.21806  -5626902.22748  23668877.91348
 -10561502.21906  22795634.40506  -8221487.53348  22795628.85448
 -12719166.90207  21434107.47607  -9908062.72149  21434100.86249
 -11770690.66407  22132724.65507  -9172048.62048  22132719.87848
 08 11 15  3  5  0.0030000  0  7  3  6  7  8 11 19 25
   7802214.69107  22559679.45207   6085004.31248  22559675.24548
  16711076.74607  23839428.11607  13021623.84847  23839424.62447
 -12952736.37107  21766965.38207 -10084961.08449  21766960.02249
  -7305459.69506  23654461.60806  -5685946.78647  23654457.96447
 -10644452.71106  22779849.06206  -8286124.26248  22779843.76148
 -12680443.48807  21441476.57707  -9877888.64249  21441469.86249
 -11724421.66008  22141529.52208  -9135994.85649  22141525.00349
 08 11 15  3  5 30.0030000  0  7  3  6  7  8 11 19 25
   7884769.84807  22575389.03807   6149332.98148  22575385.16748
  16797011.99207  23855781.67907  13088586.36747  23855776.90947
 -12946454.01207  21768160.85107 -10080065.74549  21768155.49549
  -7380777.44506  23640128.74906  -5744635.93747  23640125.39447
 -10727024.32406  22764136.42906  -8350465.74948  22764131.27648
 -12641366.11307  21448912.42907  -9847438.75249  21448906.03849
 -11677583.68007  22150442.75707  -9099497.73649  22150438.23349
 08 11 15  3  6  0.0030000  0  7  3  6  7  8 11 19 25
   7967519.37107  22591136.02207   6213813.11048  22591131.77648
  16883050.66007  23872154.07707  13155629.47847  23872149.93347
 -12939516.67207  21769480.78807 -10074660.04049  21769476.03049
  -7455646.10906  23625882.16306  -5802975.12147  23625878.56947
 -10809224.70306  22748493.19406  -8414517.95848  22748488.88648
 -12601945.75007  21456413.96807  -9816721.61249  21456407.23349
 -11630187.59407  22159461.89007  -9062565.72449  22159457.20649
 08 11 15  3  6 30.0030000  0  7  3  6  7  8 11 19 25
   8050459.00407  22606918.68707   6278441.36548  22606914.77248
  16969189.16806  23888545.50706  13222750.36947  23888541.83547
 -12931926.84007  21770925.41307 -10068745.90049  21770920.35149
  -7530065.68006  23611721.38206  -5860964.40048  23611716.52248
 -10891054.17206  22732922.49106  -8478281.14948  22732916.88248
 -12562186.81307  21463979.89707  -9785740.62649  21463973.10849
 -11582237.44907  22168586.05407  -9025201.97948  22168581.53448
 08 11 15  3  7  0.0030000  0  7  3  6  7  8 11 19 25
   8133582.35207  22622736.70207   6343212.77648  22622732.91348
  17055421.34406  23904955.03006  13289944.22447  23904951.93347
 -12923689.27007  21772492.87407 -10062326.99749  21772487.98749
  -7604038.20307  23597644.96807  -5918605.32648  23597640.27648
 -10972515.86706  22717420.56206  -8541757.78448  22717415.63648
 -12522095.91007  21471608.91307  -9754500.97449  21471602.18749
 -11533739.81607  22177815.24907  -8987411.62149  22177810.42949
 08 11 15  3  7 30.0030000  0  7  3  6  7  8 11 19 25
   8216877.89107  22638587.46007   6408118.37048  22638583.43348
  17141735.78906  23921379.54606  13357202.23547  23921377.14747
 -12914814.35507  21774181.56207 -10055411.49449  21774177.28849
  -7677571.43406  23583651.28806  -5975903.94248  23583648.01148
 -11053617.91006  22701988.03006  -8604954.15948  22701981.97648
 -12481685.06307  21479298.60807  -9723012.00249  21479292.09749
 -11484706.34007  22187145.91307  -8949203.72348  22187142.06948
 08 11 15  3  8  0.0030000  0  7  3  6  7  8 11 19 25
   8300347.19907  22654471.39007   6473159.38548  22654467.08948
  17228134.42606  23937820.35106  13424525.80147  23937818.36647
 -12905298.98007  21775992.49107 -10047996.92249  21775987.46449
  -7750659.61306  23569743.40506  -6032855.76047  23569739.39747
 -11134355.30106  22686623.81906  -8667866.37248  22686618.20248
 -12440952.85507  21487049.92107  -9691272.61249  21487043.28849
 -11435135.35507  22196578.81207  -8910576.99148  22196574.29648
 08 11 15  3  8 30.0030000  0  7  3  6  7  8 11 19 25
   8383979.08607  22670385.87407   6538327.08848  22670380.59748
  17314606.64506  23954276.12406  13491906.71347  23954273.26547
 -12895152.65207  21777923.22607 -10040090.71949  21777918.52649
  -7823309.56307  23555918.03007  -6089466.10747  23555913.77647
 -11214735.57006  22671327.68706  -8730500.32848  22671322.51548
 -12399910.52707  21494859.94407  -9659291.59649  21494853.30849
 -11385038.20307  22206111.93707  -8871540.25248  22206107.80448
 08 11 15  3  9  0.0030000  0  7  3  6  7  8 11 19 25
   8467764.09807  22686329.53807   6603614.10448  22686324.42948
  17401143.25406  23970743.06206  13559337.78647  23970740.08147
 -12884383.56607  21779972.56207 -10031699.21949  21779967.20649
  -7895526.30107  23542175.85807  -6145738.87547  23542171.56947
 -11294764.74606  22656098.61606  -8792860.68948  22656094.18748
 -12358567.84807  21502727.46807  -9627076.53649  21502720.93349
 -11334424.22707  22215743.17107  -8832100.79148  22215739.15948
 08 11 15  3  9 30.0030000  0  7  3  6  7  8 11 19 25
   8551700.94107  22702301.69407   6669019.41748  22702297.72248
  17487743.23406  23987222.90506  13626818.24847  23987219.40147
 -12872991.70707  21782140.12407 -10022822.46349  21782135.01949
  -7967307.19107  23528516.89007  -6201672.03147  23528512.61247
 -11374440.80506  22640937.10806  -8854945.90048  22640932.42948
 -12316926.16007  21510651.37407  -9594628.46649  21510644.86249
 -11283294.88707  22225473.05407  -8792259.76348  22225468.99548
 08 11 15  3 10  0.0030000  0  7  3  6  7  8 11 19 25
   8635787.65607  22718303.10107   6734541.51248  22718299.38648
  17574405.32806  24003713.97606  13694347.14647  24003710.71447
 -12860977.37507  21784426.74107 -10013460.65449  21784421.94849
  -8038649.84807  23514940.54607  -6257263.70647  23514936.24547
 -11453761.90606  22625842.42106  -8916754.51448  22625837.79648
 -12274987.79307  21518631.96807  -9561949.23849  21518625.63249
 -11231652.27307  22235300.31907  -8752018.77248  22235296.40548
 08 11 15  3 10 30.0030000  0  7  3  6  7  8 11 19 25
   8720015.96107  22734331.60107   6800173.92048  22734327.96048
  17661121.72706  24020216.02206  13761918.32247  24020212.74547
 -12848347.33607  21786830.17107 -10003619.07449  21786825.01149
  -8109558.34807  23501446.85107  -6312517.09447  23501443.00347
 -11532732.82806  22610814.65506  -8978290.28248  22610810.32748
 -12232760.90607  21526667.62407  -9529045.17049  21526661.23349
 -11179504.50007  22245223.83507  -8711384.16648  22245219.65948
 08 11 15  3 11  0.0030000  0  7  3  6  7  8 11 19 25
   8804377.93407  22750384.67107   6865910.51348  22750381.27248
  17747884.77006  24036726.92106  13829525.86447  24036724.10147
 -12835108.37907  21789349.53807  -9993303.01149  21789344.70649
  -8180036.60206  23488035.06906  -6367435.19147  23488031.05447
 -11611358.02706  22595853.18706  -9039556.65248  22595848.17148
 -12190253.71107  21534756.24107  -9495922.68249  21534749.79249
 -11126859.72307  22255242.27207  -8670362.28248  22255236.81548
 08 11 15  3 11 30.0030000  0  7  3  6  7  8 11 19 25
   8888885.22307  22766466.39007   6931760.31948  22766462.62848
  17834706.35506  24053248.08506  13897179.04047  24053245.19447
 -12821247.53507  21791987.18707  -9982502.36949  21791982.17549
  -8250068.94106  23474708.49906  -6422005.83647  23474703.85847
 -11689622.68407  22580959.60807  -9100542.05748  22580954.93348
 -12147454.77307  21542900.77207  -9462572.87049  21542893.95649
 -11073706.65207  22265356.72607  -8628944.31048  22265351.62048
 08 11 15  3 12  0.0030000  0  7  3  6  7  8 11 19 25
   8973539.00806  22782575.17106   6997724.28948  22782571.09348
  17921588.62906  24069780.93706  13964879.46447  24069777.72947
 -12806762.27307  21794743.60107  -9971215.15549  21794738.66349
  -8319649.59406  23461467.78006  -6476224.51547  23461463.72947
 -11767521.84007  22566136.26507  -9161242.68948  22566131.24948
 -12104362.85207  21551101.04607  -9428994.74249  21551094.26549
 -11020043.78907  22275568.67907  -8587129.11348  22275564.01148
 08 11 15  3 12 30.0030000  0  7  3  6  7  8 11 19 25
   9058352.83607  22798715.28007   7063812.96748  22798710.37848
  18008544.72306  24086328.53806  14032637.42847  24086324.86647
 -12791637.94907  21797621.46007  -9959429.97749  21797616.53049
  -8388761.34805  23448316.01505  -6530077.82346  23448312.40946
 -11845039.03506  22551385.41306  -9221645.68448  22551380.61248
 -12060965.05907  21559359.47607  -9395178.29249  21559352.68749
 -10965858.48007  22285879.65507  -8544906.81148  22285874.67948
 08 11 15  3 13  0.0030000  0  7  3  6  7  8 11 19 25
   9143327.16807  22814885.14707   7130026.69648  22814881.41748
  18095575.65606  24102890.01506  14100453.69847  24102886.46047
 -12775873.19107  21800621.28807  -9947145.77149  21800616.91349
  -8457399.96106  23435254.96806  -6583562.44646  23435250.47646
 -11922170.57407  22536707.48307  -9281748.18548  22536703.37048
 -12017261.45307  21567675.53807  -9361123.54249  21567668.96049
 -10911150.53507  22296290.05407  -8502277.24948  22296284.82348
 08 11 15  3 13 30.0030000  0  7  3  6  7  8 11 19 25
   9228459.65607  22831085.09307   7196363.67448  22831081.76948
  18182679.81606  24119465.09306  14168327.04047  24119461.90147
 -12759468.79707  21803743.12407  -9934363.10249  21803738.73749
  -8525563.44505  23422283.10105  -6636676.86047  23422279.51947
 -11998915.39107  22522102.96007  -9341549.29748  22522098.69848
 -11973254.35207  21576050.03807  -9326832.30749  21576043.49549
 -10855922.35207  22306799.78807  -8459242.31248  22306794.35848
 08 11 15  3 14  0.0030000  0  7  3  6  7  8 11 19 25
   9313769.91806  22847319.06906   7262839.20248  22847315.89748
  18269877.19906  24136058.37406  14236273.03547  24136055.56947
 -12742404.19107  21806990.25707  -9921066.00549  21806985.91349
  -8593227.75805  23409407.06905  -6689402.26947  23409403.55847
 -12075250.12107  22507577.56207  -9401030.88848  22507572.30048
 -11928924.03507  21584485.87407  -9292289.21449  21584479.30049
 -10800154.41007  22317412.10807  -8415786.77848  22317407.21848
 08 11 15  3 14 30.0030000  0  7  3  6  7  8 11 19 25
   9399249.49206  22863585.67106   7329446.63648  22863581.89448
  18357159.68005  24152667.42105  14304285.32647  24152664.83947
 -12724686.67607  21810361.79607  -9907260.15249  21810357.16749
  -8660397.62505  23396625.71005  -6741742.44547  23396621.64047
 -12151179.85507  22493127.69407  -9460196.91448  22493123.14048
 -11884279.38707  21592981.30407  -9257501.18049  21592974.37449
 -10743855.72707  22328125.28007  -8371917.67948  22328120.65548
 08 11 15  3 15  0.0030000  0  7  3  6  7  8 11 19 25
   9484898.10506  22879883.54606   7396185.81348  22879879.92548
  18444527.27006  24169293.01506  14372363.93247  24169289.75747
 -12706315.77307  21813858.02207  -9892945.18049  21813852.89449
  -8727069.58206  23383937.85806  -6793694.59747  23383934.01947
 -12226702.05907  22478756.39007  -9519045.34748  22478752.02248
 -11839321.21507  21601536.64007  -9222468.84449  21601530.38249
 -10687027.15207  22338939.17907  -8327635.69448  22338934.71048
 08 11 15  3 15 30.0030000  0  7  3  6  7  8 11 19 25
   9570712.50406  22896213.63206   7463054.14048  22896209.97948
  18531976.96506  24185934.10106  14440506.53447  24185931.24147
 -12687293.48407  21817477.74907  -9878122.62549  21817472.66349
  -8793242.47306  23371345.14706  -6845257.85247  23371342.83147
 -12301816.57407  22464462.51507  -9577576.12748  22464458.53848
 -11794052.85507  21610151.00707  -9187194.79549  21610144.35849
 -10629672.18807  22349853.77207  -8282943.53248  22349849.25748
 08 11 15  3 16  0.0030000  0  7  3  6  7  8 11 19 25
   9656695.87906  22912575.64006   7530054.12548  22912572.15148
  18619512.42205  24202592.20205  14508715.95947  24202589.22947
 -12667615.77007  21821222.33507  -9862789.35149  21821216.88649
  -8858909.72706  23358849.59306  -6896427.13547  23358846.36647
 -12376517.03107  22450247.83507  -9635784.27348  22450243.10448
 -11748471.43407  21618824.71807  -9151676.82849  21618818.46049
 -10571788.17607  22360868.39707  -8237839.12248  22360864.06548
 08 11 15  3 16 30.0030000  0  7  3  6  7  8 11 19 25
   9742849.73006  22928970.08506   7597186.96648  22928967.03048
  18707135.71505  24219266.05405  14576993.82247  24219263.95647
 -12647280.13307  21825092.42907  -9846943.41149  21825087.09749
  -8924065.52306  23346451.45206  -6947197.85647  23346447.23347
 -12450798.56607  22436112.44407  -9693665.96848  22436108.44848
 -11702575.83207  21627558.42907  -9115914.02949  21627551.90149
 -10513373.82407  22371984.37407  -8192321.45648  22371979.93748
 08 11 15  3 17  0.0030000  0  7  3  6  7  8 11 19 25
   9829172.00007  22945397.17107   7664451.04247  22945393.22247
  18794845.13705  24235956.82705  14645338.77746  24235954.63246
 -12626287.48007  21829086.96807  -9830585.51449  21829081.67949
  -8988707.55906  23334150.83506  -6997568.27647  23334146.29647
 -12524659.77707  22422056.54607  -9751220.15448  22422053.14448
 -11656368.16807  21636351.51507  -9079908.06549  21636345.15549
 -10454431.80107  22383200.74907  -8146392.64548  22383196.23348
 08 11 15  3 17 30.0030000  0  7  3  6  7  8 11 19 25
   9915661.92607  22961855.33507   7731845.79548  22961851.17148
  18882640.14104  24252662.68704  14713750.46046  24252660.84346
 -12604637.99607  21833206.71807  -9813715.80549  21833201.76149
  -9052833.20306  23321948.17106  -7047536.31347  23321943.30847
 -12598098.63707  22408082.15507  -9808445.22648  22408078.44848
 -11609849.86707  21645203.81907  -9043660.05249  21645197.27649
 -10394963.35507  22394517.29607  -8100053.60148  22394512.66348
 08 11 15  3 18  0.0030000  0  7  3  6  7  8 11 19 25
  10002317.32807  22978345.35807   7799369.46448  22978341.74148
  18970518.98004  24269386.05404  14782227.41846  24269382.57346
 -12582333.21507  21837450.90507  -9796335.46049  21837446.08149
  -9116440.89506  23309843.61606  -7097100.77947  23309839.36247
 -12671114.29707  22394188.30407  -9865340.53548  22394183.14448
 -11563023.00007  21654114.31907  -9007171.58649  21654108.24949
 -10334971.41807  22405933.10107  -8053306.64048  22405929.12848
 08 11 15  3 18 30.0030000  0  7  3  6  7  8 11 19 25
  10089143.68807  22994868.13207   7867026.33948  22994864.44848
  19058487.60205  24286126.24105  14850774.26146  24286122.31946
 -12559366.50807  21841821.40507  -9778439.32449  21841816.65549
  -9179520.75806  23297839.46806  -7146253.90547  23297835.55047
 -12743697.50007  22380375.96807  -9921898.86948  22380370.85448
 -11515882.40607  21663085.06207  -8970438.66649  21663078.81249
 -10274450.74607  22417449.99907  -8006147.70248  22417445.40948
 08 11 15  3 19  0.0030000  0  7  3  6  7  8 11 19 25
  10176136.12507  23011422.14707   7934812.63948  23011418.61248
  19146541.52305  24302882.04605  14919387.70846  24302879.36646
 -12535742.34407  21846316.74107  -9760030.90749  21846312.02249
  -9242074.22306  23285936.08506  -7194996.89747  23285932.49147
 -12815850.61307  22366645.90507  -9978122.06948  22366640.42148
 -11468433.88307  21672114.14007  -8933465.80149  21672108.13649
 -10213407.04707  22429066.41307  -7958581.20048  22429061.90948
 08 11 15  3 19 30.0030000  0  7  3  6  7  8 11 19 25
  10263283.85906  23028005.48306   8002719.93248  23028002.85848
  19234670.28103  24319651.04603  14988059.44546  24319650.13646
 -12511470.42207  21850935.60107  -9741117.71249  21850930.63249
  -9304107.88706  23274131.66306  -7243334.81547  23274128.10847
 -12887580.96907  22352995.81207 -10034015.83548  22352990.56948
 -11420688.00407  21681199.67907  -8896261.22849  21681193.12449
 -10151851.58607  22440780.23307  -7910615.92848  22440775.48748
 08 11 15  3 20  0.0030000  0  7  3  6  7  8 11 19 25
  10350588.27706  23044619.62406   8070749.29848  23044616.22948
  19322876.17202  24336437.13202  15056791.18045  24336435.28045
 -12486548.55107  21855678.19407  -9721698.10049  21855673.80849
  -9365616.66806  23262426.83506  -7291263.72947  23262423.06247
 -12958883.21507  22339427.20207 -10089576.00348  22339422.18348
 -11372643.23407  21690342.42107  -8858823.76249  21690335.99549
 -10089783.28507  22452591.53007  -7862251.03848  22452586.82748
 08 11 15  3 20 30.0030000  0  7  3  6  7  8 11 19 25
  10438042.09006  23061261.43706   8138895.10148  23061257.44048
  19411151.73402  24353235.38202  15125577.30545  24353233.42945
 -12460983.38707  21860542.61607  -9701777.21249  21860537.77649
  -9426604.21106  23250822.03806  -7338786.50147  23250816.88247
 -13029762.44907  22325939.13207 -10144806.56948  22325934.78448
 -11324307.54707  21699540.56207  -8821159.59949  21699534.02649
 -10027210.65607  22464498.73307  -7813493.17648  22464493.34748
 08 11 15  3 21  0.0030000  0  7  3  6  7  8 11 19 25
  10525650.06306  23077932.78006   8207161.02247  23077928.53447
  19499502.10502  24370049.02202  15194421.73245  24370045.78845
 -12434770.00807  21865531.38207  -9681351.20949  21865526.60849
  -9487061.96506  23239316.57706  -7385896.42247  23239312.45647
 -13100210.91007  22312533.42107 -10199701.46248  22312528.15548
 -11275676.62907  21708794.58507  -8783265.38049  21708788.39749
  -9964129.36307  22476502.95207  -7764338.93048  22476497.46448
 08 11 15  3 21 30.0030000  0  7  3  6  7  8 11 19 25
  10613413.63706  23094633.78806   8275548.20448  23094629.82748
  19587929.67203  24386876.01503  15263326.25445  24386872.81945
 -12407905.90207  21870643.38207  -9660418.14349  21870638.24549
  -9546984.17206  23227913.59306  -7432589.02647  23227909.64747
 -13170223.78507  22299211.00707 -10254256.96348  22299205.00348
 -11226749.21507  21718105.20207  -8745140.13449  21718099.14749
  -9900538.36307  22488603.35107  -7714787.53148  22488598.92948
 08 11 15  3 22  0.0030000  0  7  3  6  7  8 11 19 25
  10701338.63706  23111364.58506   8344061.14247  23111361.77247
  19676439.87901  24403718.96001  15332295.23845  24403716.08145
 -12380385.03107  21875880.31207  -9638973.32149  21875875.54649
  -9606361.89806  23216613.90506  -7478857.35647  23216610.90547
 -13239792.51607  22285971.85807 -10308466.34048  22285966.74948
 -11177520.21907  21727473.50707  -8706779.89249  21727466.78849
  -9836433.12507  22500802.28807  -7664835.41948  22500797.63248
 08 11 15  3 22 30.0030000  0  7  3  6  7  8 11 19 25
  10789414.50406  23128125.60106   8412691.65748  23128121.75748
         0.00000  24420575.95201         0.00000  24420573.25740
 -12352217.14807  21881240.60807  -9617024.33549  21881235.41349
  -9665201.79307  23205417.96007  -7524706.60348  23205413.95648
 -13308924.59007  22272816.57707 -10362335.46848  22272811.72248
 -11128000.53107  21736896.57707  -8668193.12549  21736890.25749
  -9771824.64807  22513097.11607  -7614491.16948  22513091.95648
 08 11 15  3 23  0.0030000  0  6  3  7  8 11 19 25
  10877634.37506  23144913.09306   8481434.40247  23144909.80847
 -12323409.03507  21886722.76507  -9594576.45749  21886717.45249
  -9723507.13307  23194322.49907  -7570139.32747  23194318.83147
 -13377624.16407  22259743.28007 -10415867.58948  22259738.26148
 -11078197.12907  21746373.68707  -8629385.29449  21746367.09749
  -9706720.94507  22525485.28807  -7563761.02148  22525481.56248
 08 11 15  3 23 30.0030000  0  7  3  6  7  8 11 19 25
  10965997.38706  23161727.06906   8550288.64447  23161724.65947
  19942380.60911  24454328.19401         0.00000         0.00000
 -12293960.89107  21892326.26507  -9571629.86449  21892321.70249
  -9781274.74207  23183330.08507  -7615153.04248  23183326.06548
 -13445888.68807  22246753.53807 -10469060.71748  22246748.01148
 -11028111.37107  21755904.75707  -8590357.44249  21755898.39449
  -9641123.46507  22537968.40507  -7512646.12448  22537964.30048
 08 11 15  3 24  0.0030000  0  7  3  6  7  8 11 19 25
  11054504.78106  23178570.80406   8619255.40847  23178566.40947
  20031163.30901  24471223.22601         0.00000         0.00000
 -12263871.13307  21898052.41307  -9548183.31949  21898047.03849
  -9838500.29707  23172440.07707  -7659744.36548  23172436.79648
 -13513714.07007  22233846.79607 -10521911.66748  22233841.49148
 -10977742.15207  21765490.02207  -8551108.70949  21765483.39049
  -9575031.76607  22550545.07707  -7461146.11548  22550540.70648
 08 11 15  3 24 30.0030000  0  7  3  6  7  8 11 19 25
  11143142.80906  23195437.18706   8688323.95847  23195433.98747
  20120000.34402  24488126.56902  15677925.80555  24488123.83545
 -12233152.82007  21903897.55407  -9524246.97649  21903892.38249
  -9895193.42207  23161651.84307  -7703920.83448  23161648.21848
 -13581110.71107  22221021.36607 -10574428.52348  22221016.54248
 -10927103.59407  21775125.99107  -8511650.11049  21775119.18349
  -9508460.32407  22563213.23307  -7409272.27648  22563209.58948
 08 11 15  3 25  0.0030000  0  7  3  6  7  8 11 19 25
  11231903.95706  23212327.67906   8757488.45147  23212325.26547
  20208884.56303  24505040.99903  15747186.21845  24505037.55045
 -12201813.23807  21909861.23307  -9499826.51949  21909856.67549
  -9951357.99206  23150964.36606  -7747685.43848  23150960.73348
 -13648083.46107  22208276.89007 -10626615.07648  22208271.69048
 -10876203.50807  21784812.06207  -8471987.70649  21784805.78449
  -9441417.37507  22575971.06907  -7357031.03448  22575967.19448
 08 11 15  3 25 30.0030000  0  7  3  6  7  8 11 19 25
  11320803.61306  23229245.10106   8826760.85847  23229242.28847
  20297831.69102  24521967.17902  15816495.71945  24521963.50345
 -12169836.39807  21915946.38207  -9474909.52049  21915941.67949
 -10006975.14506  23140380.87406  -7791023.48248  23140376.53848
 -13714614.11307  22195616.64007 -10678457.13348  22195611.63648
 -10825026.68407  21794550.69407  -8432109.67749  21794544.16349
  -9373888.73007  22588821.63207  -7304411.33148  22588817.00348
 08 11 15  3 26  0.0030000  0  7  3  6  7  8 11 19 25
  11409826.04306  23246184.88206   8896128.95047  23246182.72947
  20386826.23002  24538902.78802  15885842.03945  24538899.56945
 -12137238.46507  21922149.60807  -9449508.53149  21922144.98749
 -10062057.02306  23129898.64006  -7833944.42447  23129894.99947
 -13780715.65207  22183038.01507 -10729964.81048  22183032.96048
 -10773589.58207  21804338.77207  -8392028.82049  21804332.26149
  -9305891.04707  22601761.23307  -7251426.13348  22601757.31548
 08 11 15  3 26 30.0040000  0  7  3  6  7  8 11 19 25
  11498986.97306  23263152.34006   8965604.95747  23263149.00447
  20475884.39502  24555851.09002  15955237.92245  24555848.23045
 -12104004.79307  21928473.71507  -9423612.17449  21928469.30949
 -10116588.88306  23119521.57406  -7876436.76347  23119517.43047
 -13846374.58607  22170543.52707 -10781127.61348  22170537.95348
 -10721878.10507  21814179.26907  -8351734.17949  21814172.23049
  -9237410.14807  22614792.56607  -7198064.41448  22614788.57048
 08 11 15  3 27  0.0040000  0  7  3  6  7  8 11 19 25
  11588267.96906  23280142.29306   9035174.50947  23280137.62947
  20564988.13701  24572804.16801  16024669.37943  24572803.97743
 -12070149.78507  21934916.33207  -9397231.65049  21934911.15249
 -10170576.26606  23109248.16006  -7918504.87447  23109244.37147
 -13911596.21908  22158132.37908 -10831949.65148  22158127.21148
 -10669908.62907  21824068.56607  -8311238.49449  21824061.90249
  -9168464.23007  22627912.71507  -7144340.32048  22627908.15648
 08 11 15  3 27 30.0040000  0  7  3  6  7  8 11 19 25
  11677675.10507  23297155.87907   9104842.36947  23297152.04347
  20654143.73802  24589772.19902         0.00000         0.00000
 -12035669.56307  21941477.77707  -9370363.95949  21941472.71949
 -10224014.76606  23099079.34806  -7960145.25147  23099075.11347
 -13976376.81607  22145804.86307 -10882428.04748  22145800.17248
 -10617676.63707  21834008.32407  -8270538.25949  21834001.45349
  -9099048.83607  22641121.84007  -7090250.42848  22641118.03948
 08 11 15  3 28  0.0040000  0  7  3  6  7  8 11 19 25
  11767204.35207  23314192.85507   9174605.39847  23314189.30147
  20743347.86302  24606746.94902         0.00000         0.00000
 -12000567.75807  21948157.18407  -9343011.90849  21948152.32049
 -10276904.61707  23089014.42607  -8001358.11147  23089010.80147
 -14040717.51207  22133561.01907 -10932563.65248  22133556.09448
 -10565186.61307  21843996.71507  -8229636.94249  21843990.44549
  -9029168.93807  22654419.62907  -7035798.57748  22654415.67648
 08 11 15  3 28 30.0040000  0  7  3  6  7  8 11 19 25
  11856863.37907  23331254.15207   9244469.56548  23331251.12548
  20832608.17203  24623737.32403         0.00000         0.00000
 -11964836.80107  21954956.85507  -9315169.61749  21954951.50449
 -10329234.97306  23079056.40206  -8042135.02347  23079052.67647
 -14104607.93807  22121403.01207 -10982348.36449  22121398.43749
 -10512431.19908  21854035.49608  -8188528.84649  21854029.38349
  -8958818.17607  22667807.31607  -6980979.81148  22667802.94148
 08 11 15  3 29  0.0040000  0  7  3  6  7  8 11 19 25
  11946664.29307  23348342.82407   9314444.28347  23348339.80147
  20921937.75002  24640732.24602         0.00000         0.00000
 -11928463.90607  21961878.16007  -9286827.11549  21961872.87949
 -10380989.55106  23069207.80106  -8082463.24047  23069203.88747
 -14168032.87508  22109334.01208 -11031770.36549  22109329.23049
 -10459398.20307  21864127.39407  -8147204.43449  21864121.19949
  -8887984.91407  22681285.63707  -6925785.07048  22681281.82048
 08 11 15  3 29 30.0040000  0  7  3  6  7  8 11 19 25
  12036613.62507  23365459.44907   9384534.64147  23365456.19947
  21011343.26201  24657744.91001         0.00000         0.00000
 -11891442.91807  21968923.34007  -9257979.60949  21968917.45349
 -10432158.73006  23059470.48806  -8122335.33147  23059466.60947
 -14230983.39508  22097354.91808 -11080822.71148  22097349.07448
 -10406081.96907  21874273.41007  -8105659.33449  21874266.78549
  -8816664.02007  22694857.88707  -6870210.34748  22694853.91448
 08 11 15  3 30  0.0040000  0  7  3  6  7  8 11 19 25
  12126716.80907  23382606.34807   9454744.86947  23382601.87547
  21100830.35201  24674774.32401         0.00000         0.00000
 -11853768.29707  21976092.46507  -9228622.77049  21976087.41849
 -10482733.95306  23049847.01906  -8161744.58347  23049842.64147
 -14293451.49607  22085467.46507 -11129499.14148  22085462.48048
 -10352477.18407  21884473.91807  -8063889.38049  21884467.28949
  -8744851.35907  22708523.45707  -6814252.45248  22708518.84048
 08 11 15  3 30 30.0040000  0  7  3  6  7  8 11 19 25
  12216978.44506  23399782.35506   9525078.59347  23399778.56247
         0.00000  24691818.76901         0.00000         0.00000
 -11815435.95307  21983386.73807  -9198753.43549  21983381.85249
 -10532707.49206  23040336.79306  -8200685.00647  23040332.81247
 -14355429.99608  22073673.51208 -11177794.06848  22073668.35248
 -10298580.52007  21894729.89407  -8021891.99449  21894723.66449
  -8672543.81307  22722283.30907  -6757908.93248  22722278.87148
 08 11 15  3 31  0.0040000  0  6  3  7  8 11 19 25
  12307392.32006  23416987.21506   9595530.92947  23416983.79747
 -11776451.11307  21990805.21507  -9168375.64149  21990800.26649
 -10582081.38705  23030940.38705  -8239158.15947  23030937.60247
 -14416921.47707  22061971.77707 -11225709.49948  22061966.71548
 -10244397.74607  21905040.80107  -7979671.66449  21905035.00449
  -8599747.86707  22736135.85507  -6701184.83248  22736131.38348
 08 11 15  3 31 30.0040000  0  6  3  7  8 11 19 25
  12397959.46906  23434221.41806   9666102.70748  23434218.06248
 -11736813.56607  21998348.19107  -9137489.24249  21998343.45349
 -10630851.52705  23021660.07405  -8277160.86547  23021656.79747
 -14477923.32407  22050363.54307 -11273243.39248  22050358.37548
 -10189928.26607  21915405.84807  -7937227.93849  21915400.17649
  -8526464.16007  22750081.37907  -6644080.66648  22750076.70748
 08 11 15  3 32  0.0040000  0  6  3  7  8 11 19 25
  12488679.75406  23451485.51206   9736793.81848  23451481.73448
 -11696523.57007  22006014.84807  -9106094.45649  22006010.28149
 -10679015.32005  23012495.29305  -8314691.08347  23012491.55547
 -14538432.76207  22038848.96507 -11320393.59248  22038843.22748
 -10135172.83607  21925825.37907  -7894561.37649  21925819.13349
  -8452694.24607  22764119.37907  -6586597.63548  22764114.69148
 08 11 15  3 32 30.0040000  0  6  3  7  8 11 19 25
  12579540.85507  23468775.52707   9807594.65148  23468772.41048
 -11655593.64507  22013803.35507  -9074201.00549  22013798.46549
 -10726581.57405  23003443.19105  -8351755.67047  23003440.05147
 -14598459.41007  22027426.23007 -11367167.58848  22027420.61348
 -10080144.37507  21936297.13707  -7851682.08149  21936290.64849
  -8378451.43007  22778247.22307  -6528746.12748  22778242.65248
 08 11 15  3 33  0.0040000  0  6  3  7  8 11 19 25
  12670542.49206  23486092.04306   9878504.98748  23486089.72348
 -11614024.00407  22021714.26207  -9041809.08349  22021709.29749
 -10773547.22705  22994506.82405  -8388352.31647  22994502.64447
 -14658000.94107  22016095.69107 -11413563.59448  22016089.86748
 -10024843.59407  21946820.36307  -7808590.57249  21946813.94149
  -8303737.43407  22792464.82407  -6470527.42548  22792460.45348
 08 11 15  3 33 30.0040000  0  6  3  7  8 11 19 25
  12761667.96106  23503432.78506   9949511.80447  23503430.15247
 -11571831.54307  22029743.18407  -9008931.84449  22029738.31249
 -10819925.70305  22985681.19905  -8424491.34547  22985677.45747
 -14717071.50007  22004854.66007 -11459592.58248  22004849.20348
  -9969287.24607  21957392.44107  -7765299.93849  21957386.43749
  -8228569.84407  22806768.28507  -6411955.30448  22806764.03948
 08 11 15  3 34  0.0040000  0  6  3  7  8 11 19 25
  12852919.42606  23520797.46506  10020616.79247  23520794.41047
 -11529014.46907  22037890.94107  -8975567.87249  22037886.36749
 -10865711.42205  22976968.27705  -8460168.55147  22976964.70347
 -14775666.39808  21993704.64408 -11505250.93248  21993699.29348
  -9913473.71507  21968013.35507  -7721808.88449  21968007.01249
  -8152947.78107  22821159.34807  -6353029.04248  22821154.39848
 08 11 15  3 34 30.0040000  0  6  3  7  8 11 19 25
  12944288.41006  23538184.61306  10091813.36547  23538180.97747
 -11485581.63307  22046155.59807  -8941724.11349  22046151.21549
 -10910909.90605  22968366.61305  -8495388.11447  22968363.11747
 -14833791.64807  21982643.77707 -11550543.32648  21982638.62148
  -9857411.83207  21978681.68407  -7678124.31649  21978675.78149
  -8076881.55107  22835633.92607  -6293756.67048  22835629.33648
 08 11 15  3 35  0.0040000  0  7  3  6  7  8 11 19 25
  13035781.47306  23555595.13706  10163106.62347  23555591.47747
     54121.97311  24845855.05901         0.00000         0.00000
 -11441526.37907  22054539.27707  -8907395.33949  22054534.61349
 -10955511.32005  22959879.59805  -8530142.45147  22959875.66047
 -14891437.66807  21971673.81607 -11595462.29449  21971669.02749
  -9801095.50407  21989398.31607  -7634241.48049  21989392.11349
  -8000365.18807  22850194.61307  -6234133.54248  22850190.34848
 08 11 15  3 35 30.0040000  0  6  3  7  8 11 19 25
  13127399.59406  23573029.51206  10234497.29747  23573026.82047
 -11396848.42607  22063041.11307  -8872581.36449  22063036.34449
 -10999511.63306  22951506.64406  -8564428.41047  22951503.24247
 -14948601.58207  21960796.43407 -11640005.60649  21960791.39849
  -9744524.16807  22000163.46507  -7590159.90949  22000157.17249
  -7923399.52007  22864840.88707  -6174160.32548  22864836.67648
 08 11 15  3 36  0.0040000  0  6  3  7  8 11 19 25
  13219139.47706  23590486.93406  10305982.90447  23590484.39447
 -11351551.63707  22071660.91807  -8837285.16349  22071656.00449
 -11042911.06306  22943248.34006  -8598246.14447  22943243.98447
 -15005284.03907  21950009.90207 -11684173.74248  21950005.07448
  -9687701.59807  22010976.42607  -7545882.58449  22010970.73449
  -7845989.26607  22879571.31607  -6113840.68248  22879566.95348
 08 11 15  3 36 30.0040000  0  6  3  7  8 11 19 25
  13311006.53106  23607968.38706  10377567.59247  23607965.64847
 -11305630.46907  22080399.66007  -8801502.44749  22080394.57049
 -11085701.27306  22935105.71506  -8631589.18647  22935101.01647
 -15061477.18007  21939316.69907 -11727960.61048  21939311.75448
  -9630622.80107  22021838.21507  -7501405.62349  22021832.19949
  -7768130.22306  22894387.12906  -6053171.29248  22894383.01648
 08 11 15  3 37  0.0040000  0  6  3  7  8 11 19 25
  13402986.32806  23625471.85506  10449240.12247  23625468.82847
 -11259100.58607  22089254.20707  -8765245.41849  22089248.48049
 -11127893.94906  22927076.62106  -8664466.58047  22927072.93047
 -15117193.34007  21928714.24607 -11771375.79649  21928709.34849
  -9573303.02308  22032746.07408  -7456740.86449  22032739.73849
  -7689838.68006  22909285.37906  -5992164.93948  22909281.75048
 08 11 15  3 37 30.0040000  0  6  3  7  8 11 19 25
  13495088.15206  23642998.72306  10521007.72947  23642995.45747
 -11211952.40607  22098225.91807  -8728506.59648  22098220.77748
 -11169476.34806  22919164.01906  -8696868.45547  22919159.27347
 -15172420.44507  21918204.87907 -11814409.90948  21918200.15648
  -9515733.00407  22043701.26207  -7411881.11449  22043695.12149
  -7611106.37107  22924267.94107  -5930815.11148  22924264.16848
 08 11 15  3 38  0.0040000  0  6  3  7  8 11 19 25
  13587299.41806  23660546.09806  10592860.60547  23660543.12147
 -11164199.00407  22107313.23007  -8691296.18449  22107307.80949
 -11210457.96907  22911365.21507  -8728802.17148  22911361.57848
 -15227168.64807  21907786.67607 -11857070.82148  21907782.13348
  -9457925.97307  22054701.47307  -7366836.68549  22054695.05149
  -7531947.20707  22939331.88707  -5869132.65648  22939326.99248
 08 11 15  3 38 30.0040000  0  6  3  7  8 11 19 25
  13679622.99606  23678114.64406  10664801.03547  23678111.07047
 -11115838.69507  22116515.82407  -8653612.84249  22116510.76949
 -11250833.29306  22903681.56606  -8760263.48048  22903677.58248
 -15281433.00408  21897460.55108 -11899354.74749  21897455.19549
  -9399879.32407  22065746.94907  -7321605.52549  22065740.95349
  -7452360.09006  22954476.43406  -5807116.73448  22954472.39848
 08 11 15  3 39  0.0040000  0  6  3  7  8 11 19 25
  13772049.01606  23695702.48806  10736821.25847  23695699.40647
 -11066881.28907  22125831.75407  -8615464.21449  22125827.66849
 -11290608.48006  22896113.22306  -8791257.13648  22896108.66848
 -15335220.70708  21887224.78508 -11941267.22949  21887219.98449
  -9341602.88707  22076836.96507  -7276195.32349  22076831.01649
  -7372355.98807  22969701.20707  -5744775.89448  22969697.30948
 08 11 15  3 39 30.0040000  0  6  3  7  8 11 19 25
  13864572.18406  23713308.96506  10808917.21247  23713306.50847
 -11017332.57807  22135260.90207  -8576854.84649  22135256.01949
 -11329786.51607  22888657.84807  -8821785.49248  22888654.17648
 -15388534.43807  21877079.47307 -11982810.39548  21877074.58248
  -9283102.46507  22087969.30907  -7230610.59649  22087963.16049
  -7291941.63306  22985003.10506  -5682115.37148  22984999.63348
 08 11 15  3 40  0.0040000  0  6  3  7  8 11 19 25
  13957187.10506  23730932.87906  10881084.63947  23730930.30547
 -10967199.57407  22144800.73807  -8537790.17849  22144795.97749
 -11368370.53906  22881315.76906  -8851850.97048  22881311.04348
 -15441378.43408  21867023.85508 -12023987.53049  21867019.02749
  -9224385.11307  22099142.55907  -7184856.81949  22099136.55549
  -7211124.89806  23000382.08206  -5619141.30848  23000377.55948
 08 11 15  3 40 30.0040000  0  6  3  7  8 11 19 25
  14049896.88706  23748575.37106  10953325.97247  23748571.54747
 -10916479.35507  22154452.68407  -8498267.95549  22154447.99249
 -11406353.84407  22874087.85507  -8881448.36048  22874082.87548
 -15493746.99608  21857058.63708 -12064794.18249  21857053.67649
  -9165447.55107  22110358.16807  -7138931.45449  22110352.19549
  -7129903.73406  23015838.59806  -5555852.12148  23015833.14848
 08 11 15  3 41  0.0040000  0  7  3  6  7  8 11 19 25
  14142699.14507  23766235.36307  11025639.38547  23766231.30147
     94265.68411  25052497.26201         0.00000         0.00000
 -10865174.58207  22164215.56607  -8458290.20249  22164210.63749
 -11443735.72706  22866973.77706  -8910577.10448  22866969.04348
 -15545639.67608  21847183.91008 -12105230.03949  21847178.55949
  -9106292.14507  22121615.15207  -7092836.33649  22121609.43749
  -7048281.67206  23031370.34806  -5492250.52148  23031366.38348
 08 11 15  3 41 30.0040000  0  7  3  6  7  8 11 19 25
  14235590.92207  23783911.79307  11098022.53447  23783908.19547
         0.00000  25069758.94901         0.00000         0.00000
 -10813288.82407  22174089.26207  -8417859.76549  22174084.59449
 -11480516.25007  22859974.88707  -8939237.25248  22859970.71148
 -15597057.05908  21837399.13708 -12145295.53049  21837394.17249
  -9046922.27307  22132912.72307  -7046574.12349  22132906.64149
  -6966263.28506  23046977.33206  -5428340.11548  23046973.57848
 08 11 15  3 42  0.0040000  0  6  3  7  8 11 19 25
  14328569.05906  23801605.34006  11170472.99947  23801602.52347
 -10760827.44507  22184072.21507  -8376980.77449  22184068.01949
 -11516697.12107  22853090.09007  -8967430.14648  22853085.93448
 -15648001.21908  21827704.95708 -12184992.26549  21827699.89449
  -8987342.57407  22144250.51907  -7000148.39349  22144244.24249
  -6883854.31307  23062659.80907  -5364125.35948  23062655.58648
 08 11 15  3 42 30.0040000  0  6  3  7  8 11 19 25
  14421631.17206  23819314.13706  11242988.87647  23819311.19147
 -10707792.26607  22194164.09007  -8335654.68449  22194160.13749
 -11552277.32807  22846319.06607  -8995154.96948  22846315.37148
 -15698471.67608  21818100.60508 -12224319.88249  21818095.37149
  -8927555.14507  22155627.77707  -6953560.79849  22155621.57849
  -6801057.99607  23078415.18407  -5299608.75048  23078411.36348
 08 11 15  3 43  0.0040000  0  6  3  7  8 11 19 25
  14514775.25806  23837039.01906  11315568.64447  23837035.44947
 -10654186.25407  22204365.35507  -8293883.77249  22204361.41049
 -11587255.95307  22839663.09807  -9022411.04448  22839658.94948
 -15748468.73407  21808586.53507 -12263278.61749  21808580.98049
  -8867562.87507  22167044.09807  -6906813.59649  22167037.64449
  -6717877.97706  23094244.12106  -5234793.17548  23094239.76948
 08 11 15  3 43 30.0040000  0  6  3  7  8 11 19 25
  14607998.17206  23854778.43406  11388209.84447  23854775.60247
 -10600013.08207  22214674.28507  -8251670.91849  22214670.05149
 -11621633.09807  22833121.54307  -9049198.43748  22833117.09448
 -15797992.61308  21799162.55908 -12301868.64149  21799157.23049
  -8807368.25807  22178498.16007  -6859908.70049  22178492.01249
  -6634318.85907  23110145.26207  -5169682.21348  23110140.89148
 08 11 15  3 44  0.0040000  0  6  3  7  8 11 19 25
  14701302.28907  23872533.84007  11460914.29947  23872531.18447
 -10545272.10207  22225090.84807  -8209015.62849  22225086.52349
 -11655404.59807  22826695.05907  -9075513.88448  22826690.11348
 -15847039.87107  21789829.31607 -12340087.27249  21789824.08649
  -8746970.50807  22189991.69107  -6812845.53449  22189985.73449
  -6550380.76207  23126117.51907  -5104275.90648  23126112.98048
 08 11 15  3 44 30.0040000  0  6  3  7  8 11 19 25
  14794691.88306  23890305.35506  11533685.35647  23890302.20747
 -10489959.98407  22235616.28507  -8165915.26249  22235612.21549
 -11688563.22707  22820385.11307  -9101351.78248  22820380.57048
 -15895603.00007  21780587.95707 -12377928.66049  21780582.38749
  -8686365.62907  22201524.51207  -6765620.96149  22201518.55549
  -6466060.71107  23142163.34007  -5038572.00848  23142159.03948
 08 11 15  3 45  0.0040000  0  7  3  7  8 11 19 25 28
  14888164.86306  23908092.83206  11606521.42047  23908088.82447
 -10434078.84407  22246250.51907  -8122371.55149  22246245.44549
 -11721108.09007  22814192.16807  -9126711.41148  22814188.02748
 -15943682.58207  21771438.30907 -12415393.24149  21771432.91849
  -8625555.52007  22213096.15207  -6718236.47749  22213090.36749
  -6381361.92206  23158281.02706  -4972572.96748  23158276.39148
   -143089.12915  25691923.97305   -104130.04956  25691919.68446
 08 11 15  3 45 30.0040000  0  7  3  7  8 11 19 25 28
  14981725.63706  23925896.18406  11679425.89947  23925893.47347
 -10377625.96107  22256993.26207  -8078382.31749  22256988.23449
 -11753032.81307  22808116.94107  -9151587.81048  22808112.84048
 -15991272.48407  21762382.54307 -12452476.28349  21762377.50449
  -8564536.88307  22224707.84007  -6670689.50449  22224701.22349
  -6296282.37906  23174470.77706  -4906277.24548  23174467.21948
   -220949.02305  25677107.35505   -164800.10346  25677103.86346
 08 11 15  3 46  0.0040000  0  7  3  7  8 11 19 25 28
  15075365.94106  23943715.50406  11752392.33147  23943713.89847
 -10320610.44107  22267843.13707  -8033954.64149  22267838.11749
 -11784342.73007  22802158.65207  -9175985.15648  22802154.23048
 -16038378.52707  21753418.62107 -12489182.27949  21753413.68049
  -8503318.69107  22236357.23007  -6622987.03749  22236350.82849
  -6210831.97706  23190731.29306  -4839692.52248  23190727.14448
   -298835.16405  25662285.99605   -225490.52346  25662281.70746
 08 11 15  3 46 30.0040000  0  7  3  7  8 11 19 25 28
  15169081.94506  23961549.25406  11825417.73647  23961547.63347
 -10263037.25407  22278798.32407  -7989092.45749  22278794.36749
 -11815039.69507  22796317.22307  -9199904.86148  22796312.89148
 -16085003.05507  21744545.76207 -12525513.07049  21744540.52749
  -8441904.80907  22248043.93407  -6575132.05449  22248037.25849
  -6125016.66806  23207061.44106  -4772823.48048  23207057.26948
   -376750.00005  25647459.03505   -286203.37446  25647454.84846
 08 11 15  3 47  0.0040000  0  7  3  7  8 11 19 25 28
  15262871.91406  23979397.31606  11898500.79548  23979394.25848
 -10204908.77307  22289860.29307  -7943797.56849  22289855.77349
 -11845122.27706  22790592.54306  -9223345.82548  22790588.48448
 -16131145.15607  21735765.51207 -12561467.95649  21735760.26949
  -8380297.21907  22259767.62907  -6527126.15749  22259761.10249
  -6038839.37906  23223461.41006  -4705672.34848  23223456.30548
   -454692.70304  25632626.48804   -346937.90546  25632622.64446
 08 11 15  3 47 30.0040000  0  7  3  7  8 11 19 25 28
  15356724.87506  23997256.55906  11971632.92647  23997253.51247
 -10146237.57407  22301025.44907  -7898079.73949  22301019.93749
 -11874599.69506  22784983.43406  -9246315.24748  22784979.63348
 -16176814.41808  21727075.13708 -12597054.37749  21727069.47749
  -8318507.78107  22271525.94107  -6478978.55849  22271519.07449
  -5952313.16006  23239926.07406  -4638249.35548  23239921.91448
   -532672.88305  25617787.91005   -407701.67046  25617783.21146
 08 11 15  3 48  0.0040000  0  7  3  7  8 11 19 25 28
  15450634.96905  24015127.31605  12044809.57447  24015124.15647
 -10087030.07407  22312291.95707  -7851944.05349  22312286.28149
 -11903474.87907  22779488.61307  -9268815.37948  22779483.92248
 -16222014.26607  21718473.64407 -12632275.04349  21718468.11349
  -8256542.66807  22283317.21507  -6430694.06449  22283311.72349
  -5865445.48806  23256456.23806  -4570560.29048  23256452.46148
   -610694.23405  25602941.31605   -468497.46246  25602936.64446
 08 11 15  3 48 30.0040000  0  7  3  7  8 11 19 25 28
  15544603.25006  24033008.88706  12118031.57547  24033005.94147
 -10027286.64507  22323660.68407  -7805390.75749  22323656.01649
 -11931744.35907  22774109.05107  -9290843.53648  22774104.41848
 -16266742.18807  21709962.18407 -12667127.95949  21709957.07449
  -8194401.00407  22295142.55107  -6382272.00249  22295136.23449
  -5778237.29706  23273051.68406  -4502605.88048  23273047.39148
   -688753.84805  25588086.44105   -529323.12046  25588082.26646
 08 11 15  3 49  0.0040000  0  7  3  7  8 11 19 25 28
  15638632.01606  24050902.47306  12191300.69247  24050898.92647
  -9967005.84407  22335132.09007  -7758418.74849  22335126.80949
 -11959403.31307  22768845.56607  -9312395.95248  22768841.94948
 -16310993.44908  21701541.55908 -12701609.45249  21701536.45349
  -8132081.03506  22307001.78506  -6333710.99249  22306995.09049
  -5690687.81606  23289711.49606  -4434385.50548  23289708.24248
   -766847.20304  25573224.51904   -590175.02046  25573221.33646
 08 11 15  3 49 30.0040000  0  7  3  7  8 11 19 25 28
  15732710.71106  24068805.47306  12264608.74247  24068801.63747
  -9906199.78107  22346702.69907  -7711037.38048  22346697.78148
 -11986460.53107  22763696.97307  -9333479.51248  22763693.08248
 -16354777.41808  21693209.60508 -12735726.84649  21693204.49649
  -8069594.18007  22318892.45707  -6285019.93949  22318885.57049
  -5602809.83607  23306434.21507  -4365909.20048  23306430.24248
   -844983.44105  25558357.14405   -651060.34046  25558353.38746
 08 11 15  3 50  0.0040000  0  7  3  7  8 11 19 25 28
  15826839.07406  24086717.59806  12337955.48647  24086713.94147
  -9844869.99207  22358373.15207  -7663247.94848  22358368.75448
 -12012913.83207  22758663.46507  -9354092.48148  22758659.16048
 -16398092.59808  21684966.98808 -12769478.91449  21684961.78549
  -8006941.11707  22330814.84807  -6236199.38849  22330808.93449
  -5514605.72707  23323219.53507  -4297178.74848  23323215.19548
   -923161.22305  25543479.88705   -711978.07146  25543475.90646
 08 11 15  3 50 30.0040000  0  7  3  7  8 11 19 25 28
  15921011.34406  24104637.44106  12411336.46447  24104634.12147
  -9783023.19107  22370142.39407  -7615055.63549  22370137.67249
 -12038766.88707  22753743.26207  -9374237.70748  22753739.29748
 -16440942.55107  21676813.07407 -12802868.48849  21676807.67249
  -7944127.73407  22342768.13707  -6187253.89549  22342761.40649
  -5426082.68007  23340064.45707  -4228199.76448  23340060.53148
  -1001384.35506  25528595.19106   -772931.15746  25528590.35546
 08 11 15  3 51  0.0040000  0  7  3  7  8 11 19 25 28
  16015226.40605  24122565.99605  12484750.74947  24122561.95747
  -9720662.40207  22382008.73807  -7566462.82549  22382004.49649
 -12064018.65207  22748937.94907  -9393914.42948  22748934.25048
 -16483326.87908  21668747.51208 -12835895.23749  21668741.82849
  -7881156.05507  22354751.21507  -6138185.07049  22354744.77349
  -5337244.13306  23356969.73806  -4158974.93548  23356965.82448
  -1079651.79706  25513701.26906   -833918.76046  25513695.84446
 08 11 15  3 51 30.0040000  0  7  3  7  8 11 19 25 28
  16109479.78905  24140501.90205  12558194.91747  24140498.70747
  -9657792.83207  22393972.51207  -7517473.56048  22393968.09048
 -12088670.86707  22744247.27707  -9413123.95948  22744242.84848
 -16525248.10908  21660770.46508 -12868561.14149  21660764.75049
  -7818030.69107  22366763.87907  -6088996.48549  22366756.82849
  -5248096.24606  23373933.97306  -4089509.08548  23373930.63348
  -1157965.98006  25498797.96506   -894942.73246  25498793.32846
 08 11 15  3 52  0.0040000  0  7  3  7  8 11 19 25 28
  16203770.80905  24158444.51905  12631668.37147  24158441.59047
  -9594416.29707  22406032.60507  -7468089.25248  22406028.14448
 -12112722.00007  22739669.88707  -9431865.10048  22739665.50048
 -16566705.04708  21652881.19108 -12900865.24349  21652875.76649
  -7754752.85907  22378804.86307  -6039689.09849  22378798.03549
  -5158641.30507  23390956.75407  -4019803.96348  23390953.19148
  -1236325.64506  25483887.06606   -956002.18546  25483882.27746
 08 11 15  3 52 30.0040000  0  7  3  7  8 11 19 25 28
  16298108.10206  24176396.76906  12705177.92547  24176393.68447
  -9530525.89507  22418191.04307  -7418304.53548  22418186.50048
 -12136161.82007  22735209.69107  -9450129.91148  22735205.88748
 -16607687.55108  21645082.52708 -12932799.65549  21645077.39149
  -7691314.28507  22390876.91007  -5990256.44549  22390870.28549
  -5068873.21906  23408039.32406  -3949854.83948  23408035.87548
  -1314720.73006  25468968.48006  -1017089.15947  25468964.41847
 08 11 15  3 53  0.0040000  0  7  3  7  8 11 19 25 28
  16392486.68806  24194356.10506  12778719.64047  24194353.21947
  -9466127.94907  22430445.19907  -7368124.32549  22430441.09449
 -12158993.24207  22730864.57407  -9467920.62448  22730860.84848
 -16648199.00408  21637373.45708 -12964367.02549  21637368.39449
  -7627720.66807  22402978.30107  -5940702.98949  22402972.46149
  -4978798.76206  23425179.94106  -3879666.98148  23425175.96548
  -1393154.17206  25454043.35506  -1078206.12746  25454038.75446
 08 11 15  3 53 30.0040000  0  7  3  7  8 11 19 25 28
  16486913.10506  24212325.23806  12852298.60847  24212321.80547
  -9401217.14507  22442797.62907  -7317544.50249  22442793.57849
 -12181207.52007  22726637.56607  -9485230.47548  22726633.59448
 -16688231.15608  21629755.49608 -12995560.89949  21629750.29349
  -7563965.64507  22415110.15207  -5891023.77549  22415104.19549
  -4888413.33606  23442379.75406  -3809236.80648  23442375.72748
  -1471617.44906  25439111.73006  -1139346.29747  25439107.90647
 08 11 15  3 54  0.0040000  0  7  3  7  8 11 19 25 28
  16581380.21905  24230301.48005  12925909.30647  24230299.09047
  -9335802.14107  22455246.07407  -7266571.79249  22455241.43449
 -12202809.72707  22722526.66807  -9502063.35448  22722523.32448
 -16727789.19508  21622228.12108 -13026385.36249  21622222.62149
  -7500057.05106  22427271.65206  -5841224.89049  22427265.57849
  -4797725.91006  23459636.93406  -3738571.29148  23459632.68448
  -1550115.73406  25424174.88706  -1200513.79847  25424170.53947
 08 11 15  3 54 30.0040000  0  7  3  7  8 11 19 25 28
  16675897.93005  24248287.38705  12999559.38147  24248284.99647
  -9269874.95307  22467791.54307  -7215199.96049  22467786.93049
 -12223788.09807  22718534.67607  -9518410.14048  22718530.85948
 -16766862.24208  21614792.63708 -13056831.86549  21614787.87149
  -7435985.65607  22439464.30907  -5791299.13949  22439457.82849
  -4706728.97706  23476953.24606  -3667664.60748  23476949.40248
  -1628637.46106  25409233.24606  -1261699.52247  25409228.97747
 08 11 15  3 55  0.0040000  0  7  3  7  8 11 19 25 28
  16770462.32405  24266282.69905  13073245.85247  24266279.10547
  -9203440.56607  22480433.85507  -7163432.92549  22480429.23449
 -12244144.36307  22714661.70707  -9534272.16548  22714657.83248
 -16805452.48808  21607449.29308 -13086902.18149  21607443.60549
  -7371755.42207  22451686.56607  -5741249.60349  22451680.58249
  -4615428.19506  23494326.31606  -3596521.17447  23494323.26247
  -1707184.41806  25394285.91006  -1322904.92247  25394281.62947
 08 11 15  3 55 30.0040000  0  7  3  7  8 11 19 25 28
  16865078.80905  24284287.34805  13146972.98747  24284284.10547
  -9136495.12107  22493173.30907  -7111267.65949  22493168.51249
 -12263871.30107  22710907.49607  -9549643.79848  22710903.92248
 -16843552.76208  21600199.08208 -13116590.70349  21600193.70749
  -7307361.56307  22463940.46507  -5691072.59349  22463934.20749
  -4523820.32806  23511759.63706  -3525138.46648  23511755.87548
  -1785748.96505  25379334.45705  -1384123.96147  25379331.03547
 08 11 15  3 56  0.0040000  0  7  3  7  8 11 19 25 28
  16959749.63305  24302303.05105  13220742.43947  24302299.98447
  -9069038.02007  22506009.71507  -7058703.68949  22506005.04349
 -12282964.69507  22707273.89407  -9564521.76748  22707270.09448
 -16881159.06308  21593042.71508 -13145894.29949  21593037.74649
  -7242802.27707  22476225.62107  -5640766.63949  22476218.98449
  -4431905.32007  23529250.66007  -3453516.38048  23529246.28148
  -1864327.82805  25364381.11305  -1445354.18547  25364377.05547
 08 11 15  3 56 30.0040000  0  7  3  7  8 11 19 25 28
  17054475.94506  24320329.90206  13294555.07747  24320326.80547
  -9001069.36707  22518943.81607  -7005741.12249  22518939.01249
 -12301421.47307  22703762.00407  -9578903.68348  22703757.99248
 -16918268.90608  21585980.91808 -13174811.06449  21585975.73849
  -7178076.83207  22488542.73007  -5590331.25549  22488536.28149
  -4339683.63706  23546799.35506  -3381655.34147  23546795.46147
  -1942917.28905  25349426.63705  -1506592.76547  25349422.07047
 08 11 15  3 57  0.0040000  0  7  3  7  8 11 19 25 28
  17149257.95706  24338365.34006  13368411.14847  24338363.12947
  -8932590.53107  22531974.97307  -6952381.01349  22531969.70349
 -12319239.85207  22700371.07407  -9592788.13348  22700367.56248
 -16954880.65608  21579013.51208 -13203339.69249  21579008.88749
  -7113185.66407  22500891.02707  -5539766.71449  22500884.44549
  -4247157.38707  23564407.26207  -3309557.04748  23564402.80948
  -2021515.29705  25334470.10505  -1567837.95147  25334465.61347
 08 11 15  3 57 30.0040000  0  7  3  7  8 11 19 25 28
  17244079.87905  24356409.17605  13442298.32947  24356406.28147
  -8863619.25407  22545099.73007  -6898637.16348  22545094.23048
 -12336434.13707  22697099.48807  -9606186.27848  22697095.21548
 -16991008.87908  21572138.91808 -13231491.54849  21572133.70749
  -7048145.11707  22513268.13707  -5489085.78849  22513261.69149
  -4154344.81307  23582069.20707  -3237235.58448  23582064.59048
  -2100135.98406  25319509.26906  -1629100.77947  25319505.03547
 08 11 15  3 58  0.0040000  0  7  3  7  8 11 19 25 28
  17338944.34406  24374461.26206  13516218.62947  24374457.85547
  -8794154.37507  22558318.00407  -6844508.72648  22558313.19148
 -12352999.17607  22693947.33207  -9619094.11248  22693943.07448
 -17026649.00407  21565356.62907 -13259263.07849  21565351.43449
  -6982952.54707  22525673.64407  -5438286.39348  22525666.55548
  -4061244.89107  23599784.83207  -3164690.21647  23599780.78147
  -2178774.26606  25304545.09806  -1690377.28947  25304540.09847
 08 11 15  3 58 30.0040000  0  7  3  7  8 11 19 25 28
  17433844.54306  24392520.05906  13590166.78647  24392517.31247
  -8724204.42207  22571629.01907  -6790002.28948  22571624.57448
 -12368940.62907  22690913.19907  -9631516.01048  22690909.20348
 -17061806.91808  21558666.55108 -13286658.84849  21558661.12549
  -6917615.69906  22538106.48006  -5387374.56648  22538099.79348
  -3967866.80106  23617553.99606  -3091928.09447  23617549.55147
  -2257435.53505  25289576.52705  -1751671.79246  25289570.87146
 08 11 15  3 59  0.0040000  0  7  3  7  8 11 19 25 28
  17528773.87906  24410584.58206  13664137.62947  24410582.64447
  -8653778.11707  22585030.97307  -6735124.64148  22585025.98848
 -12384263.36707  22687997.38707  -9643455.82848  22687994.16848
 -17096487.80508  21552066.72308 -13313682.92149  21552061.30149
  -6852141.96107  22550565.84007  -5336356.07148  22550558.88348
  -3874219.59806  23635374.63706  -3018956.29548  23635370.33248
  -2336124.46105  25274602.12905  -1812987.83546  25274597.85246
 08 11 15  3 59 30.0040000  0  7  3  7  8 11 19 25 28
  17623736.13705  24428655.28505  13738134.10847  24428653.10947
  -8582872.69907  22598523.73007  -6679873.68448  22598519.00848
 -12398961.57407  22685200.59807  -9654908.96048  22685196.10548
 -17130685.93808  21545559.14408 -13340330.80449  21545553.73049
  -6786527.21507  22563052.08207  -5285227.70149  22563045.73049
  -3780301.04306  23653247.65206  -2945773.02948  23653242.53948
  -2414835.02705  25259624.11305  -1874320.66247  25259619.87947
 08 11 15  4  0  0.0040000  0  7  3  7  8 11 19 25 28
  17718727.09406  24446731.96506  13812152.99547  24446729.10947
  -8511494.24207  22612106.56607  -6624254.12648  22612101.91048
 -12413037.88707  22682521.44107  -9665877.52148  22682518.00848
 -17164404.80508  21539143.10508 -13366605.25649  21539137.33649
  -6720776.34807  22575563.75407  -5233993.28649  22575557.60549
  -3686117.69106  23671169.54306  -2872383.40648  23671165.01648
  -2493569.57406  25244642.10506  -1935672.25947  25244636.83647
 08 11 15  4  0 30.0040000  0  7  3  7  8 11 19 25 28
  17813742.44106  24464813.04306  13886190.88547  24464809.59847
  -8439648.77307  22625778.48007  -6568270.66248  22625774.17248
 -12426495.21907  22679960.87107  -9676363.75348  22679957.33248
 -17197647.11708  21532817.25408 -13392508.34849  21532811.53949
  -6654894.26207  22588100.93407  -5182656.61449  22588094.93049
  -3591676.08606  23689141.01906  -2798792.56747  23689137.04347
  -2572330.48805  25229653.07405  -1997044.36646  25229649.10946
 08 11 15  4  1  0.0040000  0  7  3  7  8 11 19 25 28
  17908784.69506  24482899.17606  13960249.73347  24482896.14847
  -8367335.88307  22639539.19907  -6511922.99248  22639534.24248
 -12439329.52007  22677518.75407  -9686364.52048  22677515.02748
 -17230409.46508  21526582.51208 -13418037.45549  21526577.28549
  -6588879.06607  22600663.11307  -5131216.23349  22600657.50849
  -3496976.02306  23707162.01906  -2725000.35947  23707158.23047
  -2651113.29306  25214661.39406  -2058433.47947  25214656.85247
 08 11 15  4  1 30.0040000  0  7  3  7  8 11 19 25 28
  18003856.27306  24500990.73806  14034331.46547  24500987.39147
  -8294554.44107  22653388.66807  -6455210.18748  22653383.65248
 -12451536.38307  22675195.91007  -9695876.35648  22675192.02748
 -17262687.08208  21520440.26208 -13443188.83649  21520435.50049
  -6522728.16007  22613251.59007  -5079670.06949  22613245.05549
  -3402016.80106  23725231.73806  -2651006.20748  23725228.89848
  -2729913.13706  25199666.45706  -2119835.98747  25199661.32047
 08 11 15  4  2  0.0040000  0  7  3  7  8 11 19 25 28
  18098959.16005  24519087.80105  14108437.56747  24519084.60947
  -8221304.79707  22667327.83207  -6398132.57148  22667322.87548
 -12463112.95707  22672992.87907  -9704897.05448  22672989.50448
 -17294477.56608  21514390.98808 -13467960.63849  21514385.53549
  -6456440.62907  22625865.25407  -5028017.45749  22625859.50849
  -3306799.09406  23743351.73006  -2576810.62847  23743346.98847
  -2808726.93805  25184668.22305  -2181249.27247  25184663.40247
 08 11 15  4  2 30.0040000  0  7  3  7  8 11 19 25 28
  18194087.30505  24537189.64405  14182563.36847  24537187.37947
  -8147594.35207  22681354.43407  -6340695.87048  22681350.15648
 -12474063.54307  22670908.95707  -9713429.98848  22670905.41448
 -17325785.43408  21508432.95708 -13492356.38349  21508427.93749
  -6390022.78507  22638504.20707  -4976263.31149  22638498.01949
  -3211331.03106  23761518.77706  -2502419.96647  23761513.85247
  -2887558.38706  25169667.51206  -2242676.33047  25169662.36347
 08 11 15  4  3  0.0040000  0  7  3  7  8 11 19 25 28
  18289235.79705  24555295.48005  14256705.03446  24555294.34846
  -8073430.62107  22695467.31607  -6282906.01448  22695462.89848
 -12484391.82408  22668943.85508  -9721477.99948  22668939.91048
 -17356614.90608  21502566.45708 -13516379.36149  21502561.00049
  -6323480.18807  22651166.76907  -4924411.97448  22651160.61748
  -3115619.96107  23779732.09807  -2427839.96047  23779727.04747
  -2966410.50406  25154662.70706  -2304119.51847  25154657.16447
 08 11 15  4  3 30.0040000  0  7  3  7  8 11 19 25 28
  18384410.58204  24573407.03504  14330867.12946  24573405.37146
  -7998809.32007  22709667.41007  -6224759.56848  22709663.09848
 -12494090.43407  22667098.30107  -9729035.35248  22667093.87548
 -17386958.86308  21496792.12108 -13540023.99949  21496786.91849
  -6256807.43007  22663855.06607  -4872459.18549  22663848.22349
  -3019662.14506  23797991.92606  -2353067.65047  23797987.82447
  -3045275.61706  25139654.86306  -2365572.78047  25139650.20347
 08 11 15  4  4  0.0040000  0  7  3  7  8 11 19 25 28
  18479602.10904  24591521.86304  14405042.34246  24591519.57446
  -7923741.66407  22723952.08207  -6166265.31248  22723947.31248
 -12503167.28907  22665371.22307  -9736108.24048  22665366.94948
 -17416825.31308  21491108.52708 -13563296.56649  21491103.48849
  -6190014.27007  22676564.73807  -4820412.57348  22676558.75448
  -2923469.23006  23816296.57406  -2278112.17547  23816292.91047
  -3124160.94106  25124643.62906  -2427041.83247  25124638.80547
 08 11 15  4  4 30.0040000  0  7  3  7  8 11 19 25 28
  18574817.90604  24609640.70704  14479236.40746  24609638.15246
  -7848222.61307  22738323.05907  -6107419.33348  22738318.19148
 -12511614.32807  22663763.36307  -9742690.34448  22663759.66048
 -17446205.89108  21485517.98008 -13586190.51549  21485512.90249
  -6123094.05507  22689299.05907  -4768266.96449  22689293.32849
  -2827036.48006  23834646.97306  -2202969.77847  23834643.52347
  -3203057.52006  25109629.98806  -2488519.63647  25109625.35247
 08 11 15  4  5  0.0040000  0  7  3  7  8 11 19 25 28
  18670053.87104  24627763.85504  14553446.18846  24627761.09446
  -7772257.09807  22752778.91007  -6048225.44648  22752773.70348
 -12519432.67207  22662275.64407  -9748782.55848  22662271.55148
 -17475102.78508  21480019.09008 -13608707.57849  21480013.94149
  -6056049.96907  22702057.35507  -4716024.83148  22702051.03548
  -2730368.90606  23853042.69906  -2127644.47047  23853038.38747
  -3281966.40206  25094613.83206  -2550007.02547  25094609.43747
 08 11 15  4  5 30.0040000  0  7  3  7  8 11 19 25 28
  18765309.18005  24645891.13705  14627671.06046  24645888.03546
  -7695848.90207  22767318.92607  -5988686.60948  22767313.51648
 -12526623.20707  22660907.16007  -9754385.57848  22660903.68748
 -17503516.63308  21474612.08208 -13630848.24449  21474606.75449
  -5988884.58607  22714838.48007  -4663688.19448  22714831.81248
  -2633470.88306  23871482.05906  -2052139.54147  23871476.67647
  -3360887.23806  25079595.78506  -2611503.80047  25079591.21147
 08 11 15  4  6  0.0040000  0  7  3  7  8 11 19 25 28
  18860588.33604  24664021.67604  14701914.50546  24664018.87946
  -7618995.25807  22781943.37907  -5928800.67548  22781938.87548
 -12533180.10207  22659659.39407  -9759494.85748  22659656.05548
 -17531442.02708  21469297.97308 -13652608.28949  21469292.57449
  -5921594.06307  22727643.52707  -4611254.02848  22727636.96148
  -2536339.96506  23889965.93406  -1976453.15647  23889960.68447
  -3439813.61706  25064576.45706  -2673004.83247  25064571.60947
 08 11 15  4  6 30.0040000  0  7  3  7  8 11 19 25 28
  18955888.08604  24682156.26204  14776173.95946  24682153.91846
  -7541701.65607  22796652.22307  -5868571.93548  22796646.93748
 -12539105.74207  22658531.65207  -9764112.24648  22658528.18448
 -17558880.85508  21464076.58208 -13673989.19649  21464071.32049
  -5854181.58207  22740471.73007  -4558724.83048  22740465.72348
  -2438981.66006  23908492.57406  -1900589.56747  23908487.37947
  -3518746.43006  25049556.37106  -2734510.90147  25049551.26247
 08 11 15  4  7  0.0040000  0  7  3  7  8 11 19 25 28
  19051217.71104  24700296.99604  14850456.73446  24700294.60946
  -7463960.39507  22811446.08207  -5807994.34048  22811441.19148
 -12544389.25807  22657526.55907  -9768229.25848  22657522.57048
 -17585822.64808  21458949.48008 -13694982.79749  21458944.22349
  -5786638.29707  22753324.94107  -4506093.72349  22753318.69949
  -2341388.88306  23927062.84006  -1824543.26747  23927058.70347
  -3597674.49206  25034537.08206  -2796013.27247  25034532.52347
 08 11 15  4  7 30.0040000  0  7  3  7  8 11 19 25 28
  19146570.24205  24718442.23805  14924757.39046  24718439.65646
  -7385780.32807  22826323.12107  -5747074.80148  22826318.33248
 -12549036.25407  22656642.21507  -9771850.29748  22656638.47348
 -17612273.05507  21453916.52707 -13715593.50749  21453911.31249
  -5718971.41807  22766201.39407  -4453366.28448  22766195.24648
  -2243570.51606  23945676.88706  -1748321.21147  23945674.57047
  -3676602.22306  25019517.09806  -2857515.38347  25019512.58247
 08 11 15  4  8  0.0040000  0  7  3  7  8 11 19 25 28
  19241946.68005  24736591.53505  14999076.65446  24736589.13746
  -7307163.04307  22841283.38707  -5685814.62848  22841278.89148
 -12553045.15207  22655879.59007  -9774974.12348  22655876.14448
 -17638230.72707  21448976.53507 -13735820.24349  21448971.30549
  -5651180.59807  22779101.48007  -4400542.28548  22779095.40648
  -2145528.49606  23964334.58206  -1671924.89447  23964330.25447
  -3755527.31606  25004498.02706  -2919015.41547  25004493.98047
 08 11 15  4  8 30.0040000  0  7  3  7  8 11 19 25 28
  19337348.39804  24754745.64404  15073415.58246  24754743.79346
  -7228109.21907  22856326.93407  -5624214.28048  22856322.53148
 -12556413.37508  22655238.56608  -9777598.71348  22655234.60948
 -17663693.26207  21444131.21507 -13755661.18949  21444126.25849
  -5583264.91407  22792025.16007  -4347620.96848  22792019.13748
  -2047263.61706  23983033.51906  -1595354.87147  23983029.68747
  -3834446.25406  24989480.12106  -2980510.67247  24989475.35247
 08 11 15  4  9  0.0040000  0  7  3  7  8 11 19 25 28
  19432776.35504  24772905.29304  15147774.97046  24772903.14146
  -7148620.02007  22871453.44107  -5562274.65948  22871448.24248
 -12559139.22707  22654719.62907  -9779722.74848  22654715.70748
 -17688658.85507  21439380.87107 -13775114.89549  21439375.32849
  -5515223.83607  22804973.56607  -4294601.96848  22804967.17648
  -1948777.39806  24001774.23806  -1518612.37847  24001770.92247
  -3913356.18006  24974464.53506  -3041998.89147  24974459.33247
 08 11 15  4  9 30.0040000  0  7  3  7  8 11 19 25 28
  19528232.09004  24791070.55104  15222155.97046  24791067.38346
  -7068695.69107  22886662.21507  -5499995.98748  22886657.34848
 -12561219.68007  22654323.93407  -9781343.89448  22654319.85948
 -17713124.64507  21434724.77707 -13794179.13349  21434719.60949
  -5447056.13307  22817945.21507  -4241484.28548  22817938.57448
  -1850070.23006  24020557.92606  -1441697.78547  24020555.36747
  -3992253.25006  24959450.26206  -3103477.08547  24959445.93747
 08 11 15  4 10  0.0040000  0  7  3  7  8 11 19 25 28
  19623714.46103  24809240.09803  15296557.82045  24809236.32845
  -6988340.19507  22901953.98007  -5437381.35448  22901948.86748
 -12562655.59007  22654050.70707  -9782462.78648  22654046.49648
 -17737091.55507  21430164.18407 -13812854.63649  21430158.83649
  -5378763.87507  22830940.93407  -4188269.54948  22830934.58648
  -1751146.23006  24039383.30906  -1364614.19148  24039379.44948
  -4071137.03106  24944439.05906  -3164944.91847  24944435.21147
 08 11 15  4 10 30.0040000  0  7  3  7  8 11 19 25 28
  19719223.44511  24827413.42601  15370980.45355  24827411.55545
  -6907554.84007  22917326.76907  -5374431.73448  22917321.88748
 -12563444.91007  22653900.72307  -9783077.84248  22653896.96948
 -17760557.81307  21425698.63707 -13831140.00849  21425693.14849
  -5310346.77707  22843960.26207  -4134957.52048  22843953.46148
  -1652007.06306  24058248.77706  -1287362.89947  24058245.64147
  -4150004.65606  24929431.16806  -3226400.18247  24929427.70747
 08 11 15  4 11  0.0040000  0  7  3  7  8 11 19 25 28
  19814760.10902  24845594.93402  15445424.56345  24845592.32045
  -6826341.73007  22932780.45707  -5311148.83248  22932775.77348
 -12563586.99607  22653873.35507  -9783188.55548  22653870.01248
 -17783522.74207  21421328.45707 -13849034.76749  21421322.86749
  -5241805.29307  22857003.51207  -4081548.59349  22856997.32049
  -1552654.94506  24077154.74606  -1209945.73147  24077151.01247
  -4228854.14506  24914426.30906  -3287841.26447  24914422.74647
 08 11 15  4 11 30.0040000  0  7  3  7  8 11 19 25 28
  19910332.70703  24863782.18403  15519896.71545  24863780.05945
  -6744694.28507  22948317.75407  -5247527.46148  22948312.80948
 -12563072.10207  22653971.15207  -9782787.34248  22653967.75048
 -17805976.40207  21417055.55107 -13866531.11149  21417050.46949
  -5173130.54706  22870071.48006  -4028035.80148  22870065.35948
  -1453083.32405  24096102.12105  -1132357.50447  24096098.94547
  -4307674.35906  24899427.61306  -3349259.57847  24899423.00847
 08 11 15  4 12  0.0040000  0  7  3  7  8 11 19 25 28
  20005938.77003  24881975.05103  15594394.87544  24881973.18044
  -6662617.35907  22963936.61307  -5183571.42748  22963931.83648
 -12561902.27007  22654194.05907  -9781875.78948  22654190.07448
 -17827921.01607  21412879.68407 -13883630.80849  21412874.52349
  -5104325.84407  22883165.03507  -3974421.77448  22883157.91848
  -1353297.24206  24115091.73006  -1054602.15847  24115087.24247
  -4386466.06306  24884433.86306  -3410655.66547  24884428.96947
 08 11 15  4 12 30.0040000  0  7  3  7  8 11 19 25 28
  20101577.95304  24900175.08204  15668918.90645  24900172.45345
  -6580113.52007  22979636.34807  -5119282.75448  22979632.13748
 -12560076.85507  22654541.11307  -9780453.38248  22654537.35248
 -17849355.94907  21408800.66807 -13900333.35349  21408795.77749
  -5035391.80507  22896282.70707  -3920706.96748  22896276.19948
  -1253299.51606  24134120.30906   -976681.89347  24134116.57847
  -4465227.27006  24869446.34806  -3472027.99847  24869441.55147
 08 11 15  4 13  0.0040000  0  7  3  7  8 11 19 25 28
  20197247.51204  24918379.19904  15743466.59445  24918377.98845
  -6497187.72707  22995416.80907  -5054665.27348  22995411.96148
 -12557598.16807  22655013.23807  -9778521.95648  22655009.46948
 -17870283.43407  21404818.76207 -13916640.47449  21404813.34849
  -4966331.69907  22909424.52707  -3866893.89148  22909417.80148
  -1153095.36306  24153188.55106   -898600.77047  24153185.30947
  -4543959.05906  24854464.58206  -3533377.44347  24854459.81247
 08 11 15  4 13 30.0040000  0  7  3  7  8 11 19 25 28
  20292951.19902  24936592.49602  15818040.91444  24936590.18744
  -6413838.84007  23011277.58207  -4989718.09248  23011272.79748
 -12554462.06607  22655609.89407  -9776078.23648  22655606.30148
 -17890698.84807  21400933.66007 -13932548.58549  21400928.02749
  -4897142.62107  22922590.61307  -3812980.33348  22922584.10548
  -1052683.66405  24172296.63705   -820357.94247  24172293.55947
  -4622655.73006  24839489.31606  -3594699.48547  24839484.64847
 08 11 15  4 14  0.0040000  0  7  3  7  8 11 19 25 28
  20388685.75802  24954809.24602  15892639.27743  24954808.10943
  -6330072.00007  23027218.34007  -4924445.28148  23027214.05948
 -12550670.45307  22656331.41007  -9773123.73648  22656327.39148
 -17910604.83207  21397145.65207 -13948059.73449  21397140.05949
  -4827827.81607  22935780.77707  -3758968.80448  22935774.06248
   -952069.75005  24191442.60505   -741957.51447  24191439.28147
  -4701318.30506  24824519.28506  -3655994.93147  24824516.08647
 08 11 15  4 14 30.0040000  0  7  3  7  8 11 19 25 28
  20484460.23411  24973034.44101  15967268.73455  24973033.80145
  -6245880.76607  23043239.23807  -4858841.75348  23043234.54748
 -12546213.93007  22657179.44107  -9769651.12148  22657175.48848
 -17929991.68807  21393456.26207 -13963166.37749  21393450.95349
  -4758378.81306  22948996.09006  -3704852.71548  22948990.33248
   -851247.17605  24210628.01205   -663394.49347  24210625.56247
  -4779935.60505  24809559.26905  -3717255.13847  24809554.92247
 08 11 15  4 15  0.0040000  0  7  3  7  8 11 19 25 28
  20580266.16801  24991265.62901  16041922.55944  24991264.61744
  -6161276.06607  23059338.67607  -4792916.03148  23059333.94948
 -12541100.70707  22658152.23007  -9765666.80848  22658148.17248
 -17948867.58607  21389864.35507 -13977874.87349  21389859.18449
  -4688804.74207  22962236.13707  -3650639.18848  22962230.24248
   -750227.03505  24229852.22305   -584677.53947  24229847.83647
  -4858514.28506  24794606.02706  -3778485.25847  24794600.72747
 08 11 15  4 15 30.0040000  0  7  3  7  8 11 19 25 28
         0.00000  25009503.20701         0.00000  25009503.06640
  -6076255.85907  23075517.58207  -4726666.54548  23075512.92248
 -12535325.50807  22659251.20707  -9761166.65148  22659247.26948
 -17967227.20707  21386370.66007 -13992181.07649  21386364.98849
  -4619101.28506  22975499.52706  -3596324.83748  22975493.53948
   -649007.29705  24249113.31605   -505805.04147  24249109.78147
  -4937047.97306  24779661.17606  -3839680.27447  24779657.27347
 08 11 15  4 16  0.0040000  0  7  3  7  8 11 19 25 28
  20771976.85902  25027747.00402  16191307.41444  25027746.27744
  -5990831.11707  23091773.34807  -4660101.81548  23091769.48048
 -12528896.80507  22660474.81607  -9756157.28648  22660470.71948
 -17985078.71507  21382973.66807 -14006091.34149  21382968.10949
  -4549277.73407  22988786.80907  -3541916.89048  22988780.76948
   -547598.97305  24268409.70705   -426785.63847  24268406.70747
  -5015542.83606  24764724.47306  -3900845.05447  24764720.10947
 08 11 15  4 16 30.0040000  0  8  3  7  8 11 19 25 28 32
  20867878.54313  25045997.51903  16266035.88355  25045995.07045
  -5904997.96907  23108106.69107  -4593218.86548  23108102.89448
 -12521808.12107  22661823.81607  -9750633.63648  22661819.30148
 -18002415.70707  21379674.30907 -14019600.68449  21379668.90249
  -4479328.12507  23002097.76907  -3487410.72448  23002091.74648
   -445998.52305  24287744.69105   -347616.53147  24287741.41047
  -5093990.73806  24749795.79306  -3961973.28147  24749791.00047
    -82606.15615  25102126.28505         0.00000         0.00000
 08 11 15  4 17  0.0040000  0  8  3  7  8 11 19 25 28 32
  20963819.63702  25064254.04302  16340795.19944  25064252.19144
  -5818752.43407  23124518.69107  -4526014.57048  23124515.16848
 -12514052.12107  22663299.44907  -9744590.01148  22663295.26948
 -18019231.15207  21376474.41007 -14032703.62749  21376468.94949
  -4409246.52307  23015433.88707  -3432801.69648  23015427.90248
   -344201.99205  24307115.73805   -268294.61947  24307112.56647
  -5172383.22306  24734878.57406  -4023058.30147  24734872.98847
   -154248.87906  25088493.62906   -107806.56556  25088490.36746
