     2.10           OBSERVATION DATA    G (GPS)             RINEX VERSION / TYPE
Pinnacle 1.00                           16-NOV-08 16:01     PGM / RUN BY / DATE
build April 19, 2002                                        COMMENT
-Unknown-           -Unknown-                               OBSERVER / AGENCY
         Begin Pinnacle project                             COMMENT
1115                                                        COMMENT
                                                            COMMENT
                                                            COMMENT
November 16, 2008 3:45:30 pm                                COMMENT
                                                            COMMENT
                                                            COMMENT
D:\2008-----\gps\20081115\Pinnacle.dbd                 COMMENT
         End Pinnacle project                               COMMENT
                                                            COMMENT
7221                                                        MARKER NAME
7221(Tail)(Head)                                            MARKER NUMBER
AF83006AI2O         TPS GB-1000         3.1 Jun,28,2007 p3  REC # / TYPE / VERS
-Unknown-           TPSPG_A1        NONE                    ANT # / TYPE
 -3053180.4762  4056222.8315  3848002.0926                  APPROX POSITION XYZ
        1.5630        0.0000        0.0000                  ANTENNA: DELTA H/E/N
     1     1                                                WAVELENGTH FACT L1/2
     7    L1    L2    C1    P1    P2    D1    D2            # / TYPES OF OBSERV
    30.000                                                  INTERVAL
  2008    11    15     0    20    0.0000000     GPS         TIME OF FIRST OBS
  2008    11    15     2    20    0.0000000     GPS         TIME OF LAST OBS
    12                                                      # OF SATELLITES
   G 3   241   241   241   241   241   241   241            PRN / # OF OBS
   G 6   241   241   241   241   241   241   241            PRN / # OF OBS
   G 7   179   179   179   179   179   179   179            PRN / # OF OBS
   G11    22    22    22    22    22    22    22            PRN / # OF OBS
   G13   241   241   241   241   241   241   241            PRN / # OF OBS
   G16   241   241   241   241   241   241   241            PRN / # OF OBS
   G19   241   241   241   241   241   241   241            PRN / # OF OBS
   G21   137   137   137   137   137   137   137            PRN / # OF OBS
   G23   213   213   213   213   213   213   213            PRN / # OF OBS
   G25   241   241   241   241   241   241   241            PRN / # OF OBS
   G27    62    58    62    58    58    58    58            PRN / # OF OBS
   G31    98    98    98    98    98    98    98            PRN / # OF OBS
SE TPS 2892abb3                                             COMMENT
                                                            END OF HEADER
 08 11 15  0 20  0.0000000  0  9G 6G16G 3G23G31G13G19G21G25         
 107774829.714    83980386.7674   20508864.349 8  20508864.29445  20508868.79945
       844.768         658.260  
 110163067.788    85841352.1774   20963331.089 7  20963330.33845  20963335.29645
     -1023.178        -797.282  
 108024184.810    84174698.5244   20556317.732 7  20556317.33145  20556321.69645
      1965.770        1531.764  
 113503510.343    88444309.1814   21599001.000 7  21599000.30044  21599002.43744
      -271.554        -211.607  
 119185770.335    92872028.5494   22680293.820 7  22680294.06445  22680298.31845
     -2506.708       -1953.284  
 118489305.185    92329335.9904   22547763.752 6  22547763.71442  22547766.62342
      1474.449        1148.912  
 120585228.736    93962518.9634   22946601.745 6  22946601.13844  22946603.44644
      3422.384        2666.789  
 126448580.442    98531363.8714   24062362.691 6  24062361.52843  24062366.19943
       420.347         327.541  
 125369276.522    97690347.2184   23856977.248 7  23856977.16043  23856979.35043
      3027.929        2359.419  
 08 11 15  0 20 30.0000000  0  9G 6G16G 3G23G31G13G19G21G25         
 107749648.627    83960765.1374   20504072.760 8  20504072.64445  20504076.18545
       833.757         649.679  
 110193769.934    85865275.9104   20969173.370 7  20969172.84145  20969176.79945
     -1023.843        -797.798  
 107965369.827    84128868.6714   20545125.483 7  20545124.93445  20545129.31245
      1955.040        1523.409  
 113511876.559    88450828.3094   21600593.776 7  21600593.36944  21600594.32544
      -286.388        -223.160  
 119261026.095    92930669.3554   22694614.740 7  22694615.12245  22694618.32245
     -2510.537       -1956.257  
 118445269.945    92295022.7954   22539384.341 6  22539384.95143  22539387.24242
      1461.010        1138.448  
 120482594.388    93882544.1154   22927071.986 6  22927071.00944  22927073.02044
      3419.698        2664.699  
 126436104.780    98521642.5574   24059988.093 6  24059987.34543  24059993.08043
       411.132         320.370  
 125278388.358    97619525.2774   23839681.331 6  23839681.71843  23839684.33243
      3031.084        2361.885  
 08 11 15  0 21  0.0000000  0  9G 6G16G 3G23G31G13G19G21G25         
 107724846.617    83941438.8904   20499352.982 8  20499353.09045  20499356.62445
       821.144         639.847  
 110224540.476    85889252.9484   20975029.269 7  20975028.78045  20975032.28245
     -1026.090        -799.544  
 107906925.746    84083327.8304   20534003.702 7  20534002.92745  20534008.06745
      1942.671        1513.768  
 113520736.249    88457731.9484   21602278.658 7  21602278.55444  21602280.19744
      -302.808        -235.963  
 119336445.431    92989437.6424   22708967.030 7  22708967.25845  22708970.06845
     -2515.961       -1960.491  
 118401687.200    92261062.2324   22531090.969 6  22531090.91843  22531093.90743
      1445.938        1126.677  
 120380090.898    93802671.2904   22907563.743 5  22907562.56443  22907567.04243
      3415.271        2661.271  
 126423953.935    98512174.3874   24057675.759 6  24057674.32142  24057679.67042
       400.338         311.957  
 125187455.276    97548668.3294   23822377.870 6  23822377.19842  23822379.62542
      3032.555        2363.025  
 08 11 15  0 21 30.0000000  0  9G 6G16G 3G23G31G13G19G21G25         
 107700405.827    83922394.1074   20494702.096 8  20494701.75345  20494705.66045
       808.028         629.635  
 110255360.369    85913268.4364   20980893.973 7  20980893.21745  20980897.23045
     -1028.790        -801.653  
 107848835.485    84038062.6944   20522949.558 7  20522949.11945  20522953.22745
      1929.767        1503.715  
 113530070.735    88465005.5634   21604056.185 7  21604055.92244  21604057.23744
      -319.706        -249.119  
 119412009.706    93048318.8724   22723345.990 7  22723346.90145  22723349.87745
     -2521.871       -1965.094  
 118358540.256    92227441.2324   22522880.726 6  22522881.36243  22522883.10043
      1430.318        1114.524  
 120277702.567    93722888.1824   22888080.206 5  22888078.44143  22888083.25743
      3410.345        2657.416  
 126412111.005    98502946.1054   24055423.045 6  24055421.85742  24055426.61742
       388.960         303.090  
 125096460.966    97477763.6754   23805061.269 6  23805061.33842  23805064.23342
      3033.492        2363.762  
 08 11 15  0 22  0.0000000  0  9G 6G16G 3G23G31G13G19G21G25         
 107676354.044    83903652.4514   20490124.832 8  20490124.51145  20490129.08745
       795.003         619.478  
 110286256.718    85937343.5114   20986773.666 7  20986773.06445  20986776.59645
     -1031.406        -803.690  
 107791128.153    83993095.9404   20511968.758 8  20511968.55145  20511972.60445
      1916.937        1493.719  
 113539907.164    88472670.2924   21605927.709 7  21605927.30744  21605928.60144
      -336.485        -262.200  
 119487745.702    93107333.9014   22737758.992 7  22737759.54045  22737762.07645
     -2527.638       -1969.587  
 118315858.561    92194182.7614   22514758.518 6  22514758.25743  22514761.24143
      1414.691        1102.361  
 120175459.291    93643218.0894   22868623.460 5  22868621.15043  22868626.80543
      3405.423        2653.571  
 126400604.684    98493980.1174   24053232.908 6  24053231.39042  24053236.30142
       377.661         294.277  
 125005435.229    97406834.5354   23787739.938 6  23787739.16542  23787743.18442
      3034.434        2364.485  
 08 11 15  0 22 30.0000000  0  9G 6G16G 3G23G31G13G19G21G25         
 107652716.445    83885233.5314   20485626.959 8  20485626.85245  20485631.12245
       780.052         607.836  
 110317254.568    85961497.6754   20992672.286 7  20992671.58445  20992675.32945
     -1035.899        -807.196  
 107733829.877    83948447.9414   20501064.892 8  20501064.58745  20501068.89845
      1902.146        1482.190  
 113550269.987    88480745.2064   21607899.632 7  21607899.29844  21607900.83644
      -355.151        -276.745  
 119563677.856    93166501.7814   22752207.815 7  22752208.21245  22752211.72345
     -2535.303       -1975.560  
 118273668.887    92161307.6834   22506730.308 6  22506730.39043  22506732.63743
      1397.139        1088.675  
 120073388.396    93563682.3324   22849201.823 6  22849201.01844  22849203.49844
      3398.519        2648.199  
 126389461.328    98485296.9534   24051112.597 6  24051112.53442  24051116.90042
       364.413         283.966  
 124914405.020    97335901.9344   23770417.699 6  23770417.12442  23770421.04742
      3033.421        2363.705  
 08 11 15  0 23  0.0000000  0  9G 6G16G 3G23G31G13G19G21G25         
 107629515.726    83867155.0364   20481212.020 8  20481211.51345  20481215.90045
       765.387         596.407  
 110348375.544    85985747.7754   20998594.855 7  20998594.02845  20998597.65445
     -1040.115        -810.477  
 107676964.515    83904137.2714   20490244.421 8  20490243.97345  20490247.63845
      1887.579        1470.842  
 113561181.259    88489247.4894   21609976.020 7  21609975.53544  21609977.67844
      -373.536        -291.062  
 119639828.569    93225839.9624   22766698.410 7  22766698.85645  22766702.93645
     -2542.700       -1981.322  
 118231995.223    92128834.6854   22498799.734 7  22498799.70143  22498802.35043
      1379.796        1075.176  
 119971514.844    93484300.3714   22829815.601 6  22829815.23144  22829817.52944
      3391.773        2642.946  
 126378704.530    98476915.0294   24049066.165 6  24049065.87043  24049070.17543
       351.407         273.815  
 124823394.953    97264985.0174   23753099.125 5  23753098.45842  23753101.53742
      3032.617        2363.080  
 08 11 15  0 23 30.0000000  0  9G 6G16G 3G23G31G13G19G21G25         
 107606804.921    83849458.2904   20476890.002 8  20476889.73545  20476894.55345
       748.371         583.143  
 110379672.145    86010134.7264   21004550.101 8  21004549.66545  21004553.30745
     -1046.636        -815.554  
 107620586.114    83860206.0514   20479515.556 8  20479514.89745  20479519.28545
      1870.650        1457.656  
 113572693.043    88498217.7034   21612166.746 7  21612166.04944  21612169.07644
      -394.226        -307.188  
 119716249.838    93285388.9604   22781241.069 7  22781241.47245  22781245.07445
     -2552.383       -1988.867  
 118190892.698    92096806.7564   22490978.177 7  22490978.54144  22490981.37544
      1360.068        1059.791  
 119869893.987    93405115.3114   22810478.233 6  22810477.62644  22810479.76544
      3382.619        2635.814  
 126368388.569    98468876.6054   24047102.804 6  24047101.89443  24047106.93942
       336.021         261.820  
 124732460.137    97194126.7094   23735793.903 5  23735793.86742  23735797.25142
      3029.374        2360.549  
 08 11 15  0 24  0.0000000  0  9G 6G16G 3G23G31G13G19G21G25         
 107584632.632    83832181.1704   20472671.208 8  20472670.56245  20472675.28945
       728.871         567.952  
 110411192.214    86034695.8164   21010548.202 7  21010547.80445  21010551.23845
     -1055.592        -822.534  
 107564744.842    83816693.3854   20468889.515 8  20468889.35945  20468892.75245
      1851.200        1442.500  
 113584853.653    88507693.4844   21614480.774 7  21614480.53144  21614482.54144
      -417.367        -325.216  
 119792989.519    93345186.0874   22795844.047 7  22795843.82944  22795847.89644
     -2564.485       -1998.307  
 118150410.602    92065262.2554   22483274.796 7  22483274.83944  22483277.88344
      1337.825        1042.462  
 119768576.541    93326166.6694   22791198.226 7  22791196.69644  22791199.89244
      3370.954        2626.716  
 126358562.922    98461220.2384   24045232.946 6  24045231.53642  24045236.87542
       318.123         247.897  
 124641650.889    97123366.2474   23718513.233 5  23718512.80941  23718517.38441
      3023.635        2356.077  
 08 11 15  0 24 30.0000000  0  9G 6G16G 3G23G31G13G19G21G25         
 107563046.841    83815361.0684   20468563.445 7  20468563.14945  20468567.56845
       708.848         552.349  
 110442983.371    86059468.1304   21016597.912 8  21016597.25345  21016601.22145
     -1065.117        -829.965  
 107509489.568    83773637.3364   20458374.728 8  20458374.10545  20458378.47845
      1831.159        1426.873  
 113597709.970    88517711.3824   21616927.227 7  21616927.27744  21616928.65844
      -441.033        -343.668  
 119870094.907    93405268.1764   22810516.753 7  22810516.92144  22810520.76844
     -2577.175       -2008.189  
 118110598.572    92034239.8944   22475698.960 7  22475698.86444  22475701.64444
      1314.965        1024.647  
 119667612.930    93247493.7214   22771985.214 6  22771983.87244  22771987.63444
      3358.629        2617.104  
 126349276.835    98453984.3444   24043466.236 6  24043465.29042  24043470.26942
       299.620         233.460  
 124551017.292    97052742.6634   23701265.119 4  23701264.98641  23701269.36641
      3017.280        2351.135  
 08 11 15  0 25  0.0000000  0  9G 6G16G 3G23G31G13G19G21G25         
 107542072.939    83799017.7604   20464572.156 8  20464571.99745  20464575.92645
       687.629         535.826  
 110475070.229    86084470.8684   21022703.917 7  21022703.21245  21022706.85545
     -1075.786        -838.277  
 107454846.397    83731058.2454   20447976.234 8  20447975.76045  20447979.82845
      1809.933        1410.336  
 113611286.584    88528290.5314   21619510.548 7  21619509.80344  21619512.64844
      -465.856        -363.008  
 119947590.636    93465654.4234   22825263.794 7  22825264.14744  22825267.51344
     -2591.000       -2018.956  
 118071483.355    92003760.4984   22468254.847 7  22468254.84544  22468257.77644
      1290.906        1005.898  
 119567030.627    93169117.9204   22752845.029 7  22752843.93844  22752847.63844
      3345.058        2606.540  
 126340556.397    98447189.2014   24041806.616 6  24041805.68443  24041810.58443
       279.937         218.122  
 124460586.534    96982277.1714   23684055.191 4  23684054.76441  23684061.08641
      3009.572        2345.118  
 08 11 15  0 25 30.0000000  0  9G 6G16G 3G23G31G13G19G21G25         
 107521792.133    83783214.5244   20460712.690 8  20460712.19545  20460716.73945
       663.210         516.794  
 110507533.817    86109767.1784   21028880.943 7  21028880.39045  21028884.04045
     -1089.660        -849.087  
 107400898.166    83689020.6594   20437710.121 8  20437710.05945  20437714.42945
      1785.417        1391.234  
 113625663.782    88539493.5104   21622246.542 7  21622246.03244  21622248.41044
      -493.862        -384.826  
 120025557.402    93526407.7264   22840101.047 7  22840101.14444  22840103.14744
     -2608.000       -2032.205  
 118033147.877    91973888.6964   22460960.194 7  22460960.27844  22460963.01844
      1263.563         984.596  
 119466913.199    93091104.3534   22733793.333 6  22733791.99044  22733796.30744
      3328.201        2593.400  
 126332484.015    98440899.0294   24040271.181 6  24040271.32043  24040274.12243
       256.999         200.251  
 124370442.251    96912034.8394   23666900.956 3  23666899.53341  23666908.56241
      2998.797        2336.717  
 08 11 15  0 26  0.0000000  0  9G 6G16G 3G23G31G13G19G21G25         
 107502248.232    83767985.5074   20456993.564 8  20456992.94445  20456997.48645
       639.411         498.246  
 110540417.326    86135390.6814   21035138.625 7  21035138.07545  21035142.11345
     -1102.902        -859.406  
 107347689.365    83647559.2564   20427585.099 8  20427584.91345  20427588.48645
      1761.511        1372.611  
 113640885.366    88551354.4604   21625142.855 7  21625142.60144  21625143.88344
      -521.233        -406.157  
 120104038.097    93587561.4834   22855035.566 7  22855035.94144  22855036.86444
     -2624.366       -2044.958  
 117995636.389    91944658.9614   22453822.087 7  22453822.46744  22453825.07244
      1236.819         963.764  
 119367306.666    93013488.8964   22714838.175 6  22714836.48544  22714840.55244
      3311.887        2580.688  
 126325104.850    98435149.0314   24038866.961 6  24038865.68943  24038870.51943
       234.610         182.825  
 124280630.005    96842051.3134   23649812.181 4  23649809.61141  23649817.59441
      2988.479        2328.690  
 08 11 15  0 26 30.0000000  0  9G 6G16G 3G23G31G13G19G21G25         
 107483434.675    83753325.5884   20453413.561 8  20453413.16045  20453417.21845
       615.697         479.764  
 110573713.648    86161335.8664   21041474.947 7  21041474.56745  21041477.47645
     -1116.035        -869.640  
 107295214.645    83606669.8654   20417599.617 8  20417599.11045  20417602.79445
      1737.631        1353.994  
 113656943.693    88563867.4144   21628198.697 7  21628198.21443  21628199.56744
      -548.462        -427.385  
 120183025.393    93649109.9844   22870066.105 7  22870065.55944  22870068.29844
     -2640.618       -2057.621  
 117958945.177    91916068.4254   22446840.292 7  22446839.83844  22446843.02644
      1210.087         942.925  
 119268206.766    92936268.2064   22695979.784 6  22695978.36544  22695982.61044
      3295.601        2568.000  
 126318412.833    98429934.4684   24037592.893 6  24037592.17743  24037597.79643
       212.337         165.460  
 124191145.414    96772323.0224   23632783.379 4  23632783.14141  23632789.54241
      2977.981        2320.510  
 08 11 15  0 27  0.0000000  0  9G 6G16G 3G23G31G13G19G21G25         
 107465333.217    83739220.5554   20449969.407 8  20449969.19545  20449972.93745
       592.342         461.559  
 110607404.294    86187588.3194   21047885.120 7  21047884.75645  21047888.62445
     -1128.769        -879.565  
 107243456.868    83566339.1254   20407750.243 8  20407749.65545  20407754.03545
      1714.117        1335.672  
 113673819.055    88577017.0294   21631410.687 7  21631410.24143  21631409.51443
      -575.317        -448.305  
 120262500.606    93711038.6654   22885189.014 7  22885188.94844  22885193.18844
     -2656.473       -2069.979  
 117923057.086    91888103.6874   22440010.142 7  22440009.56443  22440013.14143
      1183.687         922.347  
 119169597.619    92859429.9404   22677215.560 7  22677214.63944  22677218.33844
      3279.590        2555.518  
 126312391.166    98425242.2624   24036446.948 6  24036447.11143  24036451.28343
       190.356         148.328  
 124101972.274    96702837.4604   23615815.501 4  23615815.11941  23615821.41441
      2968.046        2312.746  
 08 11 15  0 27 30.0000000  0  9G 6G16G 3G23G31G13G19G21G25         
 107447942.888    83725669.6524   20446660.018 8  20446659.81945  20446663.83045
       568.643         443.102  
 110641487.685    86214146.8024   21054371.298 7  21054370.81445  21054374.82545
     -1141.843        -889.751  
 107192416.219    83526567.1874   20398037.693 8  20398037.05245  20398041.38245
      1690.207        1317.048  
 113691510.121    88590802.2714   21634777.169 7  21634776.97543  21634775.81943
      -602.473        -469.465  
 120342461.826    93773346.0494   22900405.630 7  22900405.76644  22900409.97544
     -2672.651       -2082.580  
 117887972.152    91860764.7554   22433333.778 7  22433333.73443  22433337.01543
      1156.893         901.480  
 119071480.345    92782974.9484   22658545.054 7  22658543.92045  22658547.41844
      3263.167        2542.725  
 126307039.518    98421072.1334   24035428.834 7  24035428.29943  24035433.65943
       168.007         130.921  
 124013111.820    96633595.5284   23598905.822 5  23598905.88542  23598909.98142
      2957.586        2304.624  
 08 11 15  0 28  0.0000000  0  9G 6G16G 3G23G31G13G19G21G25         
 107431226.210    83712643.6684   20443479.203 8  20443479.07046  20443482.81146
       545.852         425.342  
 110675925.812    86240981.6934   21060925.173 7  21060924.66545  21060928.37745
     -1153.989        -899.205  
 107142056.125    83487325.5664   20388454.769 8  20388454.35645  20388458.45445
      1667.169        1299.085  
 113709978.853    88605193.4604   21638291.632 8  21638291.55644  21638291.17044
      -628.708        -489.899  
 120422871.046    93836002.5244   22915707.374 7  22915707.87944  22915710.94445
     -2687.899       -2094.457  
 117853654.210    91834023.4894   22426802.586 6  22426802.64943  22426806.40643
      1130.985         881.289  
 118973819.965    92706875.9924   22639960.735 7  22639959.44444  22639963.13044
      3247.564        2530.565  
 126302322.069    98417396.1974   24034531.273 6  24034530.53643  24034535.63843
       146.525         114.171  
 123924528.596    96564569.6484   23582050.140 5  23582049.62142  23582053.55142
      2947.967        2297.127  
 08 11 15  0 28 30.0000000  0  9G 6G16G 3G23G31G13G19G21G25         
 107415172.220    83700134.0704   20440424.279 8  20440423.93545  20440428.37545
       525.084         409.160  
 110710707.495    86268084.2954   21067544.187 7  21067543.69445  21067546.65845
     -1164.127        -907.105  
 107092367.013    83448606.7804   20378999.032 7  20378998.73945  20379003.02445
      1646.101        1282.681  
 113729213.066    88620181.1594   21641951.675 8  21641951.31144  21641951.79144
      -652.906        -508.758  
 120503716.687    93898999.0894   22931091.417 7  22931091.30044  22931095.72844
     -2701.133       -2104.772  
 117820093.760    91807872.4824   22420417.289 6  22420417.32043  22420419.94443
      1107.010         862.599  
 118876607.992    92631126.4364   22621461.698 7  22621460.76344  22621464.06344
      3233.895        2519.916  
 126298228.615    98414206.4804   24033752.232 6  24033751.15043  24033756.31043
       127.039          98.989  
 123836213.944    96495753.0224   23565244.546 5  23565243.66842  23565249.58542
      2940.316        2291.156  
 08 11 15  0 29  0.0000000  0  9G 6G16G 3G23G31G13G19G21G25         
 107399729.708    83688100.9474   20437485.619 8  20437485.20046  20437489.47846
       503.676         392.473  
 110745781.139    86295414.3854   21074218.690 7  21074218.12245  21074220.53945
     -1174.846        -915.463  
 107043298.407    83410371.5184   20369661.790 8  20369661.51545  20369666.19545
      1624.398        1265.763  
 113749161.019    88635724.9994   21645747.910 7  21645747.54744  21645749.43844
      -677.681        -528.062  
 120584946.708    93962295.1734   22946549.692 7  22946549.62044  22946552.78144
     -2714.947       -2115.544  
 117787241.128    91782273.0154   22414165.508 6  22414165.65643  22414167.90743
      1082.420         843.452  
 118779795.259    92555687.9664   22603039.203 7  22603038.26044  22603040.67744
      3219.538        2508.733  
 126294708.462    98411463.4904   24033082.508 6  24033081.88743  24033087.15543
       106.898          83.294  
 123748118.781    96427107.4244   23548479.537 5  23548479.08742  23548484.95142
      2931.915        2284.624  
 08 11 15  0 29 30.0000000  0  9G 6G16G 3G23G31G13G19G21G25         
 107384902.011    83676546.8994   20434663.747 7  20434663.41745  20434667.77045
       485.140         378.034  
 110781149.552    86322974.1584   21080949.064 8  21080948.54145  21080951.12445
     -1182.744        -921.620  
 106994854.989    83372623.4074   20360443.062 7  20360442.54545  20360447.95345
      1605.458        1251.008  
 113769824.898    88651826.6854   21649679.956 7  21649679.45844  21649681.15844
      -699.619        -545.154  
 120666564.257    94025893.2284   22962081.590 7  22962082.17144  22962085.12944
     -2725.925       -2124.101  
 117755101.208    91757228.9104   22408050.546 7  22408050.77443  22408052.85043
      1060.535         826.393  
 118683387.667    92480565.2084   22584693.317 7  22584692.41244  22584694.81444
      3207.919        2499.666  
 126291766.701    98409171.2094   24032523.196 6  24032522.19543  24032525.64643
        89.526          69.754  
 123660248.626    96358637.2004   23531759.399 5  23531757.73242  23531764.14342
      2926.321        2280.259  
 08 11 15  0 30  0.0000000  0  9G 6G16G 3G23G31G13G19G21G25         
 107370621.320    83665419.0884   20431946.050 7  20431945.80145  20431950.31846
       467.338         364.160  
 110816744.921    86350710.7814   21087722.482 8  21087721.94545  21087725.41945
     -1189.856        -927.160  
 106946969.741    83335310.2464   20351330.354 7  20351330.22245  20351335.91445
      1587.310        1236.867  
 113791136.106    88668432.8114   21653734.736 7  21653734.42244  21653736.86444
      -720.698        -561.589  
 120748500.279    94089739.4534   22977673.226 7  22977673.50944  22977676.25744
     -2736.068       -2132.003  
 117723606.939    91732687.9364   22402057.514 6  22402056.78944  22402059.36743
      1039.449         809.960  
 118587319.784    92405707.1284   22566411.591 7  22566410.76444  22566414.18544
      3197.017        2491.181  
 126289336.153    98407277.2834   24032059.858 6  24032058.89043  24032063.52043
        72.913          56.814  
 123572537.921    96290291.2244   23515067.666 5  23515066.49643  23515072.65143
      2921.456        2276.442  
 08 11 15  0 30 30.0000000  0  9G 6G16G 3G23G31G13G19G21G25         
 107356853.919    83654691.2534   20429326.149 8  20429325.48945  20429330.46145
       451.015         351.449  
 110852533.164    86378597.6974   21094532.674 8  21094532.08045  21094535.78145
     -1195.491        -931.543  
 106899610.365    83298406.8454   20342318.494 7  20342317.84145  20342323.54845
      1570.533        1223.799  
 113813059.942    88685516.3264   21657906.560 7  21657906.31944  21657909.71944
      -740.341        -576.885  
 120830720.628    94153807.2424   22993319.209 7  22993319.04144  22993322.01944
     -2744.748       -2138.764  
 117692726.737    91708625.4444   22396180.810 7  22396181.24543  22396182.76243
      1019.798         794.656  
 118491559.984    92331089.1204   22548189.535 7  22548188.38244  22548192.18544
      3187.494        2483.769  
 126287384.184    98405756.2564   24031688.572 6  24031688.23743  24031693.28243
        57.735          44.991  
 123484955.284    96222045.0194   23498402.155 6  23498401.37443  23498405.87243
      2917.922        2273.711  
 08 11 15  0 31  0.0000000  0  9G 6G16G 3G23G31G13G19G21G25         
 107343571.841    83644341.5974   20426798.613 7  20426798.26445  20426803.05945
       434.306         338.421  
 110888486.105    86406612.9584   21101374.584 8  21101374.01245  21101377.44145
     -1201.522        -936.244  
 106852750.017    83261892.3014   20333401.258 8  20333400.47145  20333405.76445
      1553.355        1210.396  
 113835568.201    88703055.2174   21662190.375 7  21662189.81344  21662192.36344
      -760.342        -592.472  
 120913196.897    94218074.4374   23009013.565 7  23009013.99644  23009017.03744
     -2753.804       -2145.826  
 117662433.344    91685020.1944   22390415.791 6  22390415.34143  22390418.38643
       999.630         778.935  
 118396082.889    92256691.4214   22530019.918 7  22530018.95644  22530022.16644
      3177.486        2475.958  
 126285883.794    98404587.1044   24031403.634 6  24031404.21643  24031407.35343
        42.129          32.844  
 123397475.180    96153878.7044   23481755.633 6  23481755.47443  23481758.76243
      2913.914        2270.580  
 08 11 15  0 31 30.0000000  0  9G 6G16G 3G23G31G13G19G21G25         
 107330763.998    83634361.4654   20424361.284 8  20424360.89645  20424365.94845
       419.308         326.733  
 110924592.567    86434747.8514   21108245.179 8  21108244.87345  21108247.92445
     -1205.801        -939.587  
 106806378.557    83225758.7094   20324577.736 7  20324577.66945  20324581.58745
      1537.847        1198.323  
 113858648.411    88721039.7844   21666582.800 7  21666582.54244  21666583.45444
      -778.581        -606.683  
 120995917.426    94282531.9664   23024754.261 7  23024754.32144  23024757.86844
     -2761.121       -2151.520  
 117632717.575    91661865.0614   22384761.639 6  22384761.52943  22384763.16743
       981.174         764.555  
 118300879.852    92182507.2484   22511903.505 7  22511902.35844  22511905.77344
      3169.132        2469.457  
 126284825.191    98403762.2144   24031202.144 6  24031201.94542  24031204.44943
        28.202          21.964  
 123310088.674    96085785.3354   23465126.664 6  23465127.06543  23465129.45443
      2911.582        2268.764  
 08 11 15  0 32  0.0000000  0  9G 6G16G 3G23G31G13G19G21G25         
 107318404.253    83624730.5084   20422009.532 8  20422008.91545  20422013.98545
       403.990         314.800  
 110960825.678    86462981.4324   21115140.014 8  21115139.37645  21115142.60745
     -1210.421        -943.193  
 106760471.027    83189986.6284   20315841.341 8  20315841.04945  20315845.38145
      1521.971        1185.950  
 113882273.800    88739449.2064   21671078.208 7  21671078.47744  21671079.12344
      -797.131        -621.134  
 121078855.487    94347159.0124   23040536.425 7  23040536.17444  23040541.23144
     -2768.747       -2157.465  
 117603554.200    91639140.3444   22379211.606 6  22379211.63944  22379214.31943
       962.341         749.874  
 118205927.260    92108518.2294   22493834.818 7  22493833.84144  22493838.32944
      3160.348        2462.607  
 126284183.498    98403262.1994   24031080.546 6  24031079.42743  24031082.85943
        13.895          10.819  
 123222772.136    96017746.4814   23448510.931 6  23448510.48143  23448513.32143
      2908.833        2266.614  
 08 11 15  0 32 30.0000000  0  9G 6G16G 3G23G31G13G19G21G25         
 107306501.171    83615455.3894   20419744.229 8  20419743.97645  20419748.91145
       389.406         303.431  
 110997194.370    86491320.6544   21122060.465 8  21122060.08445  21122064.03145
     -1214.277        -946.193  
 106715036.813    83154583.3584   20307195.945 8  20307195.58345  20307199.44745
      1506.831        1174.150  
 113906452.091    88758289.4474   21675678.836 7  21675678.45244  21675680.18743
      -814.879        -634.974  
 121162018.707    94411961.4804   23056362.298 7  23056362.08544  23056367.28745
     -2775.608       -2162.811  
 117574953.540    91616854.1154   22373768.695 7  22373769.41744  22373772.32944
       944.238         735.769  
 118111235.889    92034732.7904   22475815.878 7  22475814.46144  22475819.00144
      3152.249        2456.298  
 126283968.055    98403094.3174   24031038.586 6  24031037.15842  24031042.27242
         0.330           0.249  
 123135536.491    95949770.6494   23431910.331 6  23431910.17343  23431912.75043
      2906.742        2264.995  
 08 11 15  0 33  0.0000000  0  9G 6G16G 3G23G31G13G19G21G25         
 107295056.155    83606537.2114   20417566.139 7  20417565.56145  20417571.07245
       373.740         291.222  
 111033699.532    86519766.2314   21129007.470 8  21129007.10545  21129010.71145
     -1219.242        -950.057  
 106670078.433    83119550.8664   20298640.718 8  20298640.48445  20298644.09045
      1490.540        1161.456  
 113931183.175    88777560.4244   21680385.299 7  21680384.91443  21680384.86643
      -833.713        -649.647  
 121245408.356    94476940.4094   23072231.111 7  23072231.24945  23072235.43345
     -2783.552       -2169.000  
 117546917.823    91595008.0974   22368433.867 7  22368433.96244  22368437.13344
       924.977         720.753  
 118016809.494    91961153.8314   22457847.711 7  22457846.69244  22457849.73744
      3142.962        2449.061  
 126284180.959    98403260.2104   24031079.273 6  24031077.78942  24031082.43142
       -14.371         -11.210  
 123048385.301    95881860.6494   23415325.502 6  23415326.21743  23415327.93443
      2903.476        2262.442  
 08 11 15  0 33 30.0000000  0  9G 6G16G 3G23G31G13G19G21G25         
 107284053.234    83597963.5124   20415472.492 7  20415472.18145  20415477.39345
       359.751         280.327  
 111070325.298    86548305.7864   21135977.405 8  21135976.85745  21135980.16845
     -1222.524        -952.618  
 106625581.121    83084877.6574   20290172.872 8  20290172.61145  20290176.57745
      1475.906        1150.051  
 113956450.848    88797249.5114   21685193.417 7  21685193.19443  21685193.07443
      -850.827        -662.988  
 121329007.714    94542082.7554   23088139.731 7  23088139.62745  23088143.66745
     -2789.781       -2173.856  
 117519432.810    91573591.2034   22363203.321 6  22363203.52244  22363206.42344
       907.320         706.998  
 117922634.719    91887770.9214   22439925.809 7  22439925.02344  22439927.36444
      3135.290        2443.084  
 126284807.676    98403748.5404   24031197.452 6  24031197.43542  24031200.76842
       -27.446         -21.388  
 122961305.433    95814006.2214   23398754.545 6  23398753.90543  23398756.70043
      2901.806        2261.135  
 08 11 15  0 34  0.0000000  0  9G 6G16G 3G23G31G13G19G21G25         
 107273466.808    83589714.3614   20413457.968 8  20413457.62546  20413462.59146
       345.473         269.195  
 111107045.757    86576919.1224   21142964.965 8  21142964.25646  21142968.05046
     -1226.082        -955.389  
 106581520.767    83050544.9104   20281788.399 8  20281787.77845  20281791.70345
      1460.910        1138.369  
 113982228.254    88817335.7764   21690098.107 7  21690097.23843  21690099.18043
      -868.206        -676.524  
 121412790.476    94607367.9964   23104083.071 7  23104083.21345  23104087.67545
     -2796.279       -2178.920  
 117492474.260    91552584.5404   22358074.199 7  22358074.07644  22358077.08444
       889.373         693.021  
 117828688.280    91814565.9304   22422049.341 7  22422047.91444  22422050.72044
      3127.235        2436.799  
 126285822.947    98404539.6804   24031391.984 6  24031389.76442  24031393.99942
       -40.808         -31.806  
 122874273.385    95746189.0464   23382192.998 6  23382192.21543  23382196.39043
      2899.788        2259.570  
 08 11 15  0 34 30.0000000  0  9G 6G16G 3G23G31G13G19G21G25         
 107263335.496    83581819.8364   20411530.072 8  20411529.89545  20411534.11445
       330.823         257.786  
 111143899.581    86605636.3834   21149977.859 7  21149977.18745  21149980.61945
     -1229.949        -958.396  
 106537937.047    83016583.5784   20273494.609 7  20273493.95745  20273498.84945
      1445.565        1126.407  
 114008553.355    88837848.8264   21695108.195 7  21695107.99643  21695109.17743
      -885.899        -690.308  
 121496794.868    94672825.9344   23120068.470 7  23120068.57145  23120072.95345
     -2803.104       -2184.235  
 117466081.991    91532019.1214   22353051.373 7  22353051.28844  22353054.89644
       871.012         678.712  
 117735011.389    91741570.9744   22404223.322 7  22404222.18344  22404225.10244
      3118.761        2430.196  
 126287266.816    98405664.7654   24031666.650 6  24031666.78242  24031669.15342
       -54.575         -42.525  
 122787330.386    95678441.2584   23365648.718 6  23365648.21643  23365651.25743
      2897.319        2257.646  
 08 11 15  0 35  0.0000000  0  9G 6G16G 3G23G31G13G19G21G25         
 107253622.865    83574251.5524   20409682.082 8  20409681.85745  20409685.96445
       315.845         246.119  
 111180849.943    86634428.8684   21157009.285 8  21157008.93746  21157012.12746
     -1234.245        -961.744  
 106494794.013    82982965.6314   20265284.719 8  20265284.37845  20265288.59645
      1429.811        1114.140  
 114035388.591    88858759.3724   21700214.976 7  21700214.64743  21700215.65743
      -903.940        -704.368  
 121580983.791    94738427.6554   23136088.547 7  23136089.00045  23136094.36045
     -2810.318       -2189.861  
 117440220.646    91511867.4214   22348130.173 7  22348130.56544  22348132.63044
       852.228         664.082  
 117641569.862    91668759.4064   22386441.329 7  22386440.41344  22386443.33044
      3109.823        2423.249  
 126289104.354    98407096.6034   24032015.917 6  24032014.95742  24032020.12142
       -68.742         -53.528  
 122700442.506    95610736.4294   23349114.327 6  23349114.04343  23349117.95543
      2894.378        2255.359  
 08 11 15  0 35 30.0000000  0  9G 6G16G 3G23G31G13G19G21G25         
 107244341.338    83567019.2024   20407915.649 8  20407915.53045  20407919.98945
       301.818         235.176  
 111217909.572    86663306.4934   21164061.485 8  21164060.87745  21164065.14846
     -1237.547        -964.321  
 106452105.069    82949701.5084   20257161.408 8  20257160.73945  20257165.04045
      1414.970        1102.573  
 114062745.417    88880076.3744   21705421.123 7  21705421.57344  21705422.96944
      -920.991        -717.649  
 121665369.349    94804182.5934   23152147.686 7  23152147.95945  23152152.10645
     -2816.530       -2194.697  
 117414904.005    91492140.1704   22343312.015 7  22343312.31444  22343315.45044
       834.370         650.166  
 117548378.597    91596142.8494   22368707.449 7  22368706.80644  22368708.80744
      3101.773        2416.974  
 126291348.753    98408845.4774   24032442.696 6  24032441.49242  24032446.22342
       -82.026         -63.910  
 122613624.734    95543086.2324   23332593.064 6  23332592.47143  23332597.09743
      2892.326        2253.758  
 08 11 15  0 36  0.0000000  0  9G 6G16G 3G23G31G13G19G21G25         
 107235488.447    83560120.8414   20406231.032 8  20406230.90245  20406235.25845
       287.116         223.726  
 111255075.896    86692267.2694   21171134.013 8  21171133.53946  21171137.60445
     -1241.488        -967.391  
 106409869.526    82916790.6924   20249124.507 8  20249124.42345  20249128.36745
      1399.437        1090.464  
 114090620.737    88901797.3944   21710725.212 7  21710724.62644  21710727.00944
      -938.624        -731.401  
 121749948.467    94870088.3534   23168242.277 7  23168242.67745  23168246.85445
     -2823.360       -2200.018  
 117390130.968    91472836.4954   22338598.528 7  22338598.34744  22338601.01344
       815.866         635.740  
 117455437.696    91523721.3864   22351021.977 7  22351020.99944  22351023.80944
      3092.997        2410.123  
 126293998.240    98410910.0164   24032948.172 6  24032946.22142  24032952.07542
       -95.943         -74.765  
 122526877.050    95475490.6444   23316086.100 6  23316085.30343  23316089.45643
      2889.563        2251.587  
 08 11 15  0 36 30.0000000  0  9G 6G16G 3G23G31G13G19G21G25         
 107227075.818    83553565.5534   20404630.222 8  20404630.12945  20404634.36645
       273.085         212.795  
 111292360.588    86721320.2704   21178229.184 8  21178228.57845  21178232.39546
     -1244.788        -969.961  
 106368099.966    82884242.9714   20241175.918 8  20241175.54545  20241180.01145
      1384.570        1078.888  
 114119024.485    88923930.1504   21716130.227 7  21716129.89444  21716133.11543
      -955.599        -744.613  
 121834731.994    94936153.4134   23184376.129 7  23184375.99445  23184380.07945
     -2829.505       -2204.802  
 117365914.377    91453966.4174   22333990.414 7  22333990.10744  22333993.02244
       797.928         621.770  
 117362761.297    91451506.0494   22333386.336 7  22333385.22444  22333387.82444
      3084.785        2403.719  
 126297065.550    98413300.0824   24033530.315 6  24033530.48942  24033535.14942
      -109.212         -85.085  
 122440213.693    95407960.7674   23299594.752 6  23299594.27143  23299597.83643
      2887.344        2249.889  
 08 11 15  0 37  0.0000000  0  9G 6G16G 3G23G31G13G19G21G25         
 107219093.945    83547345.9134   20403111.784 8  20403111.46945  20403115.67445
       258.417         201.358  
 111329754.173    86750458.1174   21185345.102 8  21185344.72446  21185347.94346
     -1248.727        -973.030  
 106326787.364    82852051.3224   20233313.899 7  20233313.68845  20233318.37745
      1368.992        1066.746  
 114147946.636    88946466.8854   21721634.214 7  21721634.25143  21721635.19143
      -973.163        -758.309  
 121919710.045    95002370.0514   23200547.190 7  23200547.09545  23200550.48545
     -2836.313       -2210.110  
 117342246.151    91435523.6334   22329485.773 7  22329485.27744  22329489.83444
       779.318         607.265  
 117270342.396    91379491.3374   22315798.857 7  22315798.55844  22315800.82144
      3075.856        2396.768  
 126300542.419    98416009.3284   24034192.992 6  24034192.62642  24034196.05142
      -123.197         -95.999  
 122353627.717    95340491.2074   23283117.503 6  23283117.36643  23283121.00543
      2884.410        2247.582  
 08 11 15  0 37 30.0000000  0  9G 6G16G 3G23G31G13G19G21G25         
 107211557.982    83541473.7384   20401677.430 8  20401677.38545  20401681.60145
       244.248         190.322  
 111367271.864    86779692.6644   21192484.930 8  21192484.39445  21192487.11145
     -1252.173        -975.719  
 106285948.221    82820228.6054   20225542.603 7  20225541.79345  20225546.51145
      1353.857        1054.960  
 114177401.507    88969418.7174   21727238.821 7  21727238.58743  21727239.96343
      -990.222        -771.599  
 122004897.412    95068749.7874   23216757.916 7  23216758.08245  23216761.74245
     -2842.596       -2215.002  
 117319142.560    91417520.8514   22325090.073 7  22325090.21944  22325093.43544
       761.174         593.114  
 117178198.749    91307691.0844   22298264.966 6  22298264.16144  22298265.60944
      3067.311        2390.116  
 126304444.870    98419050.1904   24034936.085 6  24034934.95943  24034939.29843
      -136.724        -106.540  
 122267137.088    95273095.9254   23266659.141 6  23266658.91343  23266661.79043
      2881.892        2245.633  
 08 11 15  0 38  0.0000000  0  9G 6G16G 3G23G31G13G19G21G25         
 107204461.452    83535943.9654   20400327.082 8  20400326.66545  20400331.21345
       229.772         179.039  
 111404907.057    86809018.7724   21199646.387 8  21199645.64145  21199648.81746
     -1255.930        -978.645  
 106245577.266    82788770.7154   20217860.151 7  20217859.74445  20217864.81345
      1338.422        1042.920  
 114207381.610    88992779.8044   21732942.870 6  21732942.02343  21732944.32243
     -1007.560        -785.098  
 122090287.177    95135287.2164   23233007.356 7  23233007.43045  23233011.00245
     -2849.148       -2220.119  
 117296598.338    91399953.9204   22320799.256 7  22320798.59144  22320802.81344
       742.732         578.755  
 117086326.314    91236102.1944   22280781.416 7  22280780.96244  22280783.88144
      3058.415        2383.181  
 126308767.419    98422418.4034   24035758.124 6  24035757.79543  24035760.97243
      -150.558        -117.317  
 122180737.802    95205771.8204   23250217.553 6  23250216.87943  23250220.49743
      2878.971        2243.342  
 08 11 15  0 38 30.0000000  0  9G 6G16G 3G23G31G13G19G21G25         
 107197814.569    83530764.5574   20399062.070 8  20399061.64945  20399065.92445
       214.376         167.044  
 111442670.141    86838444.5394   21206832.423 8  21206832.18246  21206834.97246
     -1260.570        -982.265  
 106205685.786    82757686.4384   20210269.182 7  20210268.98545  20210274.18645
      1322.035        1030.154  
 114237896.214    89016557.4064   21738750.362 6  21738749.98843  21738751.55443
     -1025.716        -799.267  
 122175888.884    95201989.7954   23249296.401 7  23249296.58844  23249300.43345
     -2856.585       -2225.911  
 117274624.907    91382831.7564   22316618.304 7  22316618.60844  22316621.37544
       723.229         563.558  
 116994737.723    91164734.4764   22263352.957 6  22263351.65744  22263355.24444
      3048.518        2375.468  
 126313521.509    98426122.8734   24036662.902 6  24036663.28543  24036666.68143
      -165.327        -128.823  
 122094442.777    95138528.9344   23233795.913 6  23233796.02243  23233799.10743
      2875.054        2240.309  
 08 11 15  0 39  0.0000000  0  9G 6G16G 3G23G31G13G19G21G25         
 107191600.597    83525922.4854   20397879.597 8  20397879.42145  20397882.94145
       199.809         155.697  
 111480544.229    86867956.7984   21214039.678 8  21214038.95346  21214042.07846
     -1264.431        -985.269  
 106166258.088    82726963.5494   20202766.181 7  20202765.40845  20202770.96945
      1306.412        1017.987  
 114268927.132    89040737.3484   21744655.265 6  21744654.93343  21744657.28843
     -1043.066        -812.778  
 122261685.169    95268844.0054   23265622.829 7  23265623.26244  23265626.28044
     -2863.212       -2231.076  
 117253206.862    91366142.3634   22312542.145 7  22312541.81544  22312546.37744
       704.549         548.998  
 116903418.777    91093576.8654   22245974.791 6  22245973.85044  22245978.04944
      3039.350        2368.315  
 126318690.893    98430150.9824   24037647.574 6  24037646.86443  24037649.54743
      -179.359        -139.762  
 122008237.836    95071356.2734   23217392.314 6  23217392.11443  23217395.26343
      2871.851        2237.801  
 08 11 15  0 39 30.0000000  0  9G 6G16G 3G23G31G13G19G21G25         
 107185829.014    83521425.1424   20396781.337 8  20396780.99245  20396784.86745
       184.885         144.063  
 111518539.490    86897563.4824   21221269.779 8  21221269.23246  21221272.48746
     -1268.653        -988.562  
 106127304.800    82696610.3374   20195353.956 8  20195353.72545  20195359.16945
      1290.398        1005.506  
 114300483.157    89065326.4384   21750659.735 7  21750659.24443  21750661.27943
     -1060.741        -826.555  
 122347685.371    95335857.1164   23281988.941 7  23281988.91344  23281991.47344
     -2870.210       -2236.524  
 117232354.941    91349894.0994   22308574.040 7  22308573.75944  22308576.93644
       685.479         534.137  
 116812381.419    91022638.6624   22228651.408 6  22228649.76044  22228654.58944
      3029.708        2360.812  
 126324286.552    98434511.2324   24038712.006 7  24038711.91643  24038714.03043
      -193.771        -150.984  
 121922135.444    95004263.5054   23201007.385 6  23201006.77043  23201010.06443
      2868.208        2234.972  
 08 11 15  0 40  0.0000000  0  9G 6G16G 3G23G31G13G19G21G25         
 107180502.537    83517274.6324   20395767.743 8  20395767.28045  20395771.46445
       169.184         131.835  
 111556658.392    86927266.5044   21228523.610 8  21228523.16846  21228526.70446
     -1273.644        -992.451  
 106088829.541    82666629.6114   20188032.037 8  20188031.56745  20188037.32545
      1273.592         992.415  
 114332565.931    89090325.9844   21756765.747 6  21756764.38843  21756767.26243
     -1079.134        -840.883  
 122433891.558    95403030.7334   23298393.136 7  23298392.96144  23298395.24644
     -2877.901       -2242.522  
 117212072.906    91334089.8994   22304715.158 7  22304715.37044  22304718.18144
       665.620         518.666  
 116721630.964    90951924.0314   22211381.668 6  22211381.03344  22211385.60744
      3019.254        2352.667  
 126330311.845    98439206.2474   24039859.227 7  24039859.24843  24039860.95143
      -208.960        -162.822  
 121836140.800    94937254.6994   23184643.183 6  23184642.70443  23184646.69343
      2863.723        2231.471  
 08 11 15  0 40 30.0000000  0  9G 6G16G 3G23G31G13G19G21G25         
 107175634.331    83513481.2124   20394841.595 8  20394841.27345  20394845.04645
       155.141         120.897  
 111594914.651    86957076.5634   21235803.340 8  21235802.86246  21235806.62346
     -1276.988        -995.055  
 106050846.542    82637032.4744   20180804.025 7  20180803.68545  20180809.18445
      1258.384         980.565  
 114365187.689    89115745.5034   21762973.594 7  21762973.50643  21762975.33343
     -1095.857        -853.924  
 122520316.658    95470374.9324   23314838.640 7  23314838.97744  23314841.71944
     -2883.950       -2247.229  
 117192375.276    91318741.0924   22300966.830 7  22300966.19944  22300970.03144
       647.351         504.432  
 116631183.310    90881445.3584   22194170.006 6  22194169.13244  22194173.67044
      3010.370        2345.738  
 126336781.113    98444247.2154   24041089.753 7  24041089.96543  24041092.12043
      -222.554        -173.434  
 121750270.107    94870342.4884   23168302.844 6  23168302.21743  23168305.92343
      2860.754        2229.169  
 08 11 15  0 41  0.0000000  0  9G 6G16G 3G23G31G13G19G21G25         
 107171223.845    83510044.4704   20394002.305 8  20394002.11745  20394006.04845
       139.781         108.920  
 111633307.691    86986993.2094   21243109.751 8  21243109.24246  21243112.77246
     -1281.666        -998.700  
 106013356.441    82607819.4094   20173670.008 8  20173669.20845  20173674.96445
      1241.826         967.663  
 114398346.798    89141583.7314   21769283.455 7  21769283.31342  21769283.03242
     -1113.861        -867.946  
 122606959.233    95537888.5884   23331325.065 6  23331325.06944  23331329.91744
     -2891.333       -2252.982  
 117173262.337    91303847.8844   22297329.739 7  22297329.60344  22297332.86744
       627.722         489.127  
 116541040.361    90811204.0894   22177017.645 6  22177016.12344  22177020.28444
      3000.064        2337.705  
 126343694.949    98449634.6164   24042405.671 7  24042405.97243  24042407.49943
      -237.510        -185.076  
 121664525.294    94803528.3654   23151985.128 6  23151985.11443  23151989.65743
      2856.411        2225.771  
 08 11 15  0 41 30.0000000  0  9G 6G16G 3G23G31G13G19G21G25         
 107167249.326    83506947.4324   20393245.929 8  20393245.65445  20393249.32245
       124.821          97.268  
 111671815.840    87016999.5454   21250437.460 8  21250436.86046  21250440.51446
     -1285.932       -1002.025  
 105976338.493    82578974.2684   20166625.486 8  20166624.74645  20166630.57445
      1225.651         955.052  
 114432020.468    89167822.9434   21775691.506 7  21775691.85042  21775693.30842
     -1131.430        -881.629  
 122693797.594    95605554.8184   23347849.569 6  23347848.86744  23347855.40544
     -2898.259       -2258.394  
 117154713.812    91289394.4864   22293799.598 7  22293800.22144  22293803.09344
       608.479         474.144  
 116451182.648    90741185.0884   22159918.804 7  22159917.96144  22159920.45744
      2990.046        2329.918  
 126351032.423    98455352.1174   24043801.301 6  24043800.62543  24043804.24243
      -252.061        -196.404  
 121578887.575    94736797.6874   23135688.675 6  23135688.67243  23135692.91243
      2852.376        2222.634  
 08 11 15  0 42  0.0000000  0  9G 6G16G 3G23G31G13G19G21G25         
 107163717.590    83504195.4294   20392574.007 8  20392573.68545  20392577.28045
       110.091          85.789  
 111710446.405    87047101.2674   21257788.517 8  21257787.99046  21257791.73746
     -1289.992       -1005.187  
 105939800.456    82550503.0744   20159672.620 8  20159672.35545  20159677.72745
      1209.672         942.599  
 114466214.237    89194467.4234   21782198.584 7  21782199.28042  21782199.81642
     -1148.707        -895.083  
 122780837.761    95673378.2714   23364412.877 6  23364412.01943  23364418.93543
     -2904.955       -2263.608  
 117136737.507    91275386.9654   22290379.428 7  22290379.60444  22290382.28444
       589.427         459.293  
 116361619.937    90671395.9754   22142875.469 7  22142874.38744  22142877.44444
      2980.202        2322.245  
 126358801.352    98461405.8224   24045279.637 6  24045278.43843  24045282.82543
      -266.438        -207.627  
 121493366.553    94670157.9434   23119414.262 6  23119414.18643  23119418.53743
      2848.431        2219.564  
 08 11 15  0 42 30.0000000  0  9G 6G16G 3G23G31G13G19G21G25         
 107160626.415    83501786.7244   20391985.405 8  20391985.03645  20391989.23945
        95.487          74.406  
 111749197.298    87077296.7644   21265162.635 8  21265161.88246  21265165.66946
     -1293.932       -1008.263  
 105903741.140    82522404.9234   20152810.771 7  20152810.05245  20152815.65245
      1193.741         930.195  
 114500925.325    89221515.0034   21788803.738 7  21788803.79343  21788806.00043
     -1165.882        -908.495  
 122868077.177    95741357.0134   23381013.070 5  23381012.46243  23381019.71843
     -2911.529       -2268.732  
 117119332.303    91261824.4594   22287067.259 7  22287067.36744  22287070.96644
       570.391         444.461  
 116272352.396    90601836.8814   22125888.853 6  22125887.39344  22125890.42744
      2970.387        2314.581  
 126367000.506    98467794.7514   24046839.760 6  24046838.66743  24046843.89643
      -280.727        -218.764  
 121407962.825    94603609.5934   23103162.918 6  23103163.07743  23103166.26843
      2844.585        2216.562  
 08 11 15  0 43  0.0000000  0  9G 6G16G 3G23G31G13G19G21G25         
 107157968.785    83499715.8384   20391479.846 8  20391479.36945  20391483.82145
        80.865          63.014  
 111788061.665    87107580.6714   21272558.000 8  21272557.38746  21272561.39446
     -1297.878       -1011.335  
 105868154.416    82494675.0224   20146039.111 7  20146038.79944  20146042.67644
      1177.833         917.791  
 114536145.329    89248959.1024   21795505.964 7  21795505.99143  21795507.59543
     -1182.970        -921.796  
 122955508.464    95809485.2444   23397652.312 6  23397652.66544  23397657.85044
     -2918.067       -2273.818  
 117102492.522    91248702.5504   22283862.293 7  22283862.28944  22283865.76144
       551.380         429.642  
 116183375.374    90532504.1544   22108955.903 7  22108955.40544  22108958.02344
      2960.522        2306.902  
 126375623.673    98474514.0954   24048481.143 7  24048480.55843  24048483.45943
      -295.030        -229.895  
 121322672.354    94537149.4944   23086933.093 6  23086933.29743  23086936.26343
      2840.610        2213.454  
 08 11 15  0 43 30.0000000  0  9G 6G16G 3G23G31G13G19G21G25         
 107155796.051    83498022.8004   20391066.278 8  20391066.07045  20391070.51645
        64.908          50.574  
 111827091.363    87137993.4184   21279985.273 8  21279984.59046  21279988.52446
     -1303.176       -1015.469  
 105833093.048    82467354.4804   20139367.131 7  20139366.59544  20139370.81544
      1160.510         904.288  
 114571924.608    89276839.0504   21802314.209 7  21802313.30343  21802315.32243
     -1201.372        -936.130  
 123043182.537    95877802.6564   23414336.194 6  23414336.27144  23414340.99144
     -2925.933       -2279.940  
 117086270.485    91236061.9944   22280775.705 7  22280776.06744  22280779.20444
       530.995         413.760  
 116094742.999    90463440.0044   22092090.501 7  22092089.91244  22092091.92244
      2949.223        2298.087  
 126384723.290    98481604.7054   24050212.997 7  24050212.82243  24050214.81843
      -310.689        -242.094  
 121237549.315    94470819.8534   23070734.968 6  23070735.11343  23070738.62344
      2835.175        2209.228  
 08 11 15  0 44  0.0000000  0  9G 6G16G 3G23G31G13G19G21G25         
 107154078.788    83496684.6764   20390739.620 8  20390739.35545  20390743.67545
        49.948          38.920  
 111866257.400    87168512.3974   21287438.411 8  21287437.92346  21287441.69546
     -1307.524       -1018.853  
 105798528.362    82440420.9644   20132789.909 7  20132789.16744  20132794.05644
      1144.164         891.547  
 114608232.708    89305131.0564   21809222.715 6  21809223.26542  21809225.93742
     -1218.793        -949.714  
 123131069.722    95946286.1344   23431061.655 6  23431062.04244  23431065.49444
     -2932.834       -2285.323  
 117070637.931    91223880.7714   22277801.062 7  22277801.32744  22277804.62544
       511.561         398.614  
 116006428.574    90394623.6154   22075283.910 6  22075282.68644  22075285.15444
      2938.762        2289.949  
 126394270.824    98489044.3614   24052029.236 7  24052029.14743  24052032.14643
      -325.448        -253.604  
 121152567.236    94404600.0414   23054563.139 6  23054563.15544  23054566.70044
      2830.657        2205.693  
 08 11 15  0 44 30.0000000  0  9G 6G16G 3G23G31G13G19G21G25         
 107152802.470    83495690.1484   20390497.200 8  20390496.90245  20390500.82645
        33.981          26.480  
 111905545.424    87199126.4354   21294914.533 8  21294913.79146  21294918.02746
     -1312.844       -1022.992  
 105764446.910    82413863.9984   20126304.159 7  20126303.58644  20126308.18544
      1126.769         878.003  
 114645054.028    89333822.9734   21816230.305 6  21816229.65043  21816231.36543
     -1237.113        -963.968  
 123219154.834    96014923.8544   23447823.654 6  23447823.19144  23447827.59044
     -2940.653       -2291.423  
 117055581.454    91212148.4484   22274935.276 7  22274934.96844  22274939.11244
       491.052         382.638  
 115918419.953    90326045.5024   22058536.730 7  22058535.67043  22058537.23843
      2927.287        2280.998  
 126404253.319    98496822.9184   24053929.044 7  24053928.69743  24053932.08543
      -341.231        -265.894  
 121067714.459    94338480.9954   23038416.560 6  23038416.09143  23038419.55543
      2825.048        2201.331  
 08 11 15  0 45  0.0000000  0  9G 6G16G 3G23G31G13G19G21G25         
 107151985.760    83495053.7524   20390341.572 8  20390341.15845  20390345.17145
        20.429          15.919  
 111944974.496    87229850.3694   21302417.811 8  21302417.47146  21302421.11446
     -1315.781       -1025.281  
 105730868.340    82387698.8644   20119913.784 7  20119913.21744  20119917.74944
      1111.777         866.320  
 114682405.923    89362928.3294   21823338.004 6  21823337.70643  21823340.68843
     -1253.015        -976.375  
 123307456.216    96083730.0654   23464627.276 6  23464626.96144  23464631.72444
     -2946.105       -2295.657  
 117041121.081    91200880.6224   22272184.031 7  22272184.56244  22272187.24844
       472.942         368.537  
 115830738.556    90257722.3654   22041850.480 6  22041849.11643  22041851.97643
      2918.112        2273.865  
 126414690.074    98504955.4524   24055915.023 6  24055915.04543  24055918.03143
      -354.596        -276.311  
 120983012.651    94272479.5934   23022298.343 6  23022298.24144  23022301.16344
      2821.734        2198.748  
 08 11 15  0 45 30.0000000  0  9G 6G16G 3G23G31G13G19G21G25         
 107151614.741    83494764.6534   20390270.987 8  20390270.61145  20390274.56045
         3.976           3.108  
 111984531.205    87260673.7674   21309945.304 8  21309944.80946  21309948.34746
     -1321.652       -1029.854  
 105697779.869    82361915.6244   20113617.938 7  20113617.54144  20113622.08944
      1093.825         852.337  
 114720273.566    89392435.5714   21830544.167 6  21830543.55743  21830545.46343
     -1271.807        -991.009  
 123395959.754    96152693.7904   23481468.366 6  23481468.62744  23481473.38344
     -2954.454       -2302.163  
 117027243.490    91190066.8964   22269542.460 6  22269541.60344  22269547.32244
       451.916         352.143  
 115743372.889    90189645.2544   22025225.474 6  22025224.13043  22025226.07243
      2905.917        2264.357  
 126425567.816    98513431.6344   24057984.892 7  24057984.21543  24057987.21543
      -370.928        -289.031  
 120898450.738    94206587.1914   23006206.353 6  23006206.48543  23006208.87543
      2815.412        2193.841  
 08 11 15  0 46  0.0000000  0  9G 6G16G 3G23G31G13G19G21G25         
 107151718.364    83494845.4024   20390290.420 8  20390289.92845  20390294.27745
       -11.092          -8.640  
 112024244.862    87291619.4634   21317502.463 8  21317502.12746  21317505.65346
     -1326.120       -1033.344  
 105665211.549    82336537.7104   20107420.403 7  20107420.29044  20107424.18244
      1077.217         839.386  
 114758684.711    89422366.3314   21837854.244 7  21837853.61443  21837853.80543
     -1289.137       -1004.530  
 123484693.846    96221837.2094   23498353.238 6  23498353.96944  23498357.33344
     -2961.367       -2307.556  
 117013978.805    91179730.7644   22267018.022 7  22267017.74344  22267022.35644
       432.213         336.788  
 115656354.669    90121838.8644   22008666.384 6  22008665.37143  22008668.09043
      2895.057        2255.873  
 126436916.422    98522274.7094   24060144.305 7  24060144.19943  24060147.07043
      -385.877        -300.696  
 120814060.770    94140828.7894   22990147.844 6  22990147.80743  22990149.81243
      2810.377        2189.890  
 08 11 15  0 46 30.0000000  0  9G 6G16G 3G23G31G13G19G21G25         
 107152275.434    83495279.4874   20390396.261 8  20390395.75145  20390400.39945
       -26.177         -20.394  
 112064094.641    87322671.2204   21325085.791 8  21325085.26446  21325088.85746
     -1330.637       -1036.857  
 105633142.930    82311549.1634   20101317.130 7  20101316.55444  20101321.25944
      1060.572         826.418  
 114797617.140    89452703.2834   21845262.680 7  21845262.30243  21845263.63143
     -1306.454       -1018.013  
 123573636.957    96291143.4894   23515278.946 7  23515278.97444  23515284.23844
     -2968.274       -2312.951  
 117001306.757    91169856.4274   22264607.332 7  22264607.64744  22264611.33544
       412.463         321.403  
 115569665.240    90054288.6844   21992170.333 6  21992169.03043  21992171.98643
      2884.108        2247.369  
 126448716.246    98531469.3664   24062389.449 6  24062388.02343  24062392.67743
      -400.911        -312.395  
 120729824.606    94075190.2114   22974118.305 7  22974117.75543  22974120.16243
      2805.249        2185.901  
 08 11 15  0 47  0.0000000  0  9G 6G16G 3G23G31G13G19G21G25         
 107153289.442    83496069.6244   20390589.442 8  20390588.68145  20390593.32945
       -41.477         -32.318  
 112104084.659    87353832.2594   21332695.331 8  21332694.76346  21332698.69246
     -1335.394       -1040.565  
 105601578.880    82286953.7854   20095310.608 7  20095310.36844  20095315.33344
      1043.680         813.258  
 114837073.169    89483448.2184   21852770.374 7  21852770.52343  21852771.80443
     -1323.966       -1031.654  
 123662792.147    96360615.0444   23532244.945 7  23532245.08844  23532250.17344
     -2975.424       -2318.509  
 116989231.673    91160447.2744   22262310.011 7  22262309.89144  22262312.83144
       392.478         305.829  
 115483310.480    89986999.2604   21975736.975 6  21975735.50043  21975739.36943
      2872.835        2238.586  
 126460971.100    98541018.5974   24064720.234 6  24064720.39043  24064724.63743
      -416.149        -324.267  
 120645748.695    94009676.5144   22958119.375 7  22958118.64844  22958121.37044
      2799.763        2181.637  
 08 11 15  0 47 30.0000000  0  9G 6G16G 3G23G31G13G19G21G25         
 107154759.396    83497215.0464   20390868.826 8  20390868.44845  20390872.89045
       -56.604         -44.110  
 112144214.322    87385102.1154   21340332.001 8  21340331.42446  21340335.01846
     -1339.996       -1044.156  
 105570519.333    82262751.5374   20089400.244 7  20089399.34544  20089404.66844
      1026.873         800.157  
 114877050.558    89514599.3914   21860377.913 7  21860376.99343  21860378.73443
     -1341.277       -1045.159  
 123752158.122    96430250.8344   23549250.978 6  23549251.07444  23549256.14144
     -2982.386       -2323.946  
 116977754.180    91151503.7484   22260126.051 7  22260126.54844  22260130.01344
       372.598         290.335  
 115397292.361    89919972.1914   21959367.901 6  21959366.47443  21959371.22243
      2861.602        2229.823  
 126473681.058    98550922.4634   24067140.541 7  24067139.34743  24067142.64943
      -431.289        -336.070  
 120561835.223    93944289.4004   22942150.970 7  22942150.79044  22942153.57544
      2794.374        2177.438  
 08 11 15  0 48  0.0000000  0  9G 6G16G 3G23G31G13G19G21G25         
 107156685.461    83498715.8754   20391235.612 8  20391235.22945  20391239.55645
       -71.830         -55.980  
 112184484.068    87416481.1164   21347995.211 8  21347994.93046  21347998.05946
     -1344.677       -1047.805  
 105539965.614    82238943.4414   20083586.256 7  20083585.84444  20083591.10844
      1010.022         787.031  
 114917548.437    89546156.1734   21868084.033 7  21868083.22643  21868086.08243
     -1358.597       -1058.639  
 123841734.759    96500050.7694   23566296.019 7  23566295.93844  23566301.22044
     -2989.424       -2329.425  
 116966875.726    91143027.0214   22258056.108 7  22258056.17444  22258058.85144
       352.616         274.776  
 115311613.464    89853209.4074   21943064.717 6  21943063.25643  21943066.23843
      2850.277        2220.997  
 126486847.380    98561181.9274   24069644.248 6  24069644.39043  24069648.56443
      -446.521        -347.936  
 120478087.379    93879031.3454   22926214.356 7  22926214.00844  22926216.84744
      2788.786        2173.080  
 08 11 15  0 48 30.0000000  0  9G 6G16G 3G23G31G13G19G21G25         
 107159062.042    83500567.7614   20391688.019 8  20391687.45145  20391691.89645
       -87.121         -67.888  
 112224888.957    87447965.4274   21355683.804 8  21355683.26146  21355687.39146
     -1349.497       -1051.561  
 105509912.656    82215525.5424   20077867.721 7  20077867.18644  20077872.44944
       992.997         773.757  
 114958560.180    89578113.3654   21875888.417 7  21875887.53743  21875890.82643
     -1376.027       -1072.225  
 123931516.132    96570010.2454   23583381.362 7  23583381.77844  23583385.93244
     -2996.528       -2334.967  
 116956590.653    91135012.6814   22256098.529 7  22256098.49544  22256101.88044
       332.518         259.096  
 115226270.710    89786708.5694   21926823.409 6  21926821.72043  21926826.95643
      2838.719        2211.985  
 126500465.249    98571793.2504   24072236.475 6  24072235.92543  24072239.84143
      -461.872        -359.898  
 120394502.471    93813900.2584   22910308.556 7  22910308.40344  22910311.29644
      2782.997        2168.575  
 08 11 15  0 49  0.0000000  0  9G 6G16G 3G23G31G13G19G21G25         
 107161909.628    83502786.6594   20392229.684 8  20392229.30745  20392233.51345
      -103.042         -80.296  
 112265450.210    87479571.5824   21363402.563 8  21363401.91346  21363405.67446
     -1354.929       -1055.788  
 105480382.043    82192514.6724   20072248.791 7  20072247.72345  20072252.22945
       975.358         760.020  
 115000105.273    89610486.1734   21883794.889 7  21883794.03443  21883796.57643
     -1393.973       -1086.221  
 124021522.410    96640144.9834   23600508.664 7  23600509.00244  23600513.31544
     -3004.239       -2340.958  
 116946921.081    91127477.9524   22254259.153 7  22254259.14344  22254262.03144
       311.770         242.941  
 115141287.447    89720487.8524   21910652.829 6  21910651.87943  21910656.01843
      2826.491        2202.450  
 126514556.247    98582773.2614   24074918.266 6  24074917.13943  24074921.39443
      -477.863        -372.378  
 120311104.296    93748914.6794   22894438.671 7  22894438.58344  22894441.42444
      2776.523        2163.520  
 08 11 15  0 49 30.0000000  0  9G 6G16G 3G23G31G13G19G21G25         
 107165229.349    83505373.4614   20392861.317 8  20392861.14745  20392865.34045
      -118.711         -92.503  
 112306169.384    87511300.7904   21371151.313 8  21371150.89646  21371154.03046
     -1360.105       -1059.821  
 105451376.177    82169912.6984   20066728.741 7  20066728.66845  20066732.60445
       957.945         746.451  
 115042183.346    89643274.2734   21891801.973 7  21891801.56143  21891804.22143
     -1411.637       -1099.970  
 124111754.449    96710455.6184   23617678.400 6  23617678.44143  23617683.46543
     -3011.656       -2346.748  
 116937869.282    91120424.5974   22252535.576 7  22252535.37144  22252539.34744
       291.265         226.954  
 115056667.469    89654550.2014   21894550.265 6  21894549.29644  21894553.17044
      2814.409        2193.048  
 126529122.247    98594123.3874   24077689.537 6  24077688.77843  24077693.76443
      -493.626        -384.642  
 120227897.188    93684077.9844   22878604.717 7  22878604.37944  22878607.52744
      2770.193        2158.597  
 08 11 15  0 50  0.0000000  0  9G 6G16G 3G23G31G13G19G21G25         
 107169025.440    83508331.4634   20393583.942 8  20393583.80445  20393588.05045
      -133.870        -104.318  
 112347051.352    87543156.8464   21378930.541 8  21378930.02645  21378933.90845
     -1364.846       -1063.522  
 105422900.266    82147723.6724   20061310.512 7  20061310.24645  20061314.15445
       940.971         733.227  
 115084797.499    89676480.1124   21899911.435 7  21899910.86543  21899914.05143
     -1428.797       -1113.347  
 124202216.099    96780945.1704   23634892.108 6  23634891.38743  23634897.41043
     -3018.615       -2352.162  
 116929440.121    91113856.4084   22250931.924 7  22250931.84444  22250935.57344
       271.189         211.312  
 114972417.580    89588900.9344   21878516.988 6  21878515.25443  21878520.30143
      2802.718        2183.930  
 126544168.917    98605848.0474   24080553.134 6  24080552.43443  24080556.52743
      -508.949        -396.591  
 120144888.414    93619395.8374   22862808.534 7  22862808.01144  22862811.84044
      2764.227        2153.935  
 08 11 15  0 50 30.0000000  0  9G 6G16G 3G23G31G13G19G21G25         
 107173269.255    83511638.3394   20394391.753 8  20394391.33345  20394395.34845
      -148.896        -116.022  
 112388068.321    87575118.1044   21386735.563 7  21386735.37346  21386739.54946
     -1369.483       -1067.136  
 105394926.073    82125925.6004   20055987.190 8  20055986.77445  20055990.81445
       924.110         720.081  
 115127918.073    89710080.5514   21908116.634 6  21908115.85743  21908119.44743
     -1445.754       -1126.560  
 124292878.305    96851591.0214   23652146.004 6  23652145.57143  23652149.38743
     -3025.373       -2357.434  
 116921605.953    91107751.8434   22249440.346 7  22249440.51844  22249444.65544
       251.253         195.772  
 114888511.854    89523519.8704   21862550.551 6  21862549.08044  21862553.78244
      2791.102        2174.874  
 126559667.825    98617925.1174   24083502.588 6  24083502.30043  24083505.95143
      -524.159        -408.444  
 120062052.620    93554848.4824   22847045.596 7  22847045.34544  22847048.52644
      2758.298        2149.321  
 08 11 15  0 51  0.0000000  0 10G 6G16G 3G23G31G13G19G21G25G 7      
 107177978.885    83515308.1804   20395288.024 8  20395287.85545  20395291.90745
      -165.292        -128.792  
 112429238.805    87607198.9894   21394570.296 8  21394569.71445  21394573.81545
     -1375.452       -1071.782  
 105367473.202    82104533.7494   20050762.710 7  20050762.49145  20050766.58345
       905.853         705.860  
 115171561.976    89744088.7794   21916422.215 6  21916421.43543  21916423.86143
     -1464.058       -1140.820  
 124383758.929    96922407.0434   23669440.068 6  23669439.48943  23669443.08143
     -3033.521       -2363.794  
 116914385.609    91102125.5764   22248066.968 7  22248066.67744  22248070.68944
       229.894         179.138  
 114804970.886    89458423.0094   21846654.953 7  21846654.06544  21846656.31844
      2778.044        2164.702  
 126575638.170    98630369.5564   24086541.880 6  24086540.95343  24086545.26543
      -540.740        -421.369  
 119979410.908    93490452.3524   22831319.102 7  22831318.95744  22831322.46444
      2750.915        2143.569  
 127776044.971    99565755.3984   24314971.128 6  24314970.86843  24314974.20543
      3453.059        2690.686  
 08 11 15  0 51 30.0000000  0 10G 6G16G 3G23G31G13G19G21G25G 7      
 107183141.994    83519331.3824   20396270.201 8  20396270.21945  20396274.62545
      -180.113        -140.344  
 112470550.720    87639390.0824   21402431.715 8  21402431.20746  21402435.32446
     -1379.889       -1075.238  
 105340530.075    82083539.1074   20045635.532 7  20045634.91745  20045639.82545
       889.151         692.847  
 115215715.895    89778494.3894   21924824.096 6  21924823.07043  21924824.28543
     -1480.722       -1153.813  
 124474845.268    96993383.3544   23686773.367 6  23686773.39343  23686777.27943
     -3040.110       -2368.912  
 116907768.029    91096969.0064   22246807.916 7  22246807.82844  22246810.87144
       210.088         163.708  
 114721784.792    89393602.6774   21830825.644 7  21830824.96345  21830826.76745
      2766.466        2155.690  
 126592068.705    98643172.5804   24089668.377 6  24089668.19243  24089671.43643
      -555.814        -433.096  
 119896954.250    93426200.4134   22815628.416 7  22815627.75844  22815631.31344
      2744.983        2138.942  
 127672449.695    99485031.8424   24295257.645 6  24295257.88243  24295261.62643
      3452.052        2689.914  
 08 11 15  0 52  0.0000000  0 10G 6G16G 3G23G31G13G19G21G25G 7      
 107188762.628    83523711.0914   20397339.864 8  20397339.78045  20397344.53645
      -194.926        -151.886  
 112512008.996    87671695.2184   21410321.248 8  21410320.71145  21410324.55045
     -1384.338       -1078.700  
 105314102.021    82062945.8134   20040606.379 7  20040606.23445  20040610.41645
       872.388         679.786  
 115260382.166    89813299.2524   21933324.154 6  21933323.96843  21933325.22343
     -1497.364       -1166.783  
 124566141.156    97064522.9524   23704146.085 6  23704146.88243  23704150.03743
     -3046.630       -2373.998  
 116901758.050    91092285.8964   22245664.177 6  22245663.96143  22245667.57943
       190.255         148.246  
 114638960.578    89329064.3384   21815064.612 7  21815063.42145  21815065.93445
      2754.783        2146.591  
 126608964.230    98656337.9154   24092883.136 6  24092882.64043  24092885.92943
      -570.910        -444.864  
 119814689.878    93362098.3184   22799973.351 7  22799972.70744  22799977.21644
      2738.958        2134.253  
 127568898.983    99404342.9934   24275552.596 7  24275552.87543  24275555.25243
      3450.959        2689.066  
 08 11 15  0 52 30.0000000  0 10G 6G16G 3G23G31G13G19G21G25G 7      
 107194829.900    83528438.8364   20398494.546 7  20398494.27645  20398498.73845
      -210.427        -163.963  
 112553603.520    87704106.5164   21418236.525 8  21418235.72046  21418239.37846
     -1389.495       -1082.721  
 105288179.016    82042746.0734   20035673.367 7  20035672.85945  20035677.83145
       854.946         666.192  
 115305548.897    89848494.0804   21941919.505 6  21941919.08143  21941920.76243
     -1514.630       -1180.238  
 124657635.432    97135817.1414   23721556.812 6  23721557.85243  23721560.98743
     -3053.835       -2379.612  
 116896345.448    91088068.2894   22244634.070 6  22244634.07843  22244637.40343
       169.722         132.247  
 114556489.891    89264801.4774   21799370.756 7  21799369.75445  21799372.44945
      2742.362        2136.908  
 126626314.839    98669857.8714   24096184.324 6  24096182.58343  24096187.56743
      -586.677        -457.150  
 119732610.190    93298140.1344   22784353.852 7  22784353.44044  22784357.95144
      2732.149        2128.945  
 127465385.111    99323682.8964   24255854.430 6  24255854.25843  24255857.67943
      3449.072        2687.592  
 08 11 15  0 53  0.0000000  0 10G 6G16G 3G23G31G13G19G21G25G 7      
 107201355.291    83533523.5554   20399735.779 7  20399735.81845  20399740.25045
      -224.644        -175.054  
 112595346.395    87736633.4154   21426179.936 8  21426179.19145  21426182.68045
     -1393.386       -1085.759  
 105262773.005    82022949.1834   20030839.194 7  20030838.86645  20030843.25545
       838.761         653.583  
 115351226.374    89884086.9144   21950612.020 7  21950612.13743  21950613.79243
     -1530.563       -1192.651  
 124749339.232    97207274.5824   23739007.706 6  23739007.17643  23739012.50943
     -3059.755       -2384.228  
 116891542.655    91084325.8564   22243720.316 6  22243720.41343  22243722.98543
       150.446         117.221  
 114474386.897    89200825.1384   21783746.948 7  21783745.79145  21783748.67145
      2731.137        2128.160  
 126644132.852    98683742.0414   24099574.506 6  24099573.63343  24099579.11843
      -601.233        -468.484  
 119650729.972    93234337.3854   22768772.362 7  22768771.89544  22768776.96544
      2726.506        2124.552  
 127361922.557    99243062.7534   24236166.016 7  24236165.71643  24236168.62643
      3448.379        2687.049  
 08 11 15  0 53 30.0000000  0 10G 6G16G 3G23G31G13G19G21G25G 7      
 107208332.822    83538960.5834   20401063.550 7  20401063.13745  20401067.74445
      -240.571        -187.455  
 112637232.674    87769272.0564   21434151.000 8  21434150.42746  21434153.49046
     -1399.051       -1090.167  
 105237879.281    82003551.4854   20026102.343 7  20026101.88845  20026106.10445
       820.799         639.588  
 115397407.695    89920072.3324   21959398.949 6  21959398.62042  21959398.45443
     -1548.216       -1206.383  
 124841246.415    97278890.4984   23756497.174 6  23756497.60943  23756501.38943
     -3067.403       -2390.180  
 116887344.540    91081054.5964   22242921.089 6  22242920.14043  22242925.00443
       129.408         100.846  
 114392648.144    89137132.6054   21768192.447 7  21768191.56145  21768194.38145
      2718.070        2117.980  
 126662413.429    98697986.6524   24103053.709 6  24103052.07543  24103056.35043
      -617.523        -481.181  
 119569046.488    93170687.9314   22753228.468 7  22753227.91444  22753232.73044
      2719.015        2118.719  
 127258508.348    99162480.2814   24216487.090 7  24216487.52343  24216489.03643
      3445.854        2685.063  
 08 11 15  0 54  0.0000000  0 10G 6G16G 3G23G31G13G19G21G25G 7      
 107215779.867    83544763.4684   20402480.340 7  20402480.27845  20402484.55045
      -256.399        -199.792  
 112679280.369    87802036.4824   21442151.733 8  21442151.22045  21442155.00246
     -1404.609       -1094.503  
 105213515.911    81984567.0494   20021466.540 8  20021466.39145  20021470.12445
       802.934         625.663  
 115444108.789    89956462.7754   21968285.467 6  21968285.95042  21968286.89842
     -1565.665       -1220.006  
 124933374.071    97350678.2324   23774029.351 7  23774030.13744  23774032.77444
     -3074.927       -2396.057  
 116883769.170    91078268.5824   22242241.338 6  22242242.01543  22242244.13743
       108.447          84.506  
 114311293.715    89073739.5704   21752710.890 7  21752709.88545  21752712.33645
      2705.065        2107.837  
 126681174.994    98712606.0564   24106623.826 6  24106623.08243  24106627.61743
      -633.736        -493.814  
 119487580.440    93107207.9044   22737726.165 7  22737725.71744  22737730.48544
      2711.553        2112.894  
 127155163.413    99081951.7964   24196821.112 7  24196821.42943  24196823.74243
      3443.319        2683.104  
 08 11 15  0 54 30.0000000  0 10G 6G16G 3G23G31G13G19G21G25G 7      
 107223712.329    83550944.5914   20403990.192 7  20403989.64945  20403994.10845
      -272.101        -212.023  
 112721506.166    87834939.6884   21450187.145 8  21450186.26745  21450190.34145
     -1410.109       -1098.787  
 105189700.259    81966009.4094   20016934.586 8  20016934.33445  20016937.89145
       785.109         611.772  
 115491344.414    89993269.7394   21977273.767 6  21977272.65942  21977276.75442
     -1583.010       -1233.526  
 125025737.869    97422649.9564   23791605.562 6  23791606.51744  23791610.07844
     -3082.331       -2401.814  
 116880833.586    91075981.1284   22241682.154 6  22241681.78743  22241686.59543
        87.583          68.229  
 114230342.332    89010660.5944   21737306.705 7  21737305.89045  21737307.98845
      2692.031        2097.680  
 126700433.386    98727612.6124   24110288.893 6  24110288.30843  24110293.00243
      -649.845        -506.382  
 119406351.052    93043912.2854   22722268.801 7  22722268.44644  22722273.22344
      2704.069        2107.060  
 127051906.647    99001492.0064   24177171.873 7  24177172.66843  24177174.57243
      3440.772        2681.122  
 08 11 15  0 55  0.0000000  0 10G 6G16G 3G23G31G13G19G21G25G 7      
 107232091.050    83557473.4594   20405584.082 7  20405583.84945  20405588.44945
      -286.231        -223.033  
 112763871.498    87867951.6244   21458248.601 8  21458248.30845  21458252.05345
     -1413.993       -1101.807  
 105166394.119    81947848.7944   20012498.885 7  20012498.24245  20012502.90745
       768.889         599.129  
 115539074.235    90030461.8174   21986356.389 6  21986356.40942  21986358.52542
     -1598.717       -1245.751  
 125118298.555    97494775.1344   23809220.035 7  23809221.06844  23809223.07644
     -3088.126       -2406.328  
 116878499.674    91074162.4724   22241238.514 6  22241238.17643  22241242.06743
        68.258          53.191  
 114149757.310    88947867.0934   21721971.257 7  21721970.30345  21721972.91945
      2680.526        2088.724  
 126720150.667    98742976.7364   24114041.543 6  24114041.15543  24114045.35743
      -664.415        -517.721  
 119325322.626    92980773.2514   22706849.948 7  22706849.36744  22706853.95144
      2698.059        2102.393  
 126948702.153    98921072.9514   24157533.292 7  24157533.54743  24157534.70643
      3439.745        2680.331  
 08 11 15  0 55 30.0000000  0 10G 6G16G 3G23G31G13G19G21G25G 7      
 107240918.730    83564352.1734   20407264.036 7  20407263.70045  20407268.25145
      -301.212        -234.721  
 112806379.704    87901074.8884   21466337.865 7  21466337.15845  21466341.28145
     -1418.812       -1105.567  
 105143600.768    81930087.7574   20008160.837 7  20008160.57945  20008164.94845
       751.758         585.793  
 115587299.698    90068040.0854   21995533.601 6  21995533.86542  21995535.08542
     -1615.226       -1258.624  
 125211058.183    97567055.2854   23826871.520 7  23826872.47544  23826875.29144
     -3094.774       -2411.497  
 116876770.729    91072815.2374   22240909.953 6  22240910.08043  22240912.80843
        48.079          37.468  
 114069544.062    88885363.2914   21706707.424 7  21706706.42045  21706708.94945
      2668.086        2079.021  
 126740330.866    98758701.5984   24117881.749 6  24117881.28243  24117885.26543
      -679.865        -529.780  
 119244500.931    92917795.3274   22691469.886 7  22691469.69244  22691473.80244
      2691.099        2096.962  
 126845555.628    98840699.0574   24137904.843 7  24137905.01843  24137907.54343
      3437.809        2678.806  
 08 11 15  0 56  0.0000000  0 10G 6G16G 3G23G31G13G19G21G25G 7      
 107250205.163    83571588.3494   20409031.678 7  20409031.53745  20409035.55745
      -317.016        -247.031  
 112849041.989    87934318.2114   21474456.306 7  21474456.03145  21474459.68445
     -1424.474       -1109.977  
 105121330.780    81912734.5364   20003923.187 7  20003923.21345  20003926.98545
       733.758         571.764  
 115636029.265    90106011.1254   22004807.284 6  22004806.60942  22004807.46942
     -1632.545       -1272.108  
 125304026.478    97639498.0704   23844562.980 7  23844563.32644  23844566.70444
     -3102.244       -2417.328  
 116875657.165    91071947.5064   22240697.427 6  22240697.07043  22240700.94743
        27.026          21.057  
 113989715.020    88823158.8594   21691516.438 7  21691515.29145  21691517.68345
      2654.694        2068.595  
 126760984.509    98774795.3484   24121812.108 6  24121810.45143  24121815.57143
      -696.172        -542.469  
 119163899.398    92854988.9394   22676132.312 7  22676132.12544  22676135.80144
      2683.176        2090.790  
 126742480.378    98760380.7284   24118290.193 7  24118290.88343  24118292.87343
      3434.820        2676.488  
 08 11 15  0 56 30.0000000  0 10G 6G16G 3G23G31G13G19G21G25G 7      
 107259943.295    83579176.4974   20410884.801 7  20410884.42145  20410888.91645
      -332.836        -259.351  
 112891851.821    87967676.5054   21482602.919 7  21482602.13745  21482605.75345
     -1430.160       -1114.410  
 105099578.518    81895784.7384   19999784.068 7  19999783.58545  19999787.66645
       715.734         557.711  
 115685254.655    90144368.5544   22014174.257 6  22014173.17142  22014177.83442
     -1649.815       -1285.587  
 125397196.119    97712097.7304   23862292.836 7  23862293.28044  23862296.00644
     -3109.717       -2423.160  
 116875152.523    91071554.2654   22240601.867 6  22240602.53943  22240605.34643
         5.939           4.627  
 113910265.810    88761250.4024   21676397.448 7  21676396.52545  21676398.87245
      2641.245        2058.114  
 126782105.190    98791253.0424   24125831.036 6  24125829.56243  24125834.16243
      -712.516        -555.231  
 119083514.213    92792351.1354   22660835.424 7  22660835.33644  22660839.61444
      2675.166        2084.534  
 126639472.226    98680114.6604   24098688.758 6  24098688.86643  24098690.62443
      3431.733        2674.075  
 08 11 15  0 57  0.0000000  0 10G 6G16G 3G23G31G13G19G21G25G 7      
 107270157.270    83587135.4234   20412828.791 7  20412828.57545  20412832.61745
      -347.817        -271.027  
 112934834.067    88001169.1404   21490782.001 8  21490781.83445  21490785.10545
     -1435.063       -1118.227  
 105078368.893    81879257.7604   19995748.016 7  19995747.46045  19995751.57945
       698.498         544.284  
 115734998.929    90183130.3154   22023639.057 6  22023640.05642  22023643.65942
     -1666.199       -1298.331  
 125490591.030    97784872.9264   23880065.030 7  23880065.30844  23880068.61444
     -3116.352       -2428.323  
 116875282.014    91071655.1384   22240625.242 6  22240625.41643  22240628.83443
       -14.308         -11.147  
 113831223.232    88699658.7904   21661356.422 7  21661355.14945  21661357.78545
      2628.508        2048.193  
 126803718.031    98808094.2344   24129943.343 7  24129943.22143  24129946.68343
      -728.093        -567.352  
 119003372.917    92729903.3734   22645585.206 7  22645584.69244  22645589.08244
      2667.827        2078.824  
 126536558.956    98599922.5194   24079104.338 6  24079104.63743  24079108.18643
      3429.382        2672.250  
 08 11 15  0 57 30.0000000  0 10G 6G16G 3G23G31G13G19G21G25G 7      
 107280815.807    83595440.7704   20414856.891 7  20414856.70345  20414860.99345
      -363.313        -283.100  
 112977958.397    88034772.5024   21498988.455 7  21498988.05945  21498991.26445
     -1440.446       -1122.423  
 105057671.362    81863129.8154   19991809.484 7  19991809.51745  19991812.96545
       680.758         530.456  
 115785229.367    90222270.9544   22033197.959 6  22033196.52542  22033201.24042
     -1683.051       -1311.488  
 125584179.677    97857799.0874   23897873.585 7  23897873.87544  23897878.10544
     -3123.450       -2433.851  
 116876015.194    91072226.4364   22240765.130 6  22240764.98743  22240769.06243
       -35.113         -27.364  
 113752558.520    88638361.6274   21646387.038 7  21646385.76245  21646388.74645
      2615.228        2037.835  
 126825792.496    98825295.1284   24134144.378 6  24134144.47743  24134146.97943
      -744.121        -579.824  
 118923447.654    92667623.9524   22630375.845 7  22630375.70344  22630379.16244
      2659.937        2072.672  
 126433712.470    98519782.4354   24059532.993 6  24059534.10843  24059536.74243
      3426.469        2669.965  
 08 11 15  0 58  0.0000000  0 10G 6G16G 3G23G31G13G19G21G25G 7      
 107291940.225    83604109.1374   20416973.671 7  20416973.29945  20416977.61245
      -377.972        -294.522  
 113021247.158    88068503.9764   21507226.107 7  21507225.76545  21507228.96045
     -1445.101       -1126.048  
 105037508.255    81847418.3024   19987972.429 7  19987972.01545  19987976.46945
       663.799         517.249  
 115835966.165    90261806.1414   22042853.553 6  22042852.77742  22042855.95142
     -1699.003       -1323.913  
 125677983.343    97930892.7744   23915724.128 7  23915723.75844  23915727.77044
     -3129.764       -2438.768  
 116877373.935    91073285.1894   22241023.604 6  22241024.07843  22241028.85843
       -55.125         -42.949  
 113674295.821    88577377.7144   21631493.703 7  21631492.63545  21631495.77945
      2602.647        2028.039  
 126848350.644    98842872.9344   24138437.306 6  24138436.31643  24138439.02543
      -759.390        -591.731  
 118843763.310    92605532.2554   22615213.006 7  22615212.40145  22615215.84644
      2652.702        2067.044  
 126330957.380    98439713.5484   24039979.958 6  24039979.67842  24039982.75142
      3424.222        2668.207  
 08 11 15  0 58 30.0000000  0 10G 6G16G 3G23G31G13G19G21G25G 7      
 107303515.530    83613128.8544   20419176.622 8  20419176.27445  20419180.76345
      -394.273        -307.229  
 113064686.072    88102352.4704   21515492.254 7  21515491.78745  21515494.74645
     -1451.402       -1130.967  
 105017865.186    81832112.0034   19984234.285 7  19984233.88945  19984238.51845
       645.167         502.731  
 115887192.865    90301723.0484   22052601.910 6  22052602.33942  22052603.82742
     -1716.640       -1337.641  
 125771986.833    98004142.1964   23933612.083 7  23933612.57544  23933617.05544
     -3137.701       -2444.956  
 116879343.411    91074819.8704   22241398.513 6  22241398.34542  22241401.03842
       -76.767         -59.823  
 113596422.760    88516697.4204   21616675.066 7  21616674.03145  21616676.85445
      2588.314        2016.867  
 126871378.659    98860816.8484   24142818.286 6  24142816.99843  24142821.55043
      -776.350        -604.943  
 118764308.164    92543619.1624   22600092.994 7  22600093.01945  22600096.46345
      2643.705        2060.030  
 126228282.234    98359706.9464   24020440.657 6  24020441.49842  24020444.87742
      3420.200        2665.083  
 08 11 15  0 59  0.0000000  0 10G 6G16G 3G23G31G13G19G21G25G 7      
 107315540.567    83622499.0094   20421465.066 8  20421464.67345  20421468.88045
      -408.810        -318.557  
 113108274.888    88136317.7664   21523786.742 7  21523786.83345  21523789.74945
     -1455.930       -1134.495  
 104998742.186    81817210.9564   19980594.794 7  19980594.72345  19980599.41745
       628.274         489.564  
 115938907.341    90342020.0034   22062443.041 6  22062442.61542  22062444.99142
     -1732.398       -1349.917  
 125866188.437    98077545.9694   23951539.105 7  23951539.31144  23951543.30044
     -3143.818       -2449.731  
 116881923.953    91076830.6594   22241889.363 6  22241888.52042  22241891.88742
       -96.686         -75.348  
 113518940.601    88456321.7114   21601930.983 7  21601929.59245  21601932.27045
      2575.719        2007.049  
 126894875.616    98879126.1684   24147289.969 6  24147289.08143  24147293.20843
      -791.519        -616.770  
 118685084.625    92481886.5404   22585016.997 7  22585017.19645  22585020.66245
      2636.430        2054.355  
 126125689.192    98279764.3294   24000917.600 5  24000917.78942  24000922.00142
      3417.907        2663.312  
 08 11 15  0 59 30.0000000  0 10G 6G16G 3G23G31G13G19G21G25G 7      
 107328026.634    83632228.4144   20423840.718 8  20423840.56146  20423845.12946
      -423.202        -329.766  
 113152026.021    88170409.5424   21532112.326 7  21532111.70545  21532115.96845
     -1460.418       -1137.992  
 104980151.745    81802724.8834   19977057.693 8  19977057.32745  19977061.82845
       611.472         476.472  
 115991119.508    90382704.7664   22072379.226 6  22072379.52842  22072379.92642
     -1748.005       -1362.078  
 125960599.607    98151113.0554   23969504.952 7  23969505.64244  23969508.97444
     -3149.851       -2454.432  
 116885127.315    91079326.8004   22242499.578 6  22242498.75643  22242503.79543
      -116.493         -90.772  
 113441863.797    88396261.8734   21587263.793 7  21587262.73345  21587264.82045
      2563.114        1997.235  
 126918854.269    98897810.8344   24151852.523 6  24151852.16143  24151856.32543
      -806.652        -628.566  
 118606107.599    92420345.9984   22569988.214 7  22569988.05544  22569991.56144
      2629.092        2048.644  
 126023192.917    98199897.1054   23981413.999 5  23981414.26042  23981418.22042
      3415.566        2661.471  
 08 11 15  1  0  0.0000000  0 10G 6G16G 3G23G31G13G19G21G25G 7      
 107340949.714    83642298.3494   20426300.252 8  20426299.99845  20426304.25945
      -438.365        -341.588  
 113195916.409    88204609.8254   21540463.993 7  21540463.54445  21540467.64845
     -1465.656       -1142.070  
 104962070.361    81788635.4814   19973617.037 8  19973616.40145  19973621.36345
       593.915         462.793  
 116043803.996    90423757.5554   22082403.988 6  22082403.48342  22082406.60942
     -1764.318       -1374.782  
 126055195.835    98224824.3234   23987506.140 7  23987506.42744  23987510.12044
     -3156.608       -2459.696  
 116888929.891    91082289.8414   22243223.338 6  22243224.02843  22243226.27943
      -137.060        -106.809  
 113365170.630    88336500.9794   21572668.488 7  21572666.91845  21572671.10445
      2549.691        1986.781  
 126943290.943    98916852.4144   24156503.434 7  24156503.03943  24156506.49643
      -822.517        -640.909  
 118527356.275    92358981.3294   22555002.208 7  22555001.90444  22555005.83444
      2620.927        2042.270  
 125920772.660    98120089.1264   23961923.859 5  23961924.66942  23961928.04842
      3412.384        2659.009  
 08 11 15  1  0 30.0000000  0 10G 6G16G 3G23G31G13G19G21G25G 7      
 107354337.772    83652730.6004   20428847.727 8  20428847.66946  20428852.06846
      -453.559        -353.428  
 113239974.960    88238941.1524   21548847.862 7  21548847.28345  21548851.80145
     -1470.982       -1146.225  
 104944526.933    81774965.2624   19970278.896 8  19970278.37945  19970282.81645
       576.257         449.032  
 116096987.456    90465199.1784   22092524.128 6  22092523.99642  22092526.45342
     -1780.634       -1387.531  
 126150005.494    98298701.9334   24005547.911 7  24005548.56544  24005552.28644
     -3163.431       -2465.006  
 116893360.607    91085742.3544   22244066.420 6  22244066.64143  22244069.98543
      -157.708        -122.887  
 113288891.803    88277062.9544   21558153.326 7  21558152.08945  21558156.03545
      2536.154        1976.220  
 126968215.047    98936273.7934   24161246.650 6  24161246.29443  24161250.40643
      -838.486        -653.363  
 118448862.270    92297817.1764   22540065.488 7  22540064.80344  22540068.52844
      2612.587        2035.779  
 125818459.840    98040364.8534   23942454.025 5  23942454.75742  23942459.21142
      3409.047        2656.396  
 08 11 15  1  1  0.0000000  0 10G 6G16G 3G23G31G13G19G21G25G 7      
 107368172.352    83663510.7984   20431480.740 8  20431480.27346  20431484.84746
      -468.535        -365.090  
 113284184.132    88273389.8434   21557260.701 7  21557260.28945  21557264.69745
     -1476.099       -1150.203  
 104927503.537    81761700.2624   19967039.454 8  19967038.79745  19967043.47545
       558.844         435.468  
 116150650.231    90507014.2934   22102737.079 6  22102735.72642  22102738.00542
     -1796.638       -1399.986  
 126245009.266    98372730.7644   24023626.585 7  24023627.07244  24023631.03144
     -3169.958       -2470.092  
 116898401.659    91089670.4094   22245025.410 6  22245024.83842  22245028.63042
      -178.115        -138.784  
 113213011.362    88217935.3434   21543714.163 7  21543713.30745  21543716.15345
      2522.741        1965.775  
 126993608.008    98956060.5034   24166078.937 7  24166078.64744  24166082.09343
      -854.170        -665.593  
 118370610.585    92236841.8354   22525174.602 7  22525173.97444  22525177.78844
      2604.378        2029.387  
 125716239.494    97960712.6404   23923002.862 5  23923001.48042  23923007.09442
      3405.855        2653.918  
 08 11 15  1  1 30.0000000  0 10G 6G16G 3G23G31G13G19G21G25G 7      
 107382468.037    83674650.2984   20434200.990 8  20434200.60846  20434205.04145
      -484.184        -377.287  
 113328559.738    88307968.2214   21565704.860 7  21565704.03545  21565709.33845
     -1481.951       -1154.768  
 104911015.972    81748852.8004   19963901.864 8  19963901.49545  19963906.22945
       540.646         421.281  
 116204805.614    90549213.2394   22113041.572 6  22113041.72942  22113044.61342
     -1813.367       -1413.005  
 126340221.827    98446922.3054   24041745.024 7  24041744.90344  24041748.16344
     -3177.219       -2475.758  
 116904068.060    91094085.7984   22246103.952 6  22246104.31242  22246106.89742
      -199.286        -155.294  
 113137546.631    88159131.6804   21529353.739 7  21529352.25945  21529355.91645
      2508.557        1954.720  
 127019485.763    98976224.9734   24171003.261 7  24171002.29344  24171006.61544
      -870.651        -678.440  
 118292619.527    92176069.5884   22510333.387 7  22510332.89244  22510336.61544
      2595.352        2022.353  
 125614129.629    97881146.5304   23903572.224 6  23903572.18442  23903575.88442
      3401.766        2650.727  
 08 11 15  1  2  0.0000000  0 10G 6G16G 3G23G31G13G19G21G25G 7      
 107397219.020    83686144.5644   20437007.849 8  20437007.68545  20437011.83846
      -499.078        -388.896  
 113373096.785    88342672.4094   21574180.191 7  21574179.74145  21574183.87045
     -1487.063       -1158.752  
 104895058.934    81736418.7294   19960865.195 8  19960864.73745  19960869.41945
       523.253         407.726  
 116259446.401    90591790.4764   22123439.509 5  22123438.86642  22123442.92242
     -1829.205       -1425.368  
 126435636.982    98521271.7274   24059901.609 7  24059901.87344  24059905.32844
     -3183.678       -2480.791  
 116910354.453    91098984.2814   22247299.798 6  22247299.40042  22247303.25542
      -219.700        -171.217  
 113062494.482    88100649.5024   21515072.210 7  21515070.83945  21515074.59345
      2495.037        1944.183  
 127045842.732    98996762.8684   24176018.891 7  24176017.97644  24176022.31443
      -886.375        -690.675  
 118214886.709    92115498.5414   22495541.663 7  22495541.57744  22495544.33144
      2586.960        2015.817  
 125512128.568    97801665.1744   23884161.319 6  23884162.48642  23884165.52142
      3398.385        2648.082  
 08 11 15  1  2 30.0000000  0 10G 6G16G 3G23G31G13G19G21G25G 7      
 107412407.151    83697979.4694   20439898.076 8  20439897.60546  20439902.18845
      -514.416        -400.841  
 113417778.358    88377489.2134   21582683.340 7  21582682.70045  21582686.58245
     -1492.666       -1163.109  
 104879615.577    81724384.9394   19957926.816 8  19957926.33945  19957930.77945
       505.375         393.795  
 116314553.317    90634730.9194   22133926.209 5  22133924.92542  22133928.86942
     -1845.496       -1438.041  
 126531236.864    98595765.0244   24078093.486 7  24078093.49844  24078097.69644
     -3190.571       -2486.162  
 116917243.548    91104352.3934   22248609.688 6  22248609.46842  22248612.19142
      -240.538        -187.414  
 112987839.418    88042476.7484   21500865.636 7  21500864.39545  21500867.43745
      2481.019        1933.259  
 127072662.318    99017661.2344   24181122.301 7  24181121.86643  24181125.47044
      -902.545        -703.290  
 118137397.687    92055117.4834   22480795.851 7  22480795.52344  22480798.79544
      2578.026        2008.843  
 125410221.355    97722256.9824   23864769.859 6  23864770.03142  23864773.08542
      3394.467        2645.019  
 08 11 15  1  3  0.0000000  0 10G 6G16G 3G23G31G13G19G21G25G 7      
 107428024.351    83710148.7164   20442869.949 8  20442869.62546  20442874.08146
      -527.981        -411.420  
 113462597.356    88412413.0944   21591212.055 7  21591211.49245  21591215.03345
     -1496.531       -1166.131  
 104864678.597    81712745.7234   19955084.412 8  19955083.71846  19955088.36845
       489.199         381.195  
 116370117.121    90678027.3744   22144498.543 6  22144498.58742  22144501.38741
     -1859.982       -1449.323  
 126627012.887    98670395.6054   24096319.076 7  24096319.53644  24096323.10244
     -3195.742       -2490.189  
 116924727.886    91110184.3444   22250034.907 6  22250034.35541  22250036.68141
      -259.665        -202.341  
 112913576.018    87984609.1814   21486733.549 7  21486732.00945  21486735.59945
      2468.635        1923.613  
 127099936.924    99038914.1654   24186312.696 7  24186311.32443  24186316.48344
      -917.018        -714.557  
 118060147.836    91994922.7824   22466095.868 7  22466095.57644  22466099.02844
      2570.724        2003.161  
 125308402.993    97642917.9914   23845394.233 6  23845394.76142  23845397.61242
      3392.154        2643.242  
 08 11 15  1  3 30.0000000  0 10G 6G16G 3G23G31G13G19G21G25G 7      
 107444090.625    83722667.8864   20445927.224 8  20445926.98045  20445931.41645
      -542.767        -422.933  
 113507574.767    88447460.4224   21599771.356 7  21599771.11945  21599774.03945
     -1501.639       -1170.110  
 104850268.870    81701517.3654   19952342.141 8  19952342.04745  19952346.41645
       471.771         367.615  
 116426155.982    90721693.9934   22155164.121 6  22155164.12042  22155165.11842
     -1875.598       -1461.526  
 126722984.863    98745178.8714   24114581.902 7  24114582.17844  24114585.69344
     -3202.074       -2495.126  
 116932827.839    91116495.9784   22251575.454 5  22251575.65941  22251576.61941
      -280.037        -218.176  
 112839726.849    87927064.3794   21472680.756 7  21472679.78345  21472682.16645
      2454.940        1912.941  
 127127687.766    99060538.1814   24191593.113 6  24191592.38844  24191597.18844
      -932.742        -726.816  
 117983160.829    91934932.9044   22451446.023 7  22451445.79845  22451448.73545
      2562.066        1996.417  
 125206697.311    97563666.8354   23826040.192 6  23826040.41642  23826043.93643
      3388.510        2640.406  
 08 11 15  1  4  0.0000000  0 10G 6G16G 3G23G31G13G19G21G25G 7      
 107460577.207    83735514.5694   20449064.675 8  20449064.19845  20449068.88645
      -556.425        -433.579  
 113552683.058    88482609.7294   21608355.381 7  21608355.09745  21608357.69545
     -1505.657       -1173.231  
 104836358.440    81690678.0644   19949695.177 7  19949694.22845  19949699.16945
       455.497         354.937  
 116482640.200    90765707.6064   22165911.380 5  22165912.06541  22165914.37841
     -1890.090       -1472.777  
 126819123.972    98820092.3784   24132876.440 7  24132876.69044  24132881.09144
     -3207.276       -2499.168  
 116941515.308    91123265.3974   22253228.916 6  22253230.05241  22253233.28741
      -299.256        -233.177  
 112766265.807    87869822.0254   21458701.554 7  21458700.48745  21458702.95745
      2442.325        1903.106  
 127155886.289    99082511.0434   24196958.112 6  24196957.25543  24196963.06343
      -947.266        -738.127  
 117906411.438    91875128.1794   22436840.946 7  22436841.10445  22436843.49745
      2554.453        1990.491  
 125105079.357    97484484.0314   23806703.305 6  23806703.44843  23806706.11443
      3385.909        2638.388  
 08 11 15  1  4 30.0000000  0 10G 6G16G 3G23G31G13G19G21G25G 7      
 107477496.477    83748698.4144   20452284.332 8  20452284.02545  20452288.27945
      -572.094        -445.786  
 113597935.661    88517871.4894   21616966.806 7  21616965.80245  21616968.91745
     -1511.748       -1177.985  
 104822960.072    81680237.7784   19947145.240 7  19947144.97945  19947149.55645
       437.149         340.634  
 116539580.698    90810076.8334   22176747.335 5  22176747.57641  22176747.73041
     -1906.510       -1485.598  
 126915442.403    98895145.5994   24151205.240 7  24151205.14044  24151211.22444
     -3214.503       -2504.801  
 116950802.742    91130502.3394   22254996.016 6  22254994.61941  22255000.09441
      -320.487        -249.724  
 112693208.057    87812893.9364   21444798.726 7  21444797.53545  21444800.19245
      2427.594        1891.621  
 127184545.067    99104842.5424   24202412.185 6  24202411.32643  24202416.81043
      -963.893        -751.093  
 117829915.598    91815521.0394   22422284.425 7  22422283.26445  22422286.80045
      2544.699        1982.883  
 125003564.683    97405381.7114   23787384.993 6  23787385.88443  23787387.66543
      3381.153        2634.665  
 08 11 15  1  5  0.0000000  0 10G 6G16G 3G23G31G13G19G21G25G 7      
 107494844.030    83762215.9824   20455585.148 8  20455584.65845  20455589.63645
      -585.229        -456.018  
 113643329.205    88553243.0764   21625604.298 7  21625604.18845  21625606.45545
     -1515.300       -1180.761  
 104810070.536    81670193.9854   19944692.291 7  19944691.82045  19944696.78345
       421.336         328.315  
 116596971.633    90854797.0484   22187668.680 5  22187667.69941  22187671.15441
     -1920.368       -1496.371  
 127011935.566    98970335.0044   24169567.999 7  24169568.12644  24169573.67044
     -3219.179       -2508.451  
 116960686.660    91138204.0684   22256876.987 6  22256877.51142  22256883.18542
      -339.243        -264.345  
 112620551.618    87756278.5404   21430972.359 7  21430971.22045  21430974.95245
      2415.351        1882.095  
 127213661.016    99127530.2784   24207952.528 6  24207952.41543  24207957.37643
      -977.984        -762.067  
 117753672.541    91756110.8604   22407775.284 7  22407774.78745  22407778.30645
      2537.366        1977.176  
 124902152.585    97326359.3374   23768087.917 6  23768088.11643  23768089.54343
      3378.830        2632.849  
 08 11 15  1  5 30.0000000  0 10G 6G16G 3G23G31G13G19G21G25G 7      
 107512608.985    83776058.7994   20458965.618 7  20458965.11645  20458970.12745
      -600.402        -467.848  
 113688854.369    88588717.2094   21634267.758 7  21634267.09645  21634270.26145
     -1520.982       -1185.192  
 104797680.288    81660539.2514   19942334.768 7  19942334.01945  19942339.21645
       403.399         314.327  
 116654801.219    90899859.0964   22198674.001 5  22198673.34641  22198673.52441
     -1936.226       -1508.743  
 127108592.852    99045652.3304   24187961.321 7  24187961.05944  24187966.93144
     -3225.930       -2513.700  
 116971156.887    91146362.6684   22258870.307 6  22258869.67142  22258874.64242
      -360.090        -280.587  
 112548288.434    87699969.5914   21417221.322 7  21417219.96445  21417223.13645
      2400.885        1870.815  
 127243224.070    99150566.4014   24213579.085 7  24213578.76243  24213583.33043
      -994.176        -774.693  
 117677675.297    91696892.2344   22393313.508 7  22393313.00845  22393316.98445
      2527.837        1969.744  
 124800836.337    97247411.6434   23748807.209 6  23748807.93643  23748810.11943
      3374.288        2629.296  
 08 11 15  1  6  0.0000000  0 10G 6G16G 3G23G31G13G19G21G25G 7      
 107530812.352    83790243.2474   20462429.403 7  20462428.95645  20462434.41045
      -614.289        -478.672  
 113734532.606    88624310.6284   21642960.221 7  21642959.43044  21642961.80044
     -1525.394       -1188.621  
 104785810.179    81651289.8174   19940075.509 7  19940075.04045  19940080.13945
       386.790         301.391  
 116713088.867    90945278.0774   22209765.371 5  22209765.57041  22209765.49741
     -1950.745       -1520.077  
 127205434.522    99121113.2734   24206389.193 7  24206389.36944  24206395.82144
     -3231.329       -2517.926  
 116982234.210    91154994.3444   22260978.406 6  22260978.58042  22260981.85942
      -379.585        -295.778  
 112476441.808    87643985.2454   21403548.943 7  21403547.74345  21403551.69945
      2387.718        1860.546  
 127273256.074    99173967.9474   24219294.134 6  24219293.23943  24219297.87343
     -1009.151        -786.338  
 117601948.186    91637884.0984   22378903.339 7  22378903.31445  22378906.27545
      2519.479        1963.230  
 124699639.973    97168557.3634   23729550.258 6  23729550.83543  23729553.39843
      3370.958        2626.728  
 08 11 15  1  6 30.0000000  0 10G 6G16G 3G23G31G13G19G21G25G 7      
 107549439.040    83804757.5454   20465974.287 8  20465973.77745  20465978.68845
      -627.632        -489.063  
 113780350.699    88660013.0284   21651678.530 7  21651678.26444  21651681.52045
     -1529.302       -1191.671  
 104774446.243    81642434.8114   19937913.290 8  19937912.44145  19937917.55145
       370.667         288.829  
 116771818.086    90991041.0834   22220940.685 5  22220940.65141  22220942.03041
     -1964.665       -1530.901  
 127302445.626    99196706.2674   24224849.126 6  24224849.54943  24224854.67043
     -3236.217       -2521.727  
 116993904.264    91164087.8464   22263199.561 7  22263200.23443  22263203.36043
      -398.587        -310.586  
 112404999.399    87588315.8584   21389953.727 7  21389952.35644  21389956.48144
      2374.952        1850.608  
 127303742.957    99197723.9474   24225095.073 7  24225094.63543  24225099.33943
     -1023.471        -797.516  
 117526479.789    91579077.5514   22364542.492 7  22364541.93545  22364545.27245
      2511.556        1957.059  
 124598552.457    97089787.8934   23710313.800 7  23710314.93943  23710316.86643
      3368.055        2624.444  
 08 11 15  1  7  0.0000000  0 10G 6G16G 3G23G31G13G19G21G25G 7      
 107568481.406    83819595.7564   20469597.839 8  20469597.51645  20469602.34945
      -642.801        -500.885  
 113826301.947    88695819.1694   21660422.442 7  21660421.96544  21660425.98144
     -1535.034       -1196.140  
 104763581.616    81633968.8854   19935845.766 7  19935844.91745  19935850.15145
       352.713         274.836  
 116830979.905    91037141.1814   22232199.748 5  22232200.03942  22232200.33841
     -1980.364       -1543.138  
 127399618.557    99272425.3794   24243340.821 6  24243340.27943  24243346.02843
     -3242.912       -2526.932  
 117006160.169    91173637.8864   22265531.538 7  22265531.70342  22265535.08842
      -419.410        -326.816  
 112333956.500    87532957.7774   21376434.969 7  21376433.63945  21376437.38245
      2360.294        1839.202  
 127334676.703    99221828.1364   24230982.612 6  24230981.77943  24230985.93143
     -1039.699        -810.150  
 117451266.620    91520469.8834   22350229.212 7  22350228.97245  22350232.76845
      2501.711        1949.385  
 124497569.905    97011100.2254   23691097.983 7  23691098.45843  23691101.38043
      3363.198        2620.662  
 08 11 15  1  7 30.0000000  0 10G 6G16G 3G23G31G13G19G21G25G 7      
 107587964.466    83834777.3674   20473305.395 8  20473305.06545  20473309.30645
      -656.602        -511.635  
 113872412.400    88731749.3714   21669197.769 7  21669197.04544  21669200.37545
     -1539.511       -1199.606  
 104753242.274    81625912.2714   19933878.071 8  19933877.26545  19933882.54845
       336.057         261.860  
 116890597.937    91083596.8074   22243543.778 5  22243543.51941  22243545.75641
     -1994.696       -1554.322  
 127496977.915    99348289.6654   24261867.195 6  24261866.03543  24261872.80243
     -3248.240       -2531.085  
 117019027.327    91183664.2184   22267980.927 7  22267980.25042  22267982.49142
      -438.919        -342.010  
 112263340.538    87477932.3774   21362997.452 7  21362996.42545  21362999.63845
      2346.899        1828.748  
 127366083.691    99246301.0914   24236958.408 6  24236957.38543  24236963.50743
     -1054.613        -821.777  
 117376336.946    91462083.1314   22335970.830 7  22335970.58345  22335974.26345
      2493.070        1942.657  
 124396720.939    96932516.6494   23671907.217 7  23671907.55843  23671910.70943
      3359.571        2617.854  
 08 11 15  1  8  0.0000000  0 10G 6G16G 3G23G31G13G19G21G25G 7      
 107607895.730    83850308.2154   20477098.114 8  20477097.77045  20477101.96545
      -672.059        -523.684  
 113918691.022    88767810.6114   21678003.850 7  21678002.96344  21678006.86944
     -1545.651       -1204.405  
 104743436.331    81618271.2844   19932012.030 7  19932011.26045  19932016.45845
       317.754         247.604  
 116950678.863    91130413.0454   22254977.343 5  22254977.26841  22254977.99141
     -2010.595       -1566.672  
 127594531.286    99424305.2154   24280432.161 7  24280432.30743  24280434.26943
     -3255.221       -2536.542  
 117032513.499    91194172.8794   22270547.173 7  22270547.74042  22270549.98342
      -460.069        -358.465  
 112193161.502    87423247.4354   21349642.966 7  21349642.01845  21349645.28845
      2331.782        1816.976  
 127397972.170    99271149.2494   24243026.382 6  24243025.52843  24243030.58243
     -1071.189        -834.698  
 117301702.147    91403926.1624   22321767.809 7  22321767.31245  22321771.92745
      2482.659        1934.539  
 124296016.801    96854045.9024   23652743.942 7  23652743.95543  23652747.01043
      3354.137        2613.612  
 08 11 15  1  8 30.0000000  0 10G 6G16G 3G23G31G13G19G21G25G 7      
 107628258.357    83866175.1884   20480973.269 8  20480972.65945  20480976.84345
      -685.741        -534.333  
 113965122.312    88803990.8024   21686839.507 7  21686838.96145  21686843.09945
     -1550.054       -1207.835  
 104734147.574    81611033.3024   19930244.669 8  19930243.99245  19930249.04745
       301.207         234.707  
 117011203.842    91177575.3314   22266493.297 4  22266491.79441  22266495.82141
     -2024.686       -1577.695  
 127692261.848    99500458.8314   24299029.170 7  24299029.08244  24299033.64044
     -3260.428       -2540.593  
 117046602.046    91205150.9204   22273227.935 6  22273227.92042  22273231.46942
      -479.457        -373.584  
 112123405.168    87368891.8744   21336369.073 7  21336368.13745  21336370.73345
      2318.349        1806.500  
 127430326.183    99296360.1624   24249182.467 6  24249182.82942  24249186.80942
     -1086.019        -846.243  
 117227348.985    91345988.6324   22307618.566 7  22307617.97645  22307622.27645
      2473.912        1927.725  
 124195444.246    96775677.7044   23633605.096 6  23633605.48343  23633608.58043
      3350.384        2610.684  
 08 11 15  1  9  0.0000000  0  9G 6G16G 3G23G13G19G21G25G 7         
 107649033.870    83882363.9034   20484926.822 8  20484926.45345  20484930.36345
      -698.468        -544.262  
 114011688.456    88840276.0834   21695701.341 8  21695701.12445  21695704.57545
     -1553.521       -1210.539  
 104725358.461    81604184.6474   19928572.031 7  19928571.49545  19928576.85945
       285.555         222.508  
 117072153.038    91225068.1994   22278093.928 5  22278093.91942  22278094.16642
     -2037.722       -1587.833  
 117061274.980    91216584.3834   22276020.088 6  22276020.89842  22276022.99842
      -497.918        -387.984  
 112054055.437    87314853.1484   21323172.668 7  21323171.54545  21323173.71045
      2305.785        1796.714  
 127463127.026    99321919.2414   24255425.316 6  24255423.56442  24255428.01842
     -1099.911        -857.061  
 117153262.760    91288259.1014   22293520.279 7  22293519.48145  22293524.18945
      2465.979        1921.544  
 124094988.698    96697400.6704   23614489.385 6  23614489.13143  23614492.59143
      3347.449        2608.412  
 08 11 15  1  9 30.0000000  0  9G 6G16G 3G23G13G19G21G25G 7         
 107670207.141    83898862.5474   20488955.891 8  20488955.64845  20488959.74845
      -712.649        -555.307  
 114058376.252    88876656.1664   21704585.770 8  21704585.40345  21704588.98345
     -1558.559       -1214.459  
 104717055.105    81597714.5084   19926991.965 8  19926991.37245  19926996.78345
       268.417         209.160  
 117133510.307    91272879.0244   22289767.978 5  22289768.54042  22289770.67642
     -2052.294       -1599.163  
 117076517.531    91228461.6784   22278920.222 6  22278919.81042  22278923.02542
      -517.832        -403.512  
 111985100.081    87261121.7074   21310051.080 7  21310050.13944  21310050.94444
      2291.667        1785.713  
 127496361.137    99347815.9544   24261749.224 6  24261748.48942  24261753.55142
     -1115.289        -869.037  
 117079432.135    91230728.7484   22279470.687 7  22279470.26445  22279474.51945
      2456.464        1914.126  
 123994638.716    96619205.9024   23595393.064 6  23595393.41043  23595396.09443
      3342.940        2604.878  
 08 11 15  1 10  0.0000000  0  9G 6G16G 3G23G13G19G21G25G 7         
 107691822.645    83915705.7924   20493069.029 8  20493068.67645  20493073.06145
      -727.731        -567.061  
 114105231.589    88913166.7934   21713501.619 7  21713501.33745  21713505.18645
     -1564.493       -1219.083  
 104709282.241    81591657.7374   19925512.989 8  19925512.15645  19925517.71045
       250.396         195.113  
 117195318.680    91321041.3634   22301529.284 5  22301529.52541  22301532.42641
     -2067.659       -1611.181  
 117092374.566    91240817.7964   22281938.287 6  22281937.76942  22281941.10042
      -538.660        -419.736  
 111916586.289    87207734.3554   21297012.316 7  21297010.97744  21297013.95544
      2276.535        1773.932  
 127530073.211    99374085.0534   24268164.871 6  24268164.17343  24268168.25343
     -1131.559        -881.710  
 117005905.330    91173435.1224   22265479.165 7  22265479.20345  22265483.04345
      2445.939        1905.928  
 123894442.743    96541131.1394   23576326.236 6  23576326.65143  23576330.21743
      3337.397        2600.567  
 08 11 15  1 10 30.0000000  0  9G 6G16G 3G23G13G19G21G25G 7         
 107713848.200    83932868.5584   20497260.399 8  20497260.15045  20497264.11945
      -741.698        -577.941  
 114152222.878    88949783.3674   21722444.262 7  21722443.28445  21722446.98345
     -1569.331       -1222.851  
 104702008.154    81585989.6204   19924128.730 8  19924128.03345  19924133.64145
       233.461         181.913  
 117257544.604    91369529.0604   22313369.107 4  22313368.44941  22313374.54241
     -2081.751       -1622.135  
 117108813.719    91253627.5174   22285067.410 6  22285067.50042  22285068.92742
      -558.370        -435.080  
 111848484.226    87154667.8304   21284053.754 7  21284052.42544  21284055.65744
      2262.524        1763.006  
 127564232.086    99400702.3554   24274666.157 7  24274664.90943  24274668.28143
     -1146.749        -893.574  
 116932653.783    91116355.9814   22251540.073 7  22251539.87145  22251543.55045
      2436.403        1898.496  
 123794372.302    96463154.2074   23557283.858 6  23557284.07643  23557286.94343
      3332.869        2597.026  
 08 11 15  1 11  0.0000000  0  9G 6G16G 3G23G13G19G21G25G 7         
 107736300.009    83950363.4664   20501533.149 8  20501532.83745  20501536.67445
      -755.948        -589.052  
 114199367.997    88986519.8044   21731415.513 7  21731415.04345  21731418.13445
     -1574.547       -1226.925  
 104695250.003    81580723.5314   19922842.713 8  19922842.26745  19922847.15545
       216.207         168.468  
 117320202.771    91418353.6004   22325293.898 5  22325294.06441  22325296.20141
     -2096.249       -1633.443  
 117125851.907    91266904.0104   22288310.351 6  22288310.21942  22288311.17942
      -578.365        -450.681  
 111780812.804    87101936.8594   21271175.429 7  21271174.73644  21271177.95344
      2248.052        1751.733  
 127598854.190    99427680.6074   24281254.275 7  24281254.45743  24281256.39343
     -1162.294        -905.674  
 116859697.567    91059506.9684   22237657.036 7  22237656.78445  22237660.41545
      2426.476        1890.764  
 123694447.326    96385290.6024   23538269.444 6  23538268.75343  23538271.58543
      3327.909        2593.175  
 08 11 15  1 11 30.0000000  0  9G 6G16G 3G23G13G19G21G25G 7         
 107759174.058    83968187.4034   20505885.709 8  20505885.72245  20505889.51645
      -768.420        -598.766  
 114246664.325    89023374.0784   21740415.209 7  21740414.47245  21740418.66045
     -1577.972       -1229.590  
 104689004.373    81575856.8004   19921654.129 8  19921653.84845  19921658.18945
       200.718         156.404  
 117383288.201    91467511.0684   22337300.233 5  22337300.03742  22337300.39742
     -2108.854       -1643.282  
 117143485.711    91280644.6234   22291664.170 6  22291664.54642  22291668.44342
      -596.639        -464.907  
 111713570.714    87049540.4264   21258379.620 7  21258379.03744  21258381.63344
      2235.302        1741.797  
 127633937.066    99455017.9114   24287930.575 7  24287929.95543  24287932.43043
     -1176.001        -916.380  
 116787036.430    91002887.9074   22223829.885 7  22223829.43645  22223834.06745
      2418.161        1884.283  
 123594668.106    96307540.5844   23519281.432 6  23519281.42843  23519284.17243
      3324.594        2590.592  
 08 11 15  1 12  0.0000000  0  9G 6G16G 3G23G13G19G21G25G 7         
 107782465.569    83986336.6354   20510318.013 8  20510317.73645  20510321.57245
      -783.790        -610.739  
 114294108.052    89060343.2044   21749443.369 7  21749442.45244  21749446.57644
     -1584.376       -1234.571  
 104683267.811    81571386.7444   19920562.784 8  19920562.37446  19920567.03646
       182.308         142.064  
 117446794.202    91516996.2374   22349385.402 6  22349384.94642  22349385.18042
     -2124.311       -1655.307  
 117161710.492    91294845.7334   22295133.050 6  22295131.70842  22295134.93242
      -617.781        -481.387  
 111646755.444    86997476.5844   21245665.146 7  21245663.87644  21245666.77644
      2219.606        1729.569  
 127669475.016    99482709.7894   24294692.997 7  24294692.60743  24294696.86643
     -1192.632        -929.320  
 116714669.454    90946498.0614   22210059.321 7  22210059.18745  22210063.23945
      2406.865        1875.479  
 123495033.409    96229903.1974   23500321.362 6  23500322.26743  23500325.07243
      3318.266        2585.651  
 08 11 15  1 12 30.0000000  0  9G 6G16G 3G23G13G19G21G25G 7         
 107806168.908    84004806.7764   20514828.572 8  20514828.01045  20514832.39745
      -797.763        -621.634  
 114341695.421    89097424.2644   21758499.703 7  21758498.97944  21758502.44244
     -1589.434       -1238.512  
 104678034.907    81567309.1514   19919566.418 8  19919566.10545  19919571.20245
       165.252         128.765  
 117510713.998    91566803.8334   22361549.064 6  22361549.54842  22361550.55243
     -2138.314       -1666.216  
 117180520.683    91309503.0144   22298710.999 5  22298709.57142  22298715.02342
      -637.557        -496.785  
 111580364.002    86945742.9894   21233031.531 7  21233030.65644  21233033.39844
      2205.190        1718.333  
 127705464.057    99510753.1734   24301541.696 7  24301541.06643  24301545.13143
     -1207.934        -941.251  
 116642594.677    90890335.8964   22196344.184 8  22196343.84445  22196347.85345
      2396.821        1867.649  
 123395541.515    96152377.0764   23481387.957 5  23481389.04342  23481391.14442
      3313.197        2581.719  
 08 11 15  1 13  0.0000000  0  9G 6G16G 3G23G13G19G21G25G 7         
 107830308.183    84023616.5984   20519421.836 8  20519421.51845  20519425.86145
      -811.287        -632.168  
 114389451.380    89134636.6684   21767586.441 7  21767586.38444  21767590.04544
     -1594.076       -1242.130  
 104673330.466    81563643.3434   19918671.399 8  19918670.70445  19918675.47045
       148.607         115.799  
 117575070.106    91616951.4324   22373794.370 6  22373794.07742  22373796.73442
     -2151.840       -1676.769  
 117199940.510    91324635.3464   22302407.637 5  22302407.16742  22302409.23042
      -656.875        -511.842  
 111514423.002    86894360.3984   21220482.918 7  21220481.98844  21220484.49644
      2191.108        1707.351  
 127741928.750    99539167.1894   24308480.410 7  24308479.92143  24308483.89743
     -1222.816        -952.824  
 116570839.939    90834423.1134   22182689.662 7  22182689.30045  22182693.08645
      2387.065        1860.052  
 123296220.461    96074984.0674   23462488.574 5  23462488.05842  23462490.64042
      3308.449        2578.013  
 08 11 15  1 13 30.0000000  0  9G 6G16G 3G23G13G19G21G25G 7         
 107854844.532    84042735.8444   20524091.122 8  20524090.72745  20524094.54345
      -824.303        -642.313  
 114437338.756    89171951.4874   21776699.081 7  21776698.61344  21776702.55044
     -1598.252       -1245.388  
 104669116.563    81560359.7724   19917869.704 8  19917869.23545  19917873.94045
       132.471         103.226  
 117639822.672    91667407.9654   22386116.904 6  22386116.58442  22386118.16042
     -2164.823       -1686.870  
 117219931.520    91340212.7764   22306211.978 5  22306211.52942  22306214.38842
      -675.708        -526.537  
 111448896.210    86843300.5894   21208014.173 7  21208013.00444  21208015.67944
      2177.482        1696.738  
 127778831.122    99567922.2644   24315502.653 7  24315502.45643  24315505.23143
     -1237.178        -964.001  
 116499370.287    90778732.4814   22169089.606 7  22169089.44445  22169092.82745
      2377.720        1852.768  
 123197035.247    95997696.8994   23443614.409 5  23443614.86142  23443616.01942
      3304.037        2574.575  
 08 11 15  1 14  0.0000000  0  9G 6G16G 3G23G13G19G21G25G 7         
 107879790.150    84062173.9914   20528837.960 7  20528837.68645  20528841.83045
      -838.248        -653.183  
 114485371.067    89209379.2334   21785839.556 7  21785839.07944  21785843.14144
     -1603.416       -1249.415  
 104665405.911    81557468.3434   19917163.596 8  19917163.30746  19917167.83946
       115.376          89.908  
 117704982.090    91718181.5044   22398516.745 6  22398516.32042  22398517.61142
     -2178.651       -1697.644  
 117240505.876    91356244.7114   22310126.657 5  22310126.55442  22310129.75442
      -695.440        -541.902  
 111383798.460    86792575.0714   21195626.487 7  21195625.55444  21195627.65744
      2162.835        1685.329  
 127816183.497    99597028.0134   24322610.303 7  24322610.58243  24322613.29143
     -1252.494        -975.961  
 116428201.620    90723276.3784   22155546.615 8  22155546.52245  22155549.92245
      2367.321        1844.667  
 123098002.101    95920528.2444   23424767.772 5  23424769.14542  23424772.01642
      3298.613        2570.321  
 08 11 15  1 14 30.0000000  0  9G 6G16G 3G23G13G19G21G25G 7         
 107905132.085    84081920.9534   20533660.273 8  20533660.14445  20533664.36645
      -851.617        -663.601  
 114533536.721    89246910.8974   21795005.524 7  21795005.93944  21795008.96244
     -1608.065       -1253.036  
 104662186.545    81554959.7374   19916551.120 8  19916550.82045  19916554.86945
        98.829          77.018  
 117770533.921    91769260.8494   22410990.692 6  22410990.42542  22410991.14042
     -2191.887       -1707.969  
 117261650.878    91372721.2894   22314150.887 6  22314152.26842  22314154.33642
      -714.657        -556.863  
 111319119.260    86742175.6964   21183318.369 7  21183317.35744  21183319.08444
      2148.672        1674.302  
 127853973.539    99626474.7644   24329802.099 7  24329801.48843  24329803.99643
     -1267.277        -987.477  
 116357324.967    90668047.8244   22142059.144 7  22142059.03445  22142062.65045
      2357.353        1836.899  
 122999111.719    95843470.8234   23405949.653 4  23405948.57841  23405952.95941
      3293.640        2566.480  
 08 11 15  1 15  0.0000000  0  9G 6G16G 3G23G13G19G21G25G 7         
 107930881.219    84101985.2194   20538560.097 8  20538559.95945  20538564.39245
      -865.483        -674.404  
 114581848.230    89284556.2004   21804198.877 7  21804198.17844  21804202.90144
     -1613.205       -1257.047  
 104659469.464    81552842.5244   19916034.279 8  19916033.73045  19916037.51046
        81.801          63.740  
 117836488.069    91820653.6694   22423539.597 5  22423539.58342  22423542.40642
     -2205.555       -1718.621  
 117283377.599    91389651.1564   22318285.257 5  22318284.96642  22318288.03242
      -734.289        -572.198  
 111254871.947    86692112.8464   21171092.900 7  21171091.46044  21171093.63444
      2133.988        1662.841  
 127892213.145    99656271.8214   24337078.678 7  24337077.83742  24337080.68742
     -1282.537        -999.374  
 116286755.083    90613058.3174   22128630.108 7  22128629.83945  22128633.80145
      2346.777        1828.653  
 122900379.297    95766536.4834   23387162.359 4  23387161.05241  23387164.27741
      3287.964        2562.065  
 08 11 15  1 15 30.0000000  0  9G 6G16G 3G23G13G19G21G25G 7         
 107957041.065    84122369.5154   20543538.633 8  20543538.33545  20543542.53845
      -879.613        -685.415  
 114630310.257    89322318.8014   21813420.787 7  21813420.05544  21813424.54944
     -1618.722       -1261.339  
 104657258.920    81551120.0194   19915613.808 8  19915613.12945  19915617.23846
        64.431          50.204  
 117902846.518    91872361.5144   22436167.194 5  22436166.45542  22436170.00742
     -2219.452       -1729.437  
 117305689.615    91407037.1124   22322529.999 5  22322529.48542  22322534.75742
      -754.291        -587.746  
 111191062.476    86642391.1774   21158950.237 7  21158949.49144  21158951.28044
      2118.879        1651.071  
 127930906.131    99686422.1684   24344442.417 6  24344441.39142  24344443.56542
     -1298.128       -1011.536  
 116216499.028    90558313.3544   22115260.585 7  22115260.04645  22115263.80445
      2335.791        1820.089  
 122801812.363    95689731.1044   23368406.571 3  23368404.01441  23368407.82341
      3281.943        2557.343  
 08 11 15  1 16  0.0000000  0  9G 6G16G 3G23G13G19G21G25G 7         
 107983602.870    84143067.0204   20548592.990 8  20548592.56745  20548597.06045
      -891.688        -694.814  
 114678915.783    89360193.2074   21822670.685 7  21822669.86744  21822673.43244
     -1622.190       -1264.042  
 104655547.082    81549786.1064   19915287.903 8  19915287.83846  19915291.63346
        49.143          38.288  
 117969599.290    91924376.6024   22448867.963 5  22448868.97542  22448872.25042
     -2231.201       -1738.600  
 117328578.383    91424872.4894   22326886.594 6  22326887.30642  22326889.67342
      -772.167        -601.676  
 111127684.613    86593005.8404   21146889.748 6  21146888.33344  21146891.02144
      2105.771        1640.855  
 127970044.107    99716919.2644   24351889.354 6  24351888.53042  24351892.15442
     -1311.622       -1022.037  
 116146552.204    90503809.3474   22101950.332 8  22101950.21545  22101953.32645
      2326.770        1813.063  
 122703406.118    95613050.8904   23349679.336 4  23349680.13841  23349681.67241
      3277.870        2554.186  
 08 11 15  1 16 30.0000000  0  9G 6G16G 3G23G13G19G21G25G 7         
 108010569.228    84164079.7694   20553724.572 8  20553724.32545  20553728.57945
      -905.415        -705.519  
 114727668.820    89398182.5534   21831948.284 7  21831947.57844  21831951.07144
     -1627.359       -1268.073  
 104654337.408    81548843.5024   19915057.650 8  19915057.15645  19915061.31345
        32.162          25.062  
 118036747.178    91976699.6134   22461647.875 5  22461647.19442  22461649.81442
     -2244.602       -1749.054  
 117352046.940    91443159.6674   22331351.630 5  22331350.91142  22331355.17142
      -791.700        -616.926  
 111064743.930    86543961.1324   21134911.724 6  21134910.65944  21134913.25344
      2090.948        1629.303  
 128009630.453    99747765.7354   24359422.279 6  24359422.28542  24359425.32942
     -1326.810       -1033.888  
 116076920.960    90449551.2354   22088700.137 8  22088700.10845  22088702.92745
      2315.955        1804.640  
 122605167.228    95536501.0844   23330984.007 4  23330986.03642  23330988.75742
      3271.924        2549.556  
 08 11 15  1 17  0.0000000  0  9G 6G16G 3G23G13G19G21G25G 7         
 108037939.246    84185407.0494   20558932.731 8  20558932.61845  20558936.87745
      -920.029        -716.909  
 114776569.396    89436286.8794   21841253.747 7  21841253.16544  21841256.00044
     -1633.458       -1272.826  
 104653629.154    81548291.6104   19914922.761 8  19914922.25746  19914926.86546
        14.277          11.130  
 118104287.921    92029328.7074   22474499.244 5  22474499.30142  22474502.85642
     -2258.845       -1760.127  
 117376093.964    91461897.5594   22335927.786 5  22335927.24142  22335931.43142
      -812.170        -632.870  
 111002241.528    86495257.9324   21123018.370 6  21123017.18044  21123019.94744
      2075.096        1616.971  
 128049664.817    99778961.2974   24367041.069 7  24367040.85842  24367043.13042
     -1342.906       -1046.412  
 116007608.189    90395541.2864   22075510.489 7  22075510.33745  22075513.18245
      2304.119        1795.419  
 122507098.469    95460083.8764   23312324.185 4  23312323.67242  23312326.35642
      3265.096        2544.254  
 08 11 15  1 17 30.0000000  0  9G 6G16G 3G23G13G19G21G25G 7         
 108065714.290    84207049.9374   20564218.113 8  20564218.01845  20564222.61745
      -932.523        -726.643  
 114825620.980    89474508.8844   21850587.897 7  21850587.52544  21850590.38644
     -1637.540       -1276.008  
 104653424.649    81548132.2594   19914883.732 8  19914883.38045  19914888.12245
        -1.525          -1.191  
 118172222.025    92082264.3524   22487428.765 5  22487428.69142  22487430.31542
     -2270.946       -1769.564  
 117400721.300    91481087.6404   22340614.911 6  22340614.14642  22340617.24142
      -830.500        -647.142  
 110940181.398    86446899.3834   21111208.782 6  21111208.01644  21111211.13344
      2061.328        1606.231  
 128090148.923    99810507.3524   24374745.283 7  24374744.76742  24374746.16442
     -1356.913       -1057.349  
 115938619.284    90341783.7114   22062382.342 7  22062382.28045  22062385.21845
      2294.252        1787.718  
 122409205.735    95383803.7914   23293694.084 5  23293697.20642  23293697.86742
      3260.172        2540.392  
 08 11 15  1 18  0.0000000  0  9G 6G16G 3G23G13G19G21G25G 7         
 108093876.109    84228994.2034   20569577.401 8  20569577.07145  20569581.55545
      -945.089        -736.428  
 114874806.705    89512835.3974   21859947.507 7  21859946.96144  21859948.84244
     -1641.684       -1279.230  
 104653706.353    81548351.7744   19914937.401 8  19914936.76245  19914941.72346
       -17.404         -13.561  
 118240529.168    92135490.7064   22500428.306 6  22500428.08342  22500428.87142
     -2283.031       -1778.990  
 117425910.593    91500715.6314   22345408.820 6  22345408.74642  22345410.54542
      -848.926        -661.499  
 110878547.652    86398873.0824   21099479.331 6  21099478.40344  21099482.37144
      2047.398        1595.383  
 128131065.442    99842390.3304   24382531.598 6  24382530.83942  24382532.44242
     -1371.002       -1068.304  
 115869939.687    90288267.1414   22049312.830 7  22049312.62545  22049315.83045
      2284.224        1779.913  
 122311474.336    95307649.4414   23275095.596 5  23275097.58742  23275100.59642
      3255.046        2536.406  
 08 11 15  1 18 30.0000000  0  9G 6G16G 3G23G13G19G21G25G 7         
 108122441.612    84251253.0354   20575013.220 8  20575012.74145  20575017.54045
      -958.341        -746.753  
 114924144.652    89551280.5124   21869336.129 7  21869335.69744  21869338.39944
     -1646.581       -1283.032  
 104654491.085    81548963.2574   19915087.049 8  19915086.35345  19915090.96545
       -33.986         -26.485  
 118309225.160    92189020.0114   22513498.752 5  22513498.29542  22513501.41442
     -2295.765       -1788.923  
 117451678.495    91520794.4854   22350312.047 6  22350311.04342  22350314.87142
      -868.003        -676.361  
 110817359.715    86351194.1704   21087836.476 6  21087834.81044  21087838.11644
      2032.729        1583.951  
 128172431.408    99874623.5424   24390403.044 6  24390402.60542  24390405.60842
     -1385.781       -1079.827  
 115801590.133    90235007.7384   22036306.166 7  22036306.06944  22036308.77544
      2273.351        1771.441  
 122213925.542    95231637.3804   23256534.064 5  23256534.65542  23256538.46742
      3249.090        2531.767  
 08 11 15  1 19  0.0000000  0  9G 6G16G 3G23G13G19G21G25G 7         
 108151417.366    84273831.5394   20580526.951 8  20580526.71545  20580531.04245
      -972.434        -757.739  
 114973643.159    89589850.7644   21878755.684 7  21878754.83844  21878757.16443
     -1652.349       -1287.541  
 104655786.751    81549972.8814   19915333.394 8  19915332.96246  19915337.70246
       -51.423         -40.074  
 118378315.018    92242856.2214   22526648.340 6  22526647.57543  22526649.55243
     -2309.251       -1799.413  
 117478031.925    91541329.6044   22355326.735 6  22355327.05443  22355329.03743
      -887.896        -691.862  
 110756626.691    86303869.7404   21076279.715 6  21076277.39644  21076279.57644
      2017.108        1571.785  
 128214254.237    99907212.7494   24398362.061 7  24398362.15742  24398364.47342
     -1401.428       -1092.006  
 115733581.252    90182013.8054   22023364.437 7  22023364.00044  22023367.55644
      2261.534        1762.231  
 122116570.098    95155776.0004   23238007.003 5  23238008.30443  23238012.09643
      3242.216        2526.391  
 08 11 15  1 19 30.0000000  0  9G 6G16G 3G23G13G19G21G25G 7         
 108180783.269    84296714.0564   20586115.098 7  20586114.83245  20586119.02945
      -985.183        -767.681  
 115023283.708    89628531.6834   21888202.266 7  21888201.91544  21888203.98644
     -1656.906       -1291.099  
 104657573.543    81551365.1884   19915673.414 8  19915672.93546  19915677.74645
       -67.575         -52.648  
 118447777.152    92296982.5194   22539866.176 6  22539866.04343  22539867.92243
     -2321.433       -1808.899  
 117504950.655    91562305.2114   22360449.006 6  22360448.78243  22360452.13243
      -906.550        -706.414  
 110696331.121    86256886.1824   21064805.807 6  21064804.40844  21064806.93844
      2002.693        1560.538  
 128256513.916    99940142.3304   24406402.942 6  24406402.13542  24406406.15542
     -1415.785       -1103.214  
 115665896.670    90129272.5654   22010484.136 7  22010483.90444  22010487.23944
      2250.862        1753.916  
 122019391.748    95080052.5854   23219515.144 5  23219515.11243  23219519.77643
      3236.437        2521.897  
 08 11 15  1 20  0.0000000  0  9G 6G16G 3G23G13G19G21G25G 7         
 108210549.966    84319908.8874   20591779.507 8  20591779.33245  20591783.32645
      -999.368        -778.732  
 115073078.407    89667332.6924   21897677.824 7  21897677.45744  21897679.04844
     -1662.872       -1295.736  
 104659862.883    81553149.0964   19916109.321 8  19916108.98946  19916113.55546
       -85.165         -66.364  
 118517620.976    92351406.2454   22553156.144 6  22553154.88343  22553158.63743
     -2334.946       -1819.430  
 117532445.515    91583729.7344   22365681.069 6  22365681.30643  22365685.28943
      -926.571        -721.998  
 110636485.872    86210253.5314   21053418.055 6  21053417.11444  21053419.57844
      1986.840        1548.182  
 128299221.887    99973421.1974   24414530.253 6  24414529.39742  24414534.19742
     -1431.538       -1115.481  
 115598550.996    90076795.4074   21997668.807 7  21997668.04544  21997672.34744
      2238.690        1744.430  
 121922405.293    95004478.7214   23201059.068 6  23201059.53643  23201063.75443
      3229.135        2516.213  
 08 11 15  1 20 30.0000000  0  9G 6G16G 3G23G13G19G21G25G 7         
 108240710.679    84343410.7414   20597518.950 8  20597518.70845  20597522.71345
     -1011.769        -788.388  
 115123021.899    89706249.6684   21907182.151 7  21907181.51544  21907183.53844
     -1667.127       -1299.057  
 104662648.644    81555319.8234   19916639.598 8  19916639.12446  19916643.50546
      -100.989         -78.688  
 118587838.079    92406120.8554   22566518.793 6  22566518.34243  22566519.87243
     -2346.641       -1828.545  
 117560509.286    91605597.5824   22371021.843 6  22371021.66243  22371025.49743
      -944.773        -736.195  
 110577086.707    86163968.4744   21042114.543 7  21042113.62744  21042115.99944
      1972.667        1537.144  
 128342372.031   100007044.6674   24422741.323 6  24422740.49342  24422746.63742
     -1445.559       -1126.417  
 115531541.346    90024580.1014   21984916.892 7  21984916.45144  21984921.06844
      2228.162        1736.226  
 121825608.251    94929052.4664   23182639.344 6  23182639.60744  23182643.71343
      3223.520        2511.844  
 08 11 15  1 21  0.0000000  0  9G 6G16G 3G23G13G19G21G25G 7         
 108271256.984    84367213.0584   20603331.241 7  20603331.02245  20603335.81845
     -1024.679        -798.451  
 115173107.338    89745277.2394   21916713.262 7  21916712.92344  21916714.99944
     -1671.918       -1302.799  
 104665923.062    81557871.3264   19917262.475 8  19917262.10046  19917266.32246
      -117.337         -91.431  
 118658418.729    92461118.7284   22579949.687 6  22579949.76843  22579950.67543
     -2358.756       -1837.991  
 117589133.760    91627902.3394   22376468.230 6  22376468.15843  22376472.27743
      -963.521        -750.808  
 110518127.393    86118026.1644   21030894.877 6  21030893.87644  21030896.44244
      1957.926        1525.657  
 128385956.040   100041006.1964   24431035.383 6  24431035.49242  24431039.53842
     -1460.052       -1137.718  
 115464863.140    89972623.0714   21972229.024 7  21972228.76644  21972232.48844
      2217.007        1727.533  
 121728996.424    94853770.5364   23164255.037 6  23164255.64744  23164258.90344
      3217.233        2506.934  
 08 11 15  1 21 30.0000000  0  9G 6G16G 3G23G13G19G21G25G 7         
 108302187.779    84391314.9784   20609217.134 7  20609216.78445  20609221.64245
     -1038.200        -808.986  
 115223335.024    89784415.6574   21926270.556 7  21926270.19044  21926272.96844
     -1677.438       -1307.088  
 104669685.106    81560802.7924   19917978.426 8  19917977.93846  19917982.19446
      -134.341        -104.684  
 118729360.283    92516397.8124   22593449.481 6  22593448.94443  22593451.11743
     -2371.485       -1847.900  
 117618317.622    91650642.9724   22382021.963 6  22382022.19643  22382026.05443
      -982.913        -765.904  
 110459609.352    86072427.6984   21019758.925 6  21019757.39044  21019760.90844
      1942.437        1513.593  
 128429973.432   100075305.4434   24439411.451 6  24439411.47042  24439414.19142
     -1475.267       -1149.570  
 115398519.106    89920926.4324   21959604.123 7  21959603.97944  21959606.51044
      2205.068        1718.235  
 121632572.592    94778635.0874   23145906.915 6  23145906.53344  23145909.81644
      3210.157        2501.420  
 08 11 15  1 22  0.0000000  0  9G 6G16G 3G23G13G19G21G25G 7         
 108333509.933    84415721.8544   20615177.770 7  20615177.38545  20615181.89145
     -1050.762        -818.782  
 115273713.657    89823671.7144   21935857.101 7  21935857.17344  21935860.34244
     -1681.994       -1310.651  
 104673942.603    81564120.3234   19918788.542 8  19918787.93246  19918792.63646
      -150.357        -117.161  
 118800668.372    92571962.5104   22607019.206 6  22607018.30643  22607021.45443
     -2383.214       -1857.043  
 117648067.875    91673824.9824   22387683.186 6  22387683.52344  22387687.56244
     -1001.291        -780.221  
 110401541.920    86027180.3604   21008708.643 6  21008707.66844  21008711.33344
      1927.848        1502.219  
 128474431.382   100109947.9944   24447871.479 6  24447871.13642  24447875.30242
     -1489.463       -1160.613  
 115332520.210    89869498.7214   21947044.919 7  21947044.64844  21947047.92244
      2193.993        1709.605  
 121536347.574    94703654.5564   23127595.835 6  23127595.26244  23127598.62944
      3203.955        2496.587  
 08 11 15  1 22 30.0000000  0  9G 6G16G 3G23G13G19G21G25G 7         
 108365228.235    84440437.4134   20621213.469 7  20621213.27645  20621217.63445
     -1064.264        -829.295  
 115324249.937    89863050.6044   21945473.436 7  21945472.48144  21945477.65644
     -1687.554       -1314.973  
 104678700.788    81567827.9994   19919693.753 8  19919693.42146  19919697.83646
      -167.323        -130.375  
 118872346.161    92627815.3124   22620659.413 7  22620660.04943  22620660.72643
     -2395.772       -1866.841  
 117678389.253    91697452.0014   22393454.004 7  22393453.22144  22393457.19044
     -1020.611        -795.279  
 110343932.450    85982289.8714   20997746.390 6  20997745.21144  20997748.90044
      1912.285        1490.097  
 128519335.227   100144937.9684   24456416.616 6  24456416.75942  24456419.00142
     -1504.622       -1172.430  
 115266875.163    89818346.7394   21934552.902 7  21934552.83144  21934555.88744
      2181.854        1700.154  
 121440330.728    94628836.2434   23109324.339 6  23109323.77244  23109327.08244
      3196.670        2490.912  
 08 11 15  1 23  0.0000000  0  9G 6G16G 3G23G13G19G21G25G 7         
 108397332.241    84465453.5254   20627322.815 7  20627322.50345  20627326.90945
     -1076.198        -838.596  
 115374934.496    89902545.0424   21955118.344 7  21955117.46644  21955123.20244
     -1691.593       -1318.131  
 104683949.877    81571918.1954   19920692.671 8  19920692.14546  19920696.61946
      -182.762        -142.410  
 118944381.708    92683946.8684   22634367.186 6  22634366.62443  22634368.49943
     -2406.746       -1875.382  
 117709270.962    91721515.6554   22399329.801 7  22399329.91644  22399333.08944
     -1038.353        -809.116  
 110286772.500    85937749.6684   20986869.783 6  20986868.63244  20986871.19444
      1898.191        1479.109  
 128564674.890   100180267.5774   24465043.924 6  24465043.56442  24465046.43941
     -1518.214       -1183.035  
 115201577.219    89767465.2254   21922126.713 7  21922125.95643  21922130.00244
      2171.150        1691.804  
 121344515.839    94554175.2994   23091091.215 6  23091091.52644  23091094.24644
      3190.807        2486.343  
 08 11 15  1 23 30.0000000  0  9G 6G16G 3G23G13G19G21G25G 7         
 108429794.808    84490749.0324   20633500.314 8  20633499.99245  20633504.57645
     -1088.410        -848.110  
 115425741.994    89942135.2964   21964786.402 7  21964785.48544  21964791.80745
     -1695.999       -1321.558  
 104689663.297    81576370.2114   19921779.862 8  19921779.16646  19921783.51746
      -198.536        -154.704  
 119016746.715    92740335.1464   22648136.847 6  22648136.11542  22648138.87642
     -2417.976       -1884.164  
 117740685.707    91745994.6774   22405308.540 7  22405308.46644  22405311.95444
     -1056.401        -823.159  
 110230037.743    85893540.7684   20976073.511 6  20976072.08044  20976074.88544
      1883.691        1467.811  
 128610423.810   100215916.0874   24473749.948 6  24473750.14541  24473752.83241
     -1532.140       -1193.871  
 115136603.315    89716836.2164   21909762.506 7  21909763.06043  21909765.44543
      2160.004        1683.122  
 121248879.903    94479653.7924   23072892.770 6  23072892.50344  23072895.37844
      3184.479        2481.409  
 08 11 15  1 24  0.0000000  0  9G 6G16G 3G23G13G19G21G25G 7         
 108462645.095    84516346.6514   20639751.874 8  20639751.70945  20639755.98045
     -1101.948        -858.661  
 115476703.252    89981845.3434   21974483.902 7  21974482.63845  21974489.71745
     -1701.759       -1326.048  
 104695870.415    81581206.9184   19922961.124 8  19922960.71046  19922964.62446
      -215.615        -168.010  
 119089468.799    92797001.6804   22661974.084 6  22661973.85942  22661977.91642
     -2430.492       -1893.898  
 117772662.764    91770911.8364   22411392.239 7  22411392.42444  22411396.89344
     -1075.757        -838.255  
 110173759.465    85849687.5874   20965364.232 6  20965363.23544  20965365.86244
      1867.809        1455.432  
 128656611.638   100251906.5824   24482539.288 6  24482539.71542  24482539.92142
     -1547.392       -1205.755  
 115071986.348    89666485.3134   21897466.113 7  21897466.40243  21897468.85843
      2147.444        1673.339  
 121153456.139    94405297.6184   23054733.916 6  23054733.58344  23054736.71244
      3176.749        2475.394  
 08 11 15  1 24 30.0000000  0  9G 6G16G 3G23G13G19G21G25G 7         
 108495880.769    84542244.5774   20646076.491 7  20646076.00045  20646080.30945
     -1114.513        -868.450  
 115527817.318    90021674.4704   21984210.289 7  21984209.82644  21984216.04945
     -1706.619       -1329.831  
 104702569.516    81586426.9864   19924236.055 8  19924235.55746  19924239.86145
      -231.773        -180.597  
 119162544.033    92853943.4244   22675880.880 6  22675880.40442  22675883.71042
     -2441.964       -1902.818  
 117805199.313    91796264.9554   22417585.032 6  22417584.87344  22417587.86244
     -1094.141        -852.563  
 110117937.719    85806190.1304   20954740.823 5  20954739.03944  20954742.53444
      1852.846        1443.772  
 128703236.449   100288237.5674   24491411.922 6  24491410.56541  24491413.20541
     -1561.688       -1216.881  
 115007728.069    89616413.9274   21885238.552 7  21885237.81243  21885240.80443
      2135.658        1664.156  
 121058246.449    94331108.2664   23036615.182 6  23036615.83544  23036619.31644
      3169.782        2469.961  
 08 11 15  1 25  0.0000000  0  9G 6G16G 3G23G13G19G21G25G 7         
 108529496.009    84568438.2634   20652473.117 8  20652473.11745  20652476.56945
     -1126.453        -877.756  
 115579080.227    90061619.5984   21993965.568 7  21993964.88345  21993970.46644
     -1710.859       -1333.140  
 104709755.661    81592026.5704   19925603.195 8  19925602.78445  19925607.42446
      -247.254        -192.674  
 119235965.286    92911154.7774   22689853.235 6  22689853.35942  22689855.74042
     -2452.720       -1911.212  
 117838289.518    91822049.5374   22423881.733 7  22423881.65344  22423884.18044
     -1111.816        -866.347  
 110062568.883    85763045.5924   20944204.912 6  20944203.67644  20944206.50144
      1838.439        1432.550  
 128750292.795   100324904.8494   24500366.771 6  24500367.57941  24500370.34341
     -1575.335       -1227.522  
 114943826.572    89566620.5504   21873078.481 7  21873077.74943  21873081.79143
      2124.465        1655.417  
 120963249.174    94257084.4374   23018537.798 6  23018538.59044  23018542.06344
      3163.380        2464.971  
 08 11 15  1 25 30.0000000  0  9G 6G16G 3G23G13G19G21G25G 7         
 108563463.425    84594906.3664   20658936.993 8  20658936.69045  20658940.63145
     -1137.756        -886.570  
 115630466.075    90101660.5224   22003743.785 7  22003742.62744  22003748.64244
     -1714.563       -1336.020  
 104717401.576    81597984.4174   19927057.997 8  19927057.65945  19927062.15045
      -262.160        -204.285  
 119309703.351    92968613.0044   22703885.935 7  22703885.83243  22703887.48143
     -2462.812       -1919.066  
 117871905.551    91848243.8454   22430277.522 6  22430277.21843  22430282.44443
     -1128.920        -879.688  
 110007628.055    85720234.5674   20933749.632 6  20933748.27943  20933751.09143
      1824.590        1421.754  
 128797753.329   100361887.0674   24509397.311 6  24509397.86441  24509401.61041
     -1588.392       -1237.691  
 114880258.094    89517086.6804   21860981.697 7  21860981.27744  21860985.93244
      2113.730        1647.064  
 120868441.478    94183208.3224   23000497.036 6  23000497.27044  23000500.54744
      3157.413        2460.311  
 08 11 15  1 26  0.0000000  0  9G 6G16G 3G23G13G19G21G25G 7         
 108597813.447    84621672.5984   20665473.468 8  20665473.44245  20665477.14445
     -1150.579        -896.557  
 115682007.062    90141822.3224   22013552.510 7  22013551.53145  22013556.45045
     -1719.817       -1340.123  
 104725538.539    81604324.8934   19928606.597 8  19928605.96745  19928610.55045
      -278.583        -217.075  
 119383787.417    93026340.8474   22717983.699 6  22717983.51843  22717986.33143
     -2474.410       -1928.117  
 117906077.947    91874871.6504   22436780.389 6  22436779.99243  22436784.26543
     -1147.529        -894.182  
 109953148.262    85677782.7944   20923381.747 6  20923380.62144  20923384.03143
      1809.096        1409.694  
 128845649.241   100399208.5264   24518511.823 5  24518512.31141  24518514.93541
     -1602.972       -1249.069  
 114817057.412    89467839.3854   21848955.319 7  21848954.89344  21848960.09644
      2101.328        1637.402  
 120773857.997    94109506.9204   22982498.206 6  22982498.74544  22982501.54244
      3149.813        2454.394  
 08 11 15  1 26 30.0000000  0  9G 6G16G 3G23G13G19G21G25G 7         
 108632541.728    84648733.5894   20672082.100 8  20672081.74045  20672085.59645
     -1163.592        -906.699  
 115733700.423    90182102.8624   22023389.802 7  22023389.51645  22023393.48845
     -1725.345       -1344.429  
 104734162.164    81611044.5984   19930247.435 8  19930246.90445  19930252.12945
      -295.256        -230.072  
 119458212.018    93084334.0474   22732145.522 6  22732144.54742  22732145.42242
     -2486.141       -1937.258  
 117940802.000    91901929.3324   22443388.992 6  22443388.59843  22443392.67143
     -1166.329        -908.835  
 109899127.155    85635688.4484   20913101.516 6  20913100.81244  20913105.02244
      1793.356        1397.418  
 128893976.456   100436866.0364   24527709.144 5  24527706.76041  24527710.19841
     -1617.770       -1260.583  
 114754223.860    89418878.2004   21836998.565 7  21836998.55044  21837003.24544
      2088.635        1627.504  
 120679498.394    94035979.9874   22964542.449 6  22964542.44344  22964545.31143
      3141.871        2448.209  
 08 11 15  1 27  0.0000000  0 10G 6G16G 3G23G13G19G21G25G27G 7      
 108667641.501    84676084.0504   20678761.421 8  20678761.21545  20678764.63445
     -1175.163        -915.709  
 115785541.103    90222498.1934   22033255.011 7  22033254.53745  22033258.30845
     -1729.474       -1347.641  
 104743266.527    81618138.8984   19931980.285 8  19931979.65745  19931984.63445
      -310.477        -241.933  
 119532968.599    93142585.9284   22746370.712 6  22746369.87642  22746370.60542
     -2496.380       -1945.217  
 117976070.575    91929411.3164   22450100.557 6  22450100.59443  22450103.97143
     -1183.669        -922.340  
 109845560.104    85593947.8994   20902909.326 6  20902908.93144  20902911.60944
      1779.002        1386.242  
 128942728.537   100474854.6394   24536985.984 6  24536985.24141  24536987.55441
     -1631.131       -1271.006  
 114691754.546    89370200.8194   21825111.221 7  21825110.89644  21825114.81044
      2077.231        1618.617  
 128407066.189                    24435052.036 5                                
         0.000                  
 120585360.211    93962625.5814   22946628.420 6  22946628.26143  22946631.31143
      3135.231        2443.038  
 08 11 15  1 27 30.0000000  0  9G 6G16G 3G23G13G19G21G25G 7         
 108703094.256    84703709.5604   20685507.722 8  20685507.59445  20685510.88045
     -1188.107        -925.798  
 115837512.062    90262995.0284   22043145.186 8  22043144.97545  22043147.94145
     -1735.025       -1351.965  
 104752833.693    81625593.8224   19933800.922 8  19933800.37845  19933805.19945
      -327.093        -254.874  
 119608037.196    93201080.9334   22760656.605 7  22760656.36142  22760656.21142
     -2507.917       -1954.228  
 118011864.690    91957302.8244   22456912.159 6  22456911.78543  22456915.07743
     -1202.373        -936.903  
 109792431.089    85552548.6754   20892799.307 6  20892798.36844  20892801.48444
      1763.164        1373.897  
 128991887.251   100513160.1094   24546340.554 5  24546339.58141  24546342.36341
     -1645.898       -1282.513  
 114629634.931    89321795.9194   21813290.526 7  21813290.43444  21813293.51444
      2064.302        1608.552  
 120491429.056    93889432.4874   22928754.342 6  22928753.32143  22928756.59443
      3127.085        2436.691  
 08 11 15  1 28  0.0000000  0  9G 6G16G 3G23G13G19G21G25G 7         
 108738931.676    84731634.8134   20692327.232 8  20692326.77245  20692330.69645
     -1201.441        -936.183  
 115889646.988    90303619.6394   22053065.801 8  22053065.47945  22053068.72845
     -1741.020       -1356.637  
 104762895.732    81633434.3674   19935715.592 8  19935715.08345  19935719.75545
      -344.086        -268.112  
 119683448.126    93259842.6634   22775007.320 7  22775005.94642  22775006.00342
     -2519.835       -1963.526  
 118048216.096    91985628.6144   22463827.647 6  22463827.01143  22463831.72143
     -1221.435        -951.766  
 109739774.117    85511517.2784   20882778.814 6  20882777.89344  20882780.79344
      1746.911        1361.224  
 129041485.111   100551807.7424   24555778.088 6  24555777.28041  24555781.57641
     -1661.001       -1294.255  
 114567900.687    89273691.3054   21801543.001 7  21801542.53244  21801545.98744
      2050.903        1598.126  
 120397741.219    93816429.0044   22910925.818 6  22910925.72044  22910929.16544
      3118.393        2429.918  
 08 11 15  1 28 30.0000000  0  8G 6G16G 3G23G13G19G25G 7            
 108775139.474    84759848.6734   20699217.306 8  20699217.09545  20699221.14745
     -1213.408        -945.509  
 115941933.172    90344362.1024   22063015.699 8  22063014.87245  22063018.45745
     -1745.701       -1360.286  
 104773438.604    81641649.5814   19937721.966 8  19937721.58845  19937725.76345
      -359.737        -280.310  
 119759185.656    93318858.8804   22789419.942 7  22789419.81742  22789417.43242
     -2530.288       -1971.668  
 118085110.321    92014377.3474   22470849.519 6  22470849.58742  22470852.62542
     -1239.148        -965.572  
 109687577.149    85470844.3314   20872845.971 6  20872844.59644  20872847.85244
      1731.907        1349.544  
 114506541.342    89225878.8224   21789866.505 7  21789866.19644  21789869.54844
      2038.723        1588.616  
 120304286.938    93743607.5084   22893142.091 6  22893142.12044  22893144.76944
      3110.937        2424.105  
 08 11 15  1 29  0.0000000  0  8G 6G16G 3G23G13G19G25G 7            
 108811722.308    84788354.7704   20706178.812 8  20706178.45445  20706183.03845
     -1225.179        -954.690  
 115994376.952    90385227.3614   22072995.492 8  22072995.06345  22072998.34845
     -1750.257       -1363.836  
 104784467.889    81650243.8154   19939820.668 8  19939820.03745  19939824.63845
      -375.250        -292.403  
 119835252.840    93378131.9544   22803895.025 7  22803894.62142  22803894.22342
     -2540.542       -1979.645  
 118122551.589    92043552.3144   22477974.847 6  22477975.08042  22477976.72642
     -1256.668        -979.226  
 109635846.927    85430535.0734   20863001.672 7  20863000.47344  20863003.86544
      1717.049        1337.955  
 114445565.683    89178365.3094   21778263.346 7  21778262.97444  21778266.32544
      2026.585        1579.156  
 120211074.885    93670974.7574   22875404.724 6  22875405.02244  22875407.33744
      3103.479        2418.291  
 08 11 15  1 29 30.0000000  0  8G 6G16G 3G23G13G19G25G 7            
 108848682.156    84817154.6394   20713212.224 8  20713212.16345  20713216.28145
     -1237.541        -964.317  
 116046981.935    90426218.2384   22083005.890 7  22083005.36845  22083009.15145
     -1755.465       -1367.898  
 104795985.654    81659218.6834   19942012.565 8  19942012.01645  19942016.26945
      -391.338        -304.932  
 119911650.250    93437662.3284   22818432.560 7  22818431.78942  22818431.27342
     -2551.325       -1988.031  
 118160541.179    92073154.5634   22485204.473 6  22485204.85643  22485207.23443
     -1274.718        -993.267  
 109584587.921    85390592.9934   20853248.201 7  20853247.43344  20853248.83644
      1701.490        1325.844  
 114384979.295    89131155.1224   21766733.757 7  21766732.78444  21766737.61044
      2013.758        1569.162  
 120118111.017    93598535.3894   22857713.755 6  22857714.19144  22857716.92444
      3095.342        2411.958  
 08 11 15  1 30  0.0000000  0  8G 6G16G 3G23G13G19G25G 7            
 108885998.104    84846231.9854   20720312.796 8  20720312.78145  20720317.39745
     -1249.827        -973.893  
 116099728.879    90467319.7264   22093042.952 7  22093042.24545  22093047.11045
     -1760.652       -1371.936  
 104807971.570    81668558.3454   19944293.410 8  19944292.97045  19944297.00445
      -407.389        -317.444  
 119988355.547    93497432.6454   22833029.725 7  22833028.97443  22833030.39043
     -2562.011       -1996.374  
 118199058.120    92103167.7394   22492534.822 7  22492534.51342  22492535.49942
     -1292.726       -1007.309  
 109533781.264    85351003.3914   20843579.915 7  20843578.96744  20843581.41644
      1685.967        1313.737  
 114324765.346    89084235.1524   21755275.603 7  21755275.11844  21755279.02144
      2000.843        1559.093  
 120025379.128    93526276.7874   22840066.937 6  22840067.64944  22840071.11744
      3087.122        2405.541  
 08 11 15  1 30 30.0000000  0  8G 6G16G 3G23G13G19G25G 7            
 108923659.595    84875578.5964   20727479.853 8  20727479.53245  20727484.02845
     -1262.580        -983.834  
 116152609.273    90508525.2004   22103105.602 8  22103105.07245  22103109.39845
     -1766.331       -1376.361  
 104820415.677    81678255.0434   19946661.310 8  19946660.63945  19946665.71145
      -423.850        -330.270  
 120065356.785    93557433.5994   22847682.159 7  22847681.69843  22847683.96343
     -2573.042       -2004.967  
 118238091.393    92133583.2994   22499961.999 6  22499962.39442  22499963.31342
     -1311.120       -1021.684  
 109483418.968    85311760.0514   20833996.615 7  20833996.01445  20833997.46045
      1669.908        1301.213  
 114264917.277    89037600.2824   21743887.464 7  21743887.30744  21743890.71044
      1987.387        1548.620  
 119932872.907    93454194.0394   22822463.669 6  22822464.19444  22822467.81444
      3078.315        2398.693  
 08 11 15  1 31  0.0000000  0  8G 6G16G 3G23G13G19G25G 7            
 108961669.714    84905196.8674   20734713.147 8  20734712.78745  20734716.91245
     -1273.445        -992.293  
 116205627.559    90549838.1194   22113194.477 7  22113194.01945  22113198.24545
     -1770.243       -1379.402  
 104833320.748    81688310.9324   19949116.898 8  19949116.34645  19949121.30445
      -438.496        -341.686  
 120142655.290    93617666.2054   22862391.739 7  22862390.90943  22862392.75743
     -2582.218       -2012.113  
 118277643.650    92164403.2134   22507486.399 6  22507485.87542  22507491.48942
     -1327.684       -1034.558  
 109433505.920    85272866.7664   20824498.511 7  20824497.39645  20824499.27645
      1655.622        1290.094  
 114205441.947    88991255.8824   21732569.309 7  21732569.24744  21732572.49244
      1975.629        1539.460  
 119840599.762    93382292.9054   22804904.706 6  22804904.93444  22804908.71644
      3071.202        2393.149  
 08 11 15  1 31 30.0000000  0  8G 6G16G 3G23G13G19G25G 7            
 109000049.220    84935102.9744   20742016.283 8  20742016.04145  20742020.35545
     -1284.510       -1000.915  
 116258806.394    90591276.1404   22123313.994 7  22123313.21145  22123318.15545
     -1774.370       -1382.626  
 104846708.520    81698742.9634   19951664.480 8  19951663.86745  19951668.91445
      -453.349        -353.257  
 120220270.719    93678145.7594   22877159.986 7  22877159.16743  22877162.45843
     -2591.482       -2019.344  
 118317735.214    92195643.3444   22515117.031 6  22515117.00342  22515120.56642
     -1344.417       -1047.593  
 109384065.105    85234341.4544   20815090.061 7  20815089.20545  20815091.24045
      1641.081        1278.763  
 114146364.025    88945221.1414   21721327.416 7  21721326.94044  21721330.37544
      1963.535        1530.027  
 119748584.986    93310593.0864   22787394.286 6  22787394.92844  22787398.82744
      3063.770        2387.356  
 08 11 15  1 32  0.0000000  0  8G 6G16G 3G23G13G19G25G 7            
 109038764.634    84965270.8254   20749383.785 7  20749383.65145  20749387.69945
     -1296.114       -1009.953  
 116312114.100    90632814.5914   22133458.382 7  22133457.35244  22133462.85444
     -1779.082       -1386.300  
 104860546.177    81709525.5504   19954297.457 7  19954296.95345  19954302.29145
      -468.740        -365.249  
 120298167.939    93738844.8754   22891983.514 6  22891982.72843  22891986.02743
     -2601.262       -2026.940  
 118358332.171    92227277.3164   22522841.485 6  22522840.88042  22522845.58942
     -1361.644       -1061.030  
 109335065.518    85196159.9554   20805765.576 7  20805764.59145  20805766.22945
      1625.933        1266.963  
 114087654.041    88899473.1124   21710155.454 7  21710154.87444  21710158.82644
      1950.820        1520.121  
 119656799.251    93239071.7484   22769928.545 6  22769927.95444  22769932.05144
      3055.641        2381.036  
 08 11 15  1 32 30.0000000  0  8G 6G16G 3G23G13G19G25G 7            
 109077873.893    84995745.5754   20756825.901 8  20756825.81945  20756829.61645
     -1310.234       -1020.962  
 116365610.060    90674499.7254   22143638.327 7  22143637.96444  22143642.14444
     -1786.373       -1391.972  
 104874891.572    81720703.7844   19957027.839 8  19957027.26345  19957032.08645
      -486.673        -379.226  
 120376403.106    93799807.3234   22906871.262 7  22906871.05143  22906873.73843
     -2613.477       -2036.469  
 118399492.047    92259349.8824   22530675.057 6  22530675.07242  22530677.34342
     -1381.416       -1076.410  
 109286566.922    85158368.8334   20796536.449 7  20796535.55345  20796537.66345
      1608.220        1253.155  
 114029373.729    88854059.8914   21699064.837 7  21699064.39044  21699067.55844
      1935.471        1508.162  
 119565304.949    93167777.4944   22752518.344 6  22752517.46244  22752521.54244
      3044.895        2372.645  
 08 11 15  1 33  0.0000000  0  8G 6G16G 3G23G13G19G25G 7            
 109117338.948    85026497.5644   20764336.007 8  20764335.87045  20764339.74445
     -1321.682       -1029.888  
 116419258.058    90716303.3374   22153846.624 7  22153845.72344  22153849.97444
     -1791.074       -1395.642  
 104889707.293    81732248.5144   19959847.097 8  19959846.71145  19959851.25845
      -501.940        -391.132  
 120454937.074    93861002.5794   22921816.571 6  22921815.38943  22921818.37043
     -2623.005       -2043.896  
 118441176.564    92291831.2864   22538608.405 7  22538609.27443  22538611.28443
     -1398.460       -1089.708  
 109238533.750    85120940.3834   20787396.405 7  20787395.46945  20787397.98645
      1593.086        1241.360  
 113971488.996    88808954.9044   21688049.589 7  21688049.45244  21688052.12544
      1922.601        1498.120  
 119474068.325    93096684.0214   22735156.190 6  22735156.74644  22735159.74044
      3036.626        2366.202  
 08 11 15  1 33 30.0000000  0  8G 6G16G 3G23G13G19G25G 7            
 109157141.845    85057512.8134   20771910.404 8  20771910.31045  20771914.45745
     -1332.097       -1037.997  
 116473042.018    90758212.8844   22164081.554 7  22164080.84344  22164084.30644
     -1794.775       -1398.516  
 104904975.726    81744146.0064   19962752.215 8  19962751.72745  19962757.27945
      -516.180        -402.215  
 120533750.249    93922415.3914   22936814.522 7  22936814.78443  22936815.85543
     -2631.442       -2050.460  
 118483367.044    92324706.9564   22546636.031 6  22546635.71943  22546640.12843
     -1414.471       -1102.178  
 109190950.048    85083862.1754   20778341.737 7  20778340.59345  20778343.09645
      1578.910        1230.324  
 113913985.724    88764147.1564   21677106.400 7  21677106.18944  21677109.79244
      1910.696        1488.862  
 119383075.935    93025780.8334   22717841.003 6  22717840.97344  22717844.91044
      3029.267        2360.471  
 08 11 15  1 34  0.0000000  0  8G 6G16G 3G23G13G19G25G 7            
 109197293.956    85088800.1694   20779551.000 8  20779550.74945  20779554.97345
     -1344.616       -1047.753  
 116526975.181    90800238.6914   22174344.918 7  22174344.18144  22174347.99444
     -1800.689       -1403.132  
 104920708.297    81756405.1574   19965746.811 8  19965746.46345  19965750.69645
      -532.575        -414.990  
 120612852.599    93984053.5584   22951867.142 7  22951866.74444  22951868.52244
     -2641.971       -2058.680  
 118526074.282    92357985.2864   22554763.228 6  22554763.08743  22554766.71843
     -1432.583       -1116.307  
 109143829.270    85047144.6694   20769374.313 7  20769373.55445  20769376.50045
      1562.547        1217.570  
 113856879.288    88719648.6384   21666239.287 7  21666238.62244  21666242.83444
      1896.483        1477.769  
 119292343.273    92955080.0434   22700575.173 6  22700574.57944  22700578.37944
      3019.641        2352.966  
 08 11 15  1 34 30.0000000  0  8G 6G16G 3G23G13G19G25G 7            
 109237799.017    85120362.5614   20787258.893 8  20787258.74145  20787263.23945
     -1356.778       -1057.227  
 116581063.043    90842385.0424   22184637.758 7  22184637.42644  22184641.08844
     -1806.253       -1407.463  
 104936909.655    81769029.5954   19968829.785 8  19968829.59845  19968833.80745
      -548.583        -427.459  
 120692246.466    94045918.8614   22966976.105 7  22966975.61444  22966976.75044
     -2652.019       -2066.505  
 118569301.447    92391668.7534   22562988.608 6  22562989.02842  22562991.65042
     -1450.319       -1130.106  
 109097177.164    85010792.3704   20760496.418 7  20760495.69245  20760499.19245
      1546.510        1205.068  
 113800177.219    88675465.2244   21655448.969 7  21655448.38344  21655452.84044
      1882.574        1466.940  
 119201878.630    92884588.1214   22683360.006 6  22683359.32444  22683363.52144
      3010.245        2345.653  
 08 11 15  1 35  0.0000000  0  8G 6G16G 3G23G13G19G25G 7            
 109278646.903    85152192.0784   20795031.782 8  20795031.16745  20795036.36345
     -1368.281       -1066.190  
 116635297.268    90884645.4394   22194958.217 7  22194957.65345  22194961.88345
     -1811.211       -1411.330  
 104953570.003    81782011.6844   19972000.073 8  19971999.66245  19972004.28045
      -563.943        -439.438  
 120771920.229    94108002.2794   22982136.689 7  22982136.45544  22982138.11944
     -2661.391       -2073.812  
 118613038.254    92425749.3514   22571311.274 6  22571311.47443  22571314.79243
     -1467.314       -1143.384  
 109050986.037    84974799.2834   20751706.032 6  20751704.76345  20751709.69944
      1531.036        1193.024  
 113743873.332    88631592.0604   21644734.962 7  21644734.39744  21644738.45844
      1869.172        1456.499  
 119111676.688    92814300.8994   22666195.407 7  22666195.26444  22666198.67244
      3001.356        2338.722  
 08 11 15  1 35 30.0000000  0  8G 6G16G 3G23G13G19G25G 7            
 109319853.117    85184300.8174   20802873.080 8  20802872.78245  20802877.40645
     -1379.126       -1074.644  
 116689694.820    90927033.1194   22205309.771 7  22205309.64445  22205313.89645
     -1815.593       -1414.748  
 104970704.843    81795363.5084   19975260.569 8  19975260.10645  19975264.50845
      -578.682        -450.923  
 120851887.792    94170314.6334   22997354.084 7  22997353.82643  22997356.49543
     -2670.080       -2080.581  
 118657299.413    92460238.5304   22579733.747 6  22579733.62443  22579738.64043
     -1483.716       -1156.144  
 109005273.315    84939178.9824   20743007.391 7  20743006.53244  20743009.59344
      1516.175        1181.428  
 113687987.015    88588044.2814   21634100.258 7  21634099.72544  21634104.37844
      1856.276        1446.450  
 119021756.899    92744233.5474   22649084.425 7  22649084.34244  22649086.81044
      2992.982        2332.191  
 08 11 15  1 36  0.0000000  0  8G 6G16G 3G23G13G19G25G 7            
 109361384.894    85216663.2434   20810776.439 8  20810776.23145  20810780.43345
     -1389.662       -1082.858  
 116744224.869    90969524.0374   22215686.463 7  22215685.73045  22215691.26245
     -1819.718       -1417.965  
 104988282.341    81809060.2554   19978605.356 8  19978604.96145  19978609.43745
      -593.113        -462.165  
 120932115.013    94232829.3204   23012620.978 6  23012620.67343  23012622.99843
     -2678.364       -2087.035  
 118702051.467    92495110.2174   22588250.634 6  22588250.76243  22588254.75743
     -1499.745       -1168.619  
 108960008.250    84903907.4964   20734394.132 7  20734393.48844  20734396.11244
      1501.526        1170.022  
 113632489.315    88544799.3254   21623539.972 7  21623539.63244  21623543.43244
      1843.576        1436.555  
 118932090.867    92674363.9084   22632021.530 7  22632021.98744  22632023.51944
      2984.761        2325.780  
 08 11 15  1 36 30.0000000  0  8G 6G16G 3G23G13G19G25G 7            
 109403252.982    85249287.7154   20818743.562 8  20818743.53346  20818747.92746
     -1401.410       -1092.013  
 116798899.925    91012127.9564   22226091.059 7  22226089.96345  22226095.27445
     -1825.135       -1422.186  
 105006313.315    81823110.3644   19982036.886 8  19982036.61545  19982040.59945
      -608.787        -474.381  
 121012610.788    94295553.2734   23027939.071 6  23027939.08943  23027940.40443
     -2687.843       -2094.417  
 118747304.738    92530372.4664   22596861.730 6  22596861.61843  22596865.22043
     -1517.002       -1182.069  
 108915203.374    84868994.6034   20725868.485 7  20725867.22244  20725869.78144
      1485.596        1157.613  
 113577394.910    88501868.6124   21613056.203 7  21613055.70544  21613058.56144
      1829.528        1425.605  
 118842693.836    92604703.8924   22615009.988 7  22615010.42544  22615012.17544
      2975.177        2318.302  
 08 11 15  1 37  0.0000000  0  8G 6G16G 3G23G13G19G25G 7            
 109445455.145    85282172.5104   20826774.397 8  20826774.41545  20826778.79745
     -1413.200       -1101.196  
 116853719.743    91054844.6714   22236522.629 7  22236521.76945  22236526.95245
     -1830.649       -1426.478  
 105024795.544    81837512.0964   19985553.957 8  19985553.61645  19985557.59845
      -624.505        -486.625  
 121093371.900    94358483.9884   23043306.802 6  23043306.49543  23043308.78643
     -2697.323       -2101.801  
 118793056.424    92566023.1174   22605568.042 6  22605568.14343  22605572.41943
     -1534.244       -1195.508  
 108870859.007    84834440.5374   20717429.965 7  20717428.83345  20717431.71944
      1469.563        1145.123  
 113522705.562    88459253.5174   21602649.092 7  21602648.20844  21602651.49344
      1815.287        1414.522  
 118753568.043    92535255.2284   22598050.017 7  22598050.42144  22598052.59244
      2965.402        2310.709  
 08 11 15  1 37 30.0000000  0  8G 6G16G 3G23G13G19G25G 7            
 109488015.203    85315336.1904   20834873.400 8  20834872.79046  20834877.55246
     -1425.652       -1110.902  
 116908709.874    91097694.1014   22246987.028 7  22246986.36445  22246990.71845
     -1836.869       -1431.335  
 105043753.401    81852284.4444   19989161.432 8  19989160.90946  19989165.07646
      -640.867        -499.375  
 121174420.655    94421638.8294   23058729.416 5  23058729.22842  23058731.53342
     -2707.417       -2109.698  
 118839329.768    92602080.2284   22614372.863 6  22614372.65943  22614377.75943
     -1552.119       -1209.442  
 108827000.762    84800265.2924   20709084.619 7  20709084.10845  20709085.58545
      1452.785        1132.042  
 113468448.784    88416975.5034   21592324.242 7  21592323.49544  21592327.70344
      1800.292        1402.823  
 118664741.438    92466039.7074   22581147.128 7  22581147.12444  22581149.13544
      2954.814        2302.460  
 08 11 15  1 38  0.0000000  0  9G 6G16G 3G23G13G19G25G27G 7         
 109530916.428    85348765.7014   20843037.359 8  20843036.97245  20843041.47045
     -1435.667       -1118.703  
 116963855.503    91140664.6964   22257480.762 7  22257479.94244  22257484.08744
     -1840.770       -1434.362  
 105063170.207    81867414.4094   19992856.199 8  19992855.59245  19992859.70645
      -654.817        -510.239  
 121255738.458    94485003.2894   23074201.980 5  23074200.91742  23074204.21042
     -2715.010       -2115.584  
 118886107.257    92638530.1704   22623274.362 6  22623274.31843  22623279.83043
     -1567.595       -1221.502  
 108783614.070    84766457.4904   20700828.599 7  20700827.71945  20700828.66345
      1438.400        1120.830  
 113414611.678    88375024.5054   21582078.931 7  21582078.81044  21582082.91744
      1787.605        1392.936  
 126353106.275                    24044194.949 5                                
         0.000                  
 118576202.147    92397048.0584   22564298.527 7  22564298.73644  22564301.10444
      2946.540        2296.012  
 08 11 15  1 38 30.0000000  0  8G 6G16G 3G23G13G19G25G 7            
 109574163.370    85382464.6094   20851266.486 8  20851266.41845  20851271.06945
     -1447.698       -1128.071  
 117019163.025    91183761.4474   22268005.611 7  22268004.44944  22268009.06244
     -1846.683       -1438.976  
 105083050.630    81882905.6394   19996639.408 8  19996638.71445  19996643.03545
      -670.816        -522.717  
 121337328.685    94548580.0404   23089729.763 5  23089728.60042  23089730.79642
     -2724.611       -2123.060  
 118933393.025    92675376.1774   22632272.072 5  22632271.86743  22632277.87043
     -1585.059       -1235.106  
 108740705.477    84733022.2204   20692663.173 7  20692662.57045  20692663.53545
      1421.910        1107.981  
 113361202.759    88333407.1644   21571915.799 7  21571915.71544  21571919.27344
      1772.731        1381.343  
 118487959.103    92328287.2584   22547506.431 7  22547506.65945  22547509.37645
      2936.057        2287.838  
 08 11 15  1 39  0.0000000  0  8G 6G16G 3G23G13G19G25G 7            
 109617742.966    85416422.7274   20859559.453 8  20859559.04845  20859563.99145
     -1458.114       -1136.192  
 117074620.576    91226975.0984   22278559.254 7  22278558.63044  22278562.38944
     -1851.033       -1442.366  
 105103382.749    81898748.8394   20000508.431 8  20000507.90545  20000512.38845
      -685.177        -533.906  
 121419176.612    94612357.6244   23105304.083 5  23105303.63442  23105306.27342
     -2732.466       -2129.203  
 118981173.086    92712607.3514   22641366.742 6  22641366.58343  22641370.50543
     -1600.807       -1247.377  
 108698263.764    84699950.7564   20684587.017 7  20684586.46345  20684587.85445
      1407.000        1096.362  
 113308212.673    88292116.1804   21561832.331 7  21561831.92144  21561835.18044
      1759.387        1370.951  
 118400003.418    92259750.3864   22530769.225 7  22530769.05045  22530772.17045
      2927.091        2280.849  
 08 11 15  1 39 30.0000000  0  8G 6G16G 3G23G13G19G25G 7            
 109661654.018    85450639.1224   20867915.469 8  20867914.96345  20867920.04145
     -1469.246       -1144.863  
 117130229.261    91270306.5094   22289140.984 7  22289140.10144  22289144.03344
     -1856.178       -1446.374  
 105124165.220    81914942.9664   20004463.201 8  20004462.48845  20004467.11245
      -700.265        -545.655  
 121501279.554    94676333.8814   23120928.884 6  23120928.40943  23120931.22443
     -2741.017       -2135.857  
 119029445.655    92750222.3134   22650551.226 6  22650550.96543  22650555.84443
     -1617.316       -1260.232  
 108656289.825    84667243.8004   20676599.400 7  20676598.54945  20676600.82745
      1391.278        1084.117  
 113255644.191    88251153.7204   21551828.776 7  21551828.19444  21551831.70944
      1745.193        1359.888  
 118312338.532    92191440.0984   22514087.182 7  22514087.07845  22514089.90445
      2917.241        2273.180  
 08 11 15  1 40  0.0000000  0  8G 6G16G 3G23G13G19G25G 7            
 109705892.457    85485110.6134   20876334.049 8  20876333.67545  20876338.08545
     -1480.586       -1153.705  
 117185986.779    91313753.9014   22299751.412 7  22299751.25144  22299753.90744
     -1861.580       -1450.581  
 105145394.081    81931484.9244   20008502.799 8  20008502.30845  20008506.56245
      -715.590        -557.604  
 121583632.184    94740504.7364   23136600.836 6  23136600.08143  23136602.21643
     -2749.731       -2142.651  
 119078205.800    92788217.2114   22659829.775 6  22659830.52442  22659834.95342
     -1633.956       -1273.222  
 108614781.618    84634899.7504   20668700.334 7  20668699.19645  20668702.15745
      1375.329        1071.682  
 113203497.085    88210519.6084   21541904.791 7  21541904.19544  21541908.65744
      1730.673        1348.568  
 118224964.617    92123356.5314   22497460.422 7  22497460.78045  22497463.23345
      2907.072        2265.251  
 08 11 15  1 40 30.0000000  0  8G 6G16G 3G23G13G19G25G 7            
 109750436.586    85519820.3174   20884810.744 8  20884810.63745  20884814.47945
     -1491.598       -1162.282  
 117241873.209    91357301.7444   22310385.568 7  22310385.09344  22310389.65844
     -1866.743       -1454.600  
 105167048.567    81948358.5414   20012623.773 8  20012623.25845  20012627.08345
      -730.607        -569.299  
 121666211.245    94804852.0294   23152315.469 6  23152314.69043  23152316.05343
     -2758.075       -2149.145  
 119127431.468    92826574.8434   22669196.194 5  22669195.38142  22669201.10742
     -1650.321       -1285.964  
 108573719.246    84602903.1014   20660886.004 7  20660884.72545  20660888.34445
      1359.592        1059.427  
 113151753.422    88170199.8694   21532058.221 7  21532058.06345  21532062.40945
      1716.327        1337.399  
 118137864.648    92055486.4544   22480885.710 7  22480885.58245  22480888.77445
      2897.019        2257.412  
 08 11 15  1 41  0.0000000  0  8G 6G16G 3G23G13G19G25G 7            
 109795318.596    85554793.2914   20893351.406 7  20893351.00345  20893355.62045
     -1501.846       -1170.263  
 117297922.516    91400976.5084   22321052.012 7  22321051.55044  22321054.90144
     -1871.193       -1458.072  
 105189160.409    81965588.5374   20016831.446 8  20016831.37545  20016835.09745
      -744.832        -580.389  
 121749047.301    94869399.5594   23168078.297 6  23168078.09243  23168079.58043
     -2765.630       -2155.028  
 119177153.847    92865319.5094   22678657.823 5  22678657.49742  22678663.04242
     -1665.844       -1298.048  
 108533136.676    84571280.3324   20653163.668 7  20653162.63245  20653165.09245
      1344.581        1047.722  
 113100449.089    88130222.4534   21522295.795 7  21522295.20245  21522300.10545
      1702.618        1326.709  
 118051075.218    91987858.3454   22464369.858 7  22464369.98944  22464373.17744
      2887.594        2250.073  
 08 11 15  1 41 30.0000000  0  9G 6G16G 3G23G13G19G25G27G 7         
 109840527.316    85590020.8614   20901954.117 8  20901954.00646  20901958.36546
     -1510.750       -1177.207  
 117354125.406    91444770.9454   22331747.309 7  22331746.81944  22331750.21044
     -1874.351       -1460.533  
 105211718.944    81983166.6094   20021124.167 8  20021123.67945  20021127.95145
      -757.730        -590.439  
 121832127.527    94934137.3244   23183886.219 5  23183884.52842  23183889.51442
     -2771.745       -2159.783  
 119227361.130    92904442.0184   22688213.051 6  22688213.92642  22688217.78842
     -1679.979       -1309.077  
 108493024.914    84540024.4214   20645530.633 7  20645529.51145  20645532.03245
      1330.857        1037.032  
 113049576.876    88090581.7684   21512615.837 7  21512615.90045  21512619.08145
      1690.179        1317.020  
 125713419.803                    23922465.001 5                                
         0.000                  
 117964589.730    91920467.0704   22447912.218 7  22447912.25744  22447915.55744
      2879.407        2243.695  
 08 11 15  1 42  0.0000000  0  8G 6G16G 3G23G13G19G25G 7            
 109886041.112    85625486.1454   20910615.127 8  20910614.78245  20910619.40445
     -1523.446       -1187.094  
 117410462.078    91488669.6324   22342467.365 7  22342466.58944  22342470.60944
     -1881.388       -1466.011  
 105234702.676    82001075.9924   20025497.627 8  20025497.28645  20025501.59745
      -774.447        -603.462  
 121915429.044    94999047.5544   23199737.092 5  23199735.58142  23199740.18742
     -2781.620       -2167.472  
 119278030.926    92943924.9504   22697855.840 6  22697856.58243  22697859.91343
     -1697.941       -1323.068  
 108453364.143    84509119.9394   20637983.630 7  20637982.34545  20637984.67745
      1313.242        1023.312  
 112999118.875    88051263.8364   21503014.040 7  21503013.93845  21503017.21745
      1673.746        1304.219  
 117878390.782    91853299.0694   22431509.181 7  22431509.71744  22431512.10844
      2867.229        2234.211  
 08 11 15  1 42 30.0000000  0  8G 6G16G 3G23G13G19G25G 7            
 109931895.735    85661217.0094   20919341.296 8  20919340.88846  20919345.44646
     -1533.109       -1194.631  
 117466970.219    91532701.9354   22353220.161 7  22353219.30344  22353223.77544
     -1885.423       -1469.156  
 105258147.904    82019344.9904   20029958.981 8  20029958.50345  20029962.88845
      -788.150        -614.144  
 121998986.243    95064157.0154   23215639.412 5  23215638.97042  23215641.38342
     -2788.433       -2172.804  
 119329198.282    92983795.6234   22707592.627 6  22707591.94942  22707595.50442
     -1712.795       -1334.664  
 108414192.067    84478596.2754   20630529.099 7  20630527.47845  20630530.63245
      1298.619        1011.906  
 112949114.779    88012299.6084   21493497.864 7  21493497.50445  21493501.69945
      1660.264        1293.715  
 117792518.567    91786385.6684   22415168.396 7  22415169.05245  22415171.60545
      2857.964        2226.990  
 08 11 15  1 43  0.0000000  0  8G 6G16G 3G23G13G19G25G 7            
 109978063.292    85697191.7134   20928126.298 8  20928126.25645  20928130.47545
     -1544.234       -1203.291  
 117523623.564    91576847.3864   22364000.860 7  22364000.41144  22364004.52344
     -1890.961       -1473.484  
 105282026.897    82037951.9834   20034502.956 8  20034502.51845  20034507.13645
      -803.275        -625.929  
 122082770.113    95129443.1054   23231583.288 6  23231583.00443  23231585.40443
     -2796.623       -2179.192  
 119380834.219    93024031.4174   22717419.130 6  22717418.78642  22717422.19142
     -1729.090       -1347.336  
 108375482.615    84448433.0794   20623163.340 7  20623162.06345  20623163.78345
      1282.509         999.357  
 112899540.274    87973670.1254   21484063.900 7  21484063.65145  21484067.78745
      1645.218        1281.989  
 117706949.837    91719708.7484   22398885.203 7  22398885.94945  22398888.32945
      2847.102        2218.517  
 08 11 15  1 43 30.0000000  0  8G 6G16G 3G23G13G19G25G 7            
 110024561.157    85733423.8154   20936974.955 8  20936974.54645  20936979.22145
     -1555.000       -1211.689  
 117580441.475    91621121.0764   22374812.818 7  22374812.39444  22374816.92044
     -1896.251       -1477.601  
 105306357.111    82056910.5764   20039133.195 8  20039132.62845  20039136.65545
      -818.092        -637.474  
 122166795.720    95194917.5774   23247573.707 6  23247573.47843  23247574.05943
     -2804.409       -2185.256  
 119432955.492    93064645.3774   22727336.990 6  22727336.91843  22727340.67343
     -1745.021       -1359.776  
 108337255.148    84418645.4514   20615888.728 7  20615887.48345  20615889.37045
      1266.646         986.993  
 112850416.607    87935391.9404   21474716.030 7  21474715.56645  21474719.17545
      1630.333        1270.392  
 117621706.202    91653285.1464   22382663.647 7  22382664.25845  22382666.87645
      2836.440        2210.217  
 08 11 15  1 44  0.0000000  0  9G 6G16G 3G23G13G19G25G27G 7         
 110071355.873    85769887.2194   20945879.516 8  20945879.35245  20945883.82545
     -1564.953       -1219.448  
 117637392.476    91665498.4514   22385650.384 7  22385649.17444  22385653.90044
     -1900.779       -1481.121  
 105331105.377    82076194.9254   20043842.578 8  20043842.38245  20043846.20145
      -832.096        -648.387  
 122251028.118    95260553.1774   23263602.799 6  23263602.84343  23263602.99743
     -2811.385       -2190.688  
 119485528.048    93105610.9714   22737342.195 7  22737341.95143  22737345.23543
     -1760.117       -1371.533  
 108299477.750    84389208.5204   20608700.267 7  20608699.20245  20608701.39645
      1251.538         975.220  
 112801714.040    87897441.8804   21465448.725 7  21465448.85245  21465451.30245
      1616.170        1259.354  
 125261292.745                    23836431.234 5                                
         0.000                  
 117536758.640    91587092.2624   22366498.907 7  22366499.40845  22366502.16445
      2826.418        2202.397  
 08 11 15  1 44 30.0000000  0  8G 6G16G 3G23G13G19G25G 7            
 110118454.202    85806587.2084   20954841.973 8  20954841.91245  20954846.26145
     -1575.847       -1227.930  
 117694485.023    91709986.1384   22396515.094 7  22396514.75644  22396518.21244
     -1906.294       -1485.422  
 105356278.336    82095810.2084   20048632.878 8  20048632.46645  20048636.78945
      -847.017        -660.012  
 122335472.881    95326354.2414   23279671.152 6  23279670.79943  23279673.04543
     -2819.170       -2196.753  
 119538557.663    93146932.6934   22747434.051 7  22747434.08443  22747436.12643
     -1776.078       -1383.962  
 108262159.464    84360129.3454   20601599.091 7  20601598.24145  20601600.07145
      1235.448         962.689  
 112753443.117    87859828.1674   21456263.346 7  21456263.14445  21456265.91945
      1600.959        1247.507  
 117452118.780    91521139.1304   22350392.252 7  22350392.90545  22350395.52945
      2815.323        2193.755  
 08 11 15  1 45  0.0000000  0  8G 6G16G 3G23G13G19G25G 7            
 110165863.754    85843529.7074   20963863.878 8  20963863.36945  20963867.98945
     -1585.725       -1235.632  
 117751728.522    91754591.4394   22407408.729 7  22407408.25944  22407411.46244
     -1910.876       -1488.998  
 105381884.382    82115762.9574   20053505.502 8  20053505.10945  20053509.12645
      -860.979        -670.896  
 122420135.973    95392325.4294   23295782.698 7  23295782.69344  23295784.49344
     -2825.982       -2202.056  
 119592050.885    93188615.7104   22757611.738 6  22757611.48342  22757614.64742
     -1791.052       -1395.619  
 108225309.389    84331415.0094   20594586.568 7  20594585.30745  20594587.68945
      1220.283         950.870  
 112705615.124    87822559.5954   21447161.150 7  21447160.72645  21447164.80444
      1586.615        1236.318  
 117367798.126    91455434.7264   22334346.690 7  22334346.85945  22334350.24945
      2805.100        2185.790  
 08 11 15  1 45 30.0000000  0  8G 6G16G 3G23G13G19G25G 7            
 110213580.608    85880711.6664   20972944.045 8  20972943.76145  20972948.33345
     -1596.425       -1243.976  
 117809121.060    91799312.8684   22418330.222 7  22418329.74144  22418333.88644
     -1916.343       -1493.246  
 105407919.627    82136050.1504   20058459.850 8  20058459.54245  20058463.41445
      -875.735        -682.390  
 122505012.340    95458462.8224   23311933.191 6  23311932.72943  23311935.50743
     -2833.530       -2207.940  
 119646003.250    93230656.4784   22767877.474 6  22767877.92142  22767882.42442
     -1806.800       -1407.910  
 108188925.381    84303063.8374   20587662.725 7  20587661.67045  20587664.18345
      1204.265         938.385  
 112658229.947    87785636.0734   21438143.721 7  21438142.74744  21438147.21444
      1571.335        1224.418  
 117283797.620    91389979.8024   22318361.794 7  22318362.01045  22318365.85645
      2793.878        2177.043  
 08 11 15  1 46  0.0000000  0  8G 6G16G 3G23G13G19G25G 7            
 110261623.015    85918147.2934   20982086.192 8  20982085.60045  20982090.58145
     -1607.179       -1252.347  
 117866682.438    91844165.8694   22429283.546 7  22429282.90644  22429287.73344
     -1921.896       -1497.582  
 105434402.375    82156686.0474   20063499.070 8  20063498.66845  20063503.08345
      -890.575        -693.956  
 122590118.727    95524779.4324   23328128.197 7  23328127.64043  23328130.38143
     -2841.026       -2213.788  
 119700431.715    93273068.2064   22778233.527 5  22778232.95342  22778239.69942
     -1822.555       -1420.177  
 108153027.518    84275091.4684   20580831.420 7  20580830.54945  20580833.40345
      1188.125         925.806  
 112611309.507    87749074.6874   21429215.023 7  21429214.62344  21429218.80944
      1555.891        1212.374  
 117200139.883    91324791.9604   22302442.384 7  22302442.96545  22302446.34845
      2782.494        2168.174  
 08 11 15  1 46 30.0000000  0  8G 6G16G 3G23G13G19G25G 7            
 110309965.550    85955816.7884   20991285.056 8  20991284.79145  20991289.61245
     -1615.424       -1258.772  
 117924389.330    91889132.2464   22440264.764 7  22440264.22444  22440268.74644
     -1925.009       -1500.009  
 105461307.611    82177651.1614   20068619.196 8  20068618.42545  20068623.01145
      -902.875        -703.538  
 122675427.748    95591253.9574   23344362.367 7  23344362.51344  23344365.23444
     -2845.998       -2217.658  
 119755310.268    93315830.6824   22788677.693 6  22788677.42342  22788682.85142
     -1835.784       -1430.479  
 108117592.155    84247479.5014   20574087.995 7  20574087.11645  20574090.00545
      1174.442         915.158  
 112564832.142    87712858.5574   21420371.611 7  21420371.40845  21420374.69745
      1542.805        1202.189  
 117116804.060    91259854.9624   22286583.951 7  22286584.63745  22286587.69745
      2773.399        2161.100  
 08 11 15  1 47  0.0000000  0  8G 6G16G 3G23G13G19G25G 7            
 110358640.304    85993745.1584   21000547.584 8  21000546.86345  21000551.99345
     -1628.024       -1268.589  
 117982275.702    91934238.4714   22451280.001 7  22451279.30044  22451283.34144
     -1932.560       -1505.892  
 105488667.573    82198970.6094   20073825.594 8  20073825.21845  20073829.56945
      -919.581        -716.557  
 122760970.256    95657910.4184   23360640.628 7  23360640.27543  23360643.69543
     -2855.285       -2224.892  
 119810669.904    93358968.0414   22799213.891 6  22799213.19242  22799217.24042
     -1853.347       -1444.199  
 108082653.149    84220254.2954   20567439.480 7  20567438.64745  20567441.11345
      1156.333         901.041  
 112518833.642    87677015.5674   21411618.613 7  21411618.33045  21411621.60245
      1525.252        1188.504  
 117033826.511    91195197.1144   22270794.091 7  22270794.64045  22270797.49945
      2759.891        2150.562  
 08 11 15  1 47 30.0000000  0  8G 6G16G 3G23G13G19G25G 7            
 110407626.468    86031916.1884   21009869.417 7  21009868.74345  21009873.97645
     -1637.492       -1275.969  
 118040322.425    91979469.6454   22462326.215 7  22462325.66444  22462329.32544
     -1937.035       -1509.375  
 105516461.312    82220628.0634   20079114.501 8  20079114.03245  20079118.30845
      -933.145        -727.121  
 122846723.980    95724731.4554   23376959.946 7  23376959.47944  23376961.01244
     -2861.401       -2229.660  
 119866488.986    93402463.3934   22809836.037 6  22809835.72242  22809838.98442
     -1867.763       -1455.377  
 108048191.100    84193400.7544   20560881.679 7  20560880.77845  20560883.25245
      1141.315         889.335  
 112473296.858    87641532.3484   21402952.807 7  21402951.98745  21402956.44945
      1510.714        1177.181  
 116951190.681    91130805.5524   22255068.620 7  22255069.17745  22255072.06345
      2749.341        2142.351  
 08 11 15  1 48  0.0000000  0  8G 6G16G 3G23G13G19G25G 7            
 110456881.808    86070296.9584   21019242.494 7  21019242.08245  21019246.80145
     -1646.972       -1283.354  
 118098489.336    92024794.4764   22473394.607 7  22473394.14944  22473397.97144
     -1941.562       -1512.910  
 105544647.141    82242591.0444   20084478.231 8  20084477.40345  20084482.06745
      -946.707        -737.698  
 122932645.366    95791683.1504   23393310.150 7  23393309.83244  23393311.31644
     -2867.464       -2234.391  
 119922724.626    93446283.3614   22820537.128 6  22820536.95042  22820540.81242
     -1882.099       -1466.576  
 108014166.015    84166887.6974   20554407.018 7  20554405.96645  20554408.15545
      1126.222         877.571  
 112428183.362    87606378.9564   21394367.566 7  21394367.02145  21394371.27845
      1496.047        1165.749  
 116868859.228    91066651.1624   22239401.671 7  22239401.57445  22239404.91645
      2738.618        2133.994  
 08 11 15  1 48 30.0000000  0  8G 6G16G 3G23G13G19G25G 7            
 110506451.387    86108922.6034   21028675.242 7  21028674.68945  21028679.91645
     -1657.487       -1291.555  
 118156822.972    92070249.2264   22484495.061 7  22484493.44744  22484498.72544
     -1947.203       -1517.300  
 105573270.029    82264894.5934   20089925.055 8  20089924.75346  20089928.64345
      -961.320        -749.082  
 123018777.980    95858799.4114   23409700.312 7  23409700.00244  23409702.58444
     -2874.508       -2239.869  
 119979420.377    93490461.8514   22831325.485 6  22831325.59542  22831330.07342
     -1897.456       -1478.529  
 107980624.525    84140751.4734   20548024.072 7  20548022.98645  20548025.38145
      1110.036         864.964  
 112383541.614    87571593.1634   21385872.862 7  21385872.55445  21385876.92445
      1480.230        1153.421  
 116786881.548    91002772.4464   22223801.758 7  22223801.76245  22223804.92145
      2726.713        2124.707  
 08 11 15  1 49  0.0000000  0  8G 6G16G 3G23G13G19G25G 7            
 110556314.087    86147776.6374   21038163.928 8  21038163.69945  21038168.49345
     -1666.938       -1298.909  
 118215304.232    92115819.0154   22495624.097 7  22495622.89844  22495627.79444
     -1951.835       -1520.903  
 105602309.398    82287522.6714   20095451.142 8  20095450.79546  20095454.74246
      -974.875        -759.642  
 123105098.786    95926062.3464   23426126.856 7  23426126.08344  23426128.84844
     -2880.427       -2244.479  
 120036554.413    93534981.8714   22842197.733 6  22842197.89243  22842203.13043
     -1911.704       -1489.664  
 107947547.106    84114976.8474   20541729.656 7  20541728.70345  20541731.31445
      1094.869         853.143  
 112339354.284    87537161.4704   21377464.837 7  21377464.81045  21377468.51145
      1465.338        1141.828  
 116705240.849    90939156.3154   22208266.128 7  22208266.87645  22208269.17845
      2715.736        2116.159  
 08 11 15  1 49 30.0000000  0  8G 6G16G 3G23G13G19G25G 7            
 110606455.545    86186847.8854   21047705.727 8  21047705.13245  21047709.97845
     -1677.684       -1307.283  
 118273921.221    92161494.5594   22506778.252 7  22506777.48944  22506782.08744
     -1957.800       -1525.560  
 105631750.895    82310464.0964   20101053.697 8  20101053.16346  20101057.67846
      -989.713        -771.209  
 123191592.082    95993459.6744   23442584.975 6  23442583.91543  23442587.65243
     -2887.613       -2250.093  
 120094111.450    93579831.4784   22853151.028 6  22853150.56843  22853156.01943
     -1927.247       -1501.745  
 107914921.103    84089553.9774   20535521.118 7  20535520.10745  20535522.93245
      1078.354         840.276  
 112295610.752    87503075.6064   21369140.831 7  21369140.91245  21369144.13545
      1449.046        1129.124  
 116623927.258    90875795.0704   22192792.880 7  22192793.36345  22192795.40145
      2703.310        2106.472  
 08 11 15  1 50  0.0000000  0  8G 6G16G 3G23G13G19G25G 7            
 110656903.596    86226158.0384   21057305.874 8  21057305.58445  21057310.05645
     -1686.733       -1314.340  
 118332702.765    92207298.3324   22517964.930 7  22517964.66944  22517967.55844
     -1962.217       -1528.998  
 105661622.156    82333740.3994   20106737.905 8  20106737.36246  20106741.99846
     -1002.922        -781.502  
 123278284.531    96061012.1774   23459082.313 7  23459081.15043  23459084.33343
     -2893.093       -2254.351  
 120152118.476    93625031.7204   22864189.836 6  22864189.76242  22864193.67743
     -1941.122       -1512.552  
 107882775.855    84064505.7284   20529404.229 8  20529403.38945  20529405.68545
      1063.414         828.632  
 112252342.415    87469360.0154   21360906.079 7  21360905.69645  21360910.71745
      1434.283        1117.618  
 116542973.137    90812713.9354   22177387.200 7  22177387.69444  22177390.33444
      2692.368        2097.955  
 08 11 15  1 50 30.0000000  0  8G 6G16G 3G23G13G19G25G 7            
 110707629.141    86265684.4264   21066958.394 8  21066958.48845  21066962.62245
     -1695.273       -1320.985  
 118391621.864    92253209.2884   22529176.502 7  22529176.28344  22529180.01644
     -1966.073       -1531.992  
 105691894.322    82357329.0994   20112498.676 8  20112497.93946  20112502.39846
     -1015.543        -791.326  
 123365145.338    96128695.8994   23475611.618 7  23475610.95442  23475611.97242
     -2897.924       -2258.119  
 120210545.120    93670558.9484   22875307.488 5  22875306.57342  22875312.55942
     -1954.313       -1522.849  
 107851084.094    84039810.8424   20523373.697 8  20523372.81845  20523374.57946
      1049.035         817.435  
 112209523.877    87435994.9124   21352757.600 7  21352756.50545  21352762.78545
      1419.957        1106.475  
 116462353.979    90749893.7994   22162045.240 6  22162045.28744  22162048.99744
      2681.892        2089.792  
 08 11 15  1 51  0.0000000  0  8G 6G16G 3G23G13G19G25G 7            
 110758646.193    86305437.9614   21076666.613 8  21076666.28845  21076671.04645
     -1705.022       -1328.585  
 118450694.524    92299239.9064   22540417.950 7  22540417.73644  22540420.94644
     -1971.244       -1536.037  
 105722581.626    82381241.2934   20118338.197 8  20118337.67446  20118341.88246
     -1029.414        -802.140  
 123452187.137    96196520.6044   23492175.599 7  23492175.52642  23492173.27842
     -2903.967       -2262.827  
 120269404.424    93716423.2944   22886507.139 5  22886506.09442  22886512.54942
     -1968.780       -1534.122  
 107819861.063    84015481.2044   20517431.961 7  20517430.92446  20517433.66846
      1033.346         805.205  
 112167172.486    87402993.8264   21344698.948 7  21344698.92745  21344703.61545
      1404.311        1094.267  
 116382087.966    90687348.8634   22146770.865 6  22146770.61844  22146775.09044
      2670.000        2080.525  
 08 11 15  1 51 30.0000000  0  9G 6G16G 3G23G13G19G25G27G 7         
 110809966.989    86345428.1824   21086432.618 8  21086432.40745  21086436.68845
     -1716.713       -1337.701  
 118509934.707    92345401.0664   22551691.225 7  22551691.02544  22551693.36144
     -1978.426       -1541.633  
 105753696.223    82405486.4324   20124258.905 8  20124258.62546  20124262.63646
     -1045.215        -814.453  
 123539420.292    96264494.4174   23508775.167 7  23508774.73243  23508775.05842
     -2911.895       -2269.002  
 120328707.315    93762633.3074   22897791.982 5  22897790.76142  22897797.79142
     -1985.149       -1546.865  
 107789120.848    83991527.7974   20511582.394 7  20511581.77746  20511583.70346
      1015.671         791.428  
 112125304.064    87370369.0794   21336732.541 7  21336732.52345  21336736.49945
      1386.589        1080.455  
 123932227.779    96570563.1224   23583513.991 6  23583513.73143  23583518.29343
      2902.740        2261.885  
 116302191.844    90625092.1374   22131567.176 6  22131567.19244  22131571.43644
      2656.052        2069.643  
 08 11 15  1 52  0.0000000  0  9G 6G16G 3G23G13G19G25G27G 7         
 110861580.442    86385646.4504   21096254.334 8  21096254.23845  21096258.64445
     -1725.591       -1344.614  
 118569333.348    92391685.6954   22562994.402 7  22562993.58944  22562996.89044
     -1982.901       -1545.115  
 105785227.300    82430056.1024   20130259.106 8  20130258.72546  20130262.94346
     -1058.293        -824.643  
 123626832.494    96332607.7734   23525408.151 7  23525407.97342  23525410.44443
     -2916.992       -2272.991  
 120388441.904    93809179.7014   22909157.912 5  22909158.57141  22909165.43041
     -1998.661       -1557.417  
 107758854.264    83967943.4494   20505822.763 8  20505821.74046  20505823.99146
      1000.685         779.756  
 112083911.425    87338115.0734   21328855.432 7  21328854.77145  21328859.82645
      1371.491        1068.698  
 123845219.590    96502764.5454   23566956.828 6  23566956.58643  23566962.02743
      2896.357        2256.892  
 116222659.034    90563118.5324   22116432.573 6  22116432.57644  22116437.00244
      2644.702        2060.811  
 08 11 15  1 52 30.0000000  0  9G 6G16G 3G23G13G19G25G27G 7         
 110913503.613    86426106.0544   21106135.138 8  21106135.05645  21106138.79745
     -1735.738       -1352.525  
 118628909.439    92438108.6024   22574330.874 7  22574330.39444  22574334.48744
     -1988.667       -1549.619  
 105817192.224    82454963.8274   20136341.921 8  20136341.45746  20136345.89546
     -1072.550        -835.756  
 123714439.289    96400872.7884   23542079.759 7  23542079.18743  23542083.07143
     -2923.272       -2277.875  
 120448624.397    93856075.1054   22920611.729 5  22920611.18941  22920615.90041
     -2013.341       -1568.847  
 107729079.467    83944742.3174   20500156.621 7  20500155.53845  20500157.75745
       984.464         767.113  
 112043015.007    87306247.7464   21321072.391 7  21321071.77445  21321077.20745
      1355.082        1055.906  
 123758447.586    96435150.0024   23550444.353 6  23550443.59743  23550449.10743
      2888.618        2250.869  
 116143511.106    90501444.8404   22101371.478 7  22101372.07545  22101375.13145
      2631.984        2050.894  
 08 11 15  1 53  0.0000000  0  9G 6G16G 3G23G13G19G25G27G 7         
 110965698.167    86466777.1284   21116067.296 8  21116067.07845  21116071.15545
     -1744.272       -1359.179  
 118688626.423    92484641.2854   22585694.903 7  22585694.76144  22585697.82344
     -1992.880       -1552.896  
 105849552.327    82480179.4854   20142499.724 8  20142499.51446  20142503.84246
     -1085.190        -845.608  
 123802201.053    96469258.5394   23558780.120 6  23558779.84643  23558783.75043
     -2927.879       -2281.466  
 120509215.053    93903288.5854   22932142.972 5  22932142.53042  22932146.37342
     -2026.397       -1579.016  
 107699759.952    83921895.9514   20494577.027 7  20494576.17546  20494578.60046
       969.776         755.667  
 112002580.113    87274740.0504   21313378.462 7  21313378.17045  21313382.50945
      1340.178        1044.294  
 123671877.415    96367692.7344   23533971.061 6  23533970.20443  23533975.61143
      2882.353        2245.988  
 116064714.198    90440044.6534   22086377.691 7  22086378.22845  22086380.35745
      2620.741        2042.127  
 08 11 15  1 53 30.0000000  0  9G 6G16G 3G23G13G19G25G27G 7         
 111018159.424    86507656.0164   21126050.570 8  21126050.16845  21126054.63945
     -1752.618       -1365.672  
 118748481.573    92531281.6534   22597084.706 7  22597084.05544  22597087.85644
     -1996.944       -1556.066  
 105882303.629    82505699.9694   20148732.387 8  20148731.75146  20148736.10846
     -1097.685        -855.340  
 123890111.383    96537760.0624   23575508.927 6  23575508.52943  23575513.06143
     -2932.233       -2284.871  
 120570208.261    93950815.6994   22943748.857 6  22943748.66042  22943753.55342
     -2039.253       -1589.027  
 107670892.783    83899402.0614   20489084.111 7  20489083.01646  20489085.44746
       955.241         744.336  
 111962605.456    87243590.9754   21305771.513 7  21305771.60445  21305775.63045
      1325.330        1032.717  
 123585508.581    96300392.3634   23517535.547 6  23517535.21243  23517539.63643
      2876.103        2241.120  
 115986267.696    90378917.5094   22071450.275 7  22071450.61845  22071452.63545
      2609.545        2033.413  
 08 11 15  1 54  0.0000000  0  9G 6G16G 3G23G13G19G25G27G 7         
 111070882.735    86548739.1004   21136083.284 8  21136083.15345  21136087.37445
     -1761.772       -1372.807  
 118808471.720    92578027.1924   22608499.751 7  22608499.21144  22608504.86044
     -2001.873       -1559.896  
 105915441.344    82531521.5494   20155038.260 8  20155037.69045  20155041.88745
     -1110.965        -865.685  
 123978164.245    96606372.6364   23592264.834 6  23592264.18843  23592268.07643
     -2937.395       -2288.885  
 120631598.324    93998652.0964   22955431.238 6  22955430.21242  22955435.57642
     -2052.877       -1599.631  
 107642474.324    83877257.8174   20483676.387 7  20483675.31646  20483677.59546
       939.843         732.343  
 111923089.986    87212799.6954   21298252.710 7  21298252.63045  21298256.16045
      1309.540        1020.425  
 123499340.649    96233248.5324   23501138.756 6  23501137.92843  23501142.27943
      2868.936        2235.538  
 115908171.645    90318063.4364   22056589.274 7  22056589.07845  22056591.86645
      2597.366        2023.918  
 08 11 15  1 54 30.0000000  0  9G 6G16G 3G23G13G19G25G27G 7         
 111123898.479    86590050.0554   21146172.024 8  21146171.79745  21146175.76945
     -1772.050       -1380.819  
 118868629.268    92624903.1964   22619948.029 7  22619947.36844  22619952.40044
     -2008.041       -1564.702  
 105948995.810    82557667.8754   20161423.338 8  20161422.71846  20161426.92746
     -1125.405        -876.936  
 124066388.471    96675118.7444   23609052.670 6  23609052.52643  23609056.75043
     -2943.630       -2293.741  
 120693414.179    94046820.2444   22967194.667 6  22967194.21342  22967199.13042
     -2067.599       -1611.096  
 107614536.651    83855488.2124   20478359.957 8  20478358.91046  20478361.31546
       923.249         719.414  
 111884067.702    87182392.7224   21290827.080 7  21290826.52345  21290830.72845
      1292.531        1007.164  
 123413407.951    96166287.9974   23484785.681 6  23484785.63043  23484789.74743
      2860.476        2228.951  
 115830461.153    90257509.8144   22041800.801 7  22041800.59645  22041804.14645
      2583.905        2013.433  
 08 11 15  1 55  0.0000000  0  9G 6G16G 3G23G13G19G25G27G 7         
 111177194.043    86631579.0604   21156313.734 8  21156313.58545  21156317.49245
     -1781.008       -1387.801  
 118928943.510    92671901.2834   22631425.291 7  22631424.28544  22631429.43944
     -2012.962       -1568.541  
 105982954.040    82584128.8144   20167885.504 8  20167885.12645  20167888.87346
     -1138.530        -887.165  
 124154770.089    96743987.4774   23625871.174 6  23625870.70243  23625875.16243
     -2948.513       -2297.546  
 120755642.068    94095309.5104   22979035.540 6  22979035.99542  22979041.84242
     -2080.982       -1621.517  
 107587068.577    83834084.5194   20473132.799 8  20473131.90746  20473134.41146
       907.906         707.456  
 111845529.276    87152362.7774   21283492.829 7  21283492.25845  21283497.31845
      1276.654         994.791  
 123327702.012    96099504.1494   23468476.993 7  23468476.90743  23468480.24043
      2853.202        2223.266  
 115753127.437    90197249.7604   22027084.580 7  22027084.20245  22027088.37445
      2571.614        2003.860  
 08 11 15  1 55 30.0000000  0  9G 6G16G 3G23G13G19G25G27G 7         
 111230765.840    86673323.3044   21166508.121 8  21166507.89545  21166511.99745
     -1790.693       -1395.337  
 118989412.808    92719020.1854   22642932.357 7  22642931.85744  22642935.72744
     -2018.592       -1572.920  
 106017313.315    82610902.2654   20174423.772 8  20174423.39945  20174427.40745
     -1152.355        -897.940  
 124243303.915    96812974.8094   23642719.449 6  23642718.89443  23642723.39643
     -2954.007       -2301.821  
 120818277.486    94144116.3064   22990953.981 5  22990953.62942  22990959.72542
     -2095.008       -1632.450  
 107560068.104    83813045.1924   20467995.014 8  20467993.93446  20467996.07846
       891.851         694.946  
 111807474.647    87122709.8184   21276251.890 7  21276251.79945  21276255.50045
      1260.032         981.848  
 123242223.701    96032897.6904   23452210.930 6  23452211.19943  23452214.30843
      2845.087        2216.956  
 115676171.705    90137284.2564   22012439.943 7  22012439.78445  22012444.47545
      2558.473        1993.624  
 08 11 15  1 56  0.0000000  0  9G 6G16G 3G23G13G19G25G27G 7         
 111284627.465    86715293.3844   21176757.539 8  21176757.16545  21176761.32645
     -1799.319       -1402.068  
 119050052.417    92766271.7904   22654472.103 7  22654471.66444  22654474.59544
     -2023.308       -1576.613  
 106052086.817    82637998.4784   20181040.775 8  20181040.37745  20181044.61745
     -1165.164        -907.923  
 124332001.939    96882090.0914   23659598.775 6  23659598.65643  23659601.76843
     -2958.461       -2305.288  
 120881332.828    94193250.3364   23002952.558 5  23002952.07341  23002960.44141
     -2107.948       -1642.574  
 107533550.259    83792381.9384   20462948.757 8  20462947.45646  20462949.87546
       876.740         683.172  
 111769920.816    87093447.0994   21269105.541 7  21269105.78645  21269109.26245
      1244.279         969.564  
 123156990.514    95966482.2374   23435991.533 6  23435991.06443  23435994.86643
      2837.871        2211.323  
 115599611.663    90077627.0774   21997870.651 6  21997870.77545  21997875.77045
      2546.222        1984.070  
 08 11 15  1 56 30.0000000  0  9G 6G16G 3G23G13G19G25G27G 7         
 111338725.981    86757448.0574   21187052.215 8  21187051.96745  21187056.07745
     -1808.618       -1409.305  
 119110811.636    92813616.5934   22666034.107 7  22666033.85044  22666037.05344
     -2028.705       -1580.802  
 106087221.879    82665376.4364   20187726.850 8  20187726.10145  20187730.38345
     -1178.586        -918.377  
 124420809.900    96951291.0554   23676498.625 6  23676498.44943  23676500.53543
     -2963.487       -2309.192  
 120944754.165    94242669.5254   23015020.911 5  23015020.09641  23015027.79941
     -2121.512       -1653.117  
 107507463.539    83772054.6274   20457984.280 8  20457983.22546  20457985.78346
       860.961         670.879  
 111732818.379    87064536.1164   21262044.638 7  21262044.17545  21262048.48545
      1227.796         956.719  
 123071953.639    95900219.7464   23419809.347 6  23419809.24643  23419813.04643
      2829.844        2205.088  
 115523398.998    90018240.5814   21983367.682 7  21983367.88645  21983372.37245
      2533.201        1973.922  
 08 11 15  1 57  0.0000000  0  9G 6G16G 3G23G13G19G25G27G 7         
 111393107.688    86799823.3894   21197400.618 8  21197400.24345  21197404.48445
     -1816.775       -1415.664  
 119171738.124    92861091.7504   22677627.992 7  22677627.60644  22677631.69544
     -2033.016       -1584.166  
 106122764.681    82693072.1074   20194490.641 8  20194490.03945  20194493.93845
     -1190.885        -927.959  
 124509772.388    97020612.4424   23693427.634 6  23693427.49543  23693430.18243
     -2967.293       -2312.170  
 121008586.371    94292408.8724   23027169.353 5  23027169.44941  23027175.04042
     -2133.914       -1662.777  
 107481855.790    83752100.5284   20453111.442 8  20453110.50746  20453112.52246
       846.257         659.422  
 111696217.083    87036015.6324   21255079.989 7  21255079.76445  21255083.15645
      1212.329         944.672  
 122987163.689    95834149.6724   23403673.850 6  23403673.64643  23403678.64443
      2822.838        2199.625  
 115447584.440    89959164.3014   21968940.774 7  21968940.98745  21968945.03145
      2521.125        1964.516  
 08 11 15  1 57 30.0000000  0  9G 6G16G 3G23G13G19G25G27G 7         
 111447753.853    86842404.8044   21207799.445 7  21207798.90645  21207803.44545
     -1825.797       -1422.695  
 119232814.917    92908684.0264   22689250.569 7  22689249.94644  22689253.52144
     -2038.272       -1588.260  
 106158696.493    82721070.9024   20201328.442 8  20201327.91045  20201331.19445
     -1204.068        -938.232  
 124598869.391    97090038.6594   23710381.531 6  23710381.42143  23710384.01443
     -2971.976       -2315.829  
 121072809.515    94342452.8614   23039391.613 6  23039391.85442  23039394.95042
     -2147.149       -1673.085  
 107456709.409    83732505.9434   20448326.242 7  20448325.03846  20448327.26746
       830.659         647.267  
 111660101.488    87007873.6044   21248207.303 7  21248207.21245  21248210.88545
      1195.875         931.847  
 122902605.814    95768260.4294   23387582.502 6  23387582.57343  23387588.47643
      2814.843        2193.383  
 115372153.748    89900387.1304   21954586.492 7  21954586.34545  21954590.82845
      2508.062        1954.335  
 08 11 15  1 58  0.0000000  0  9G 6G16G 3G23G13G19G25G27G 7         
 111502660.818    86885189.4334   21218248.203 8  21218248.19945  21218251.97145
     -1835.147       -1429.984  
 119294040.723    92956392.4184   22700901.164 7  22700900.69244  22700904.79044
     -2043.922       -1592.659  
 106195013.928    82749370.1894   20208239.515 8  20208239.17045  20208242.42445
     -1217.575        -948.758  
 124688095.889    97159565.7594   23727360.645 6  23727359.95742  23727363.17742
     -2976.905       -2319.682  
 121137418.583    94392797.5614   23051686.922 6  23051686.71742  23051689.90242
     -2160.603       -1683.598  
 107432022.227    83713269.1744   20443628.222 7  20443626.99846  20443629.77146
       814.677         634.812  
 111624471.487    86980109.9624   21241426.992 6  21241426.74845  21241430.66545
      1178.966         918.677  
 122818280.666    95702552.5334   23371536.575 6  23371535.55343  23371541.60543
      2806.329        2186.746  
 115297107.351    89841909.4204   21940306.258 7  21940306.09545  21940309.94745
      2494.513        1943.778  
 08 11 15  1 58 30.0000000  0  9G 6G16G 3G23G13G19G25G27G 7         
 111557828.583    86928177.2904   21228746.123 8  21228745.71245  21228750.11845
     -1842.567       -1435.768  
 119355417.145    93004218.1834   22712580.799 7  22712579.73044  22712583.89544
     -2047.699       -1595.603  
 106231716.881    82777969.8784   20215223.709 8  20215223.41945  20215227.16345
     -1229.145        -957.771  
 124777450.235    97229192.4964   23744364.662 6  23744364.35642  23744366.37342
     -2979.919       -2322.020  
 121202412.661    94443442.2584   23064055.182 6  23064054.80142  23064057.93042
     -2172.156       -1692.571  
 107407795.408    83694391.1334   20439018.376 8  20439017.18446  20439019.68946
       800.579         623.832  
 111589330.332    86952727.2384   21234739.946 7  21234739.60945  21234742.77944
      1163.900         906.931  
 122734192.292    95637029.1284   23355534.572 6  23355533.86543  23355540.18743
      2799.648        2181.542  
 115222449.837    89783734.7194   21926099.661 7  21926098.83145  21926103.20145
      2482.772        1934.635  
 08 11 15  1 59  0.0000000  0  9G 6G16G 3G23G13G19G25G27G 7         
 111613262.441    86971372.4764   21239294.967 8  21239294.55146  21239299.07346
     -1851.676       -1442.865  
 119416951.440    93052166.9564   22724290.027 7  22724289.60743  22724293.00744
     -2053.224       -1599.915  
 106268810.582    82806874.0484   20222282.480 8  20222281.89246  20222285.89246
     -1242.380        -968.088  
 124866936.360    97298921.9034   23761393.481 6  23761392.98542  23761396.42742
     -2984.462       -2325.551  
 121267795.654    94494390.0404   23076497.119 6  23076497.42742  23076499.02942
     -2185.332       -1702.870  
 107384035.842    83675877.1774   20434497.069 8  20434495.92446  20434498.17246
       784.759         611.500  
 111554686.669    86925732.1604   21228146.578 6  21228145.96944  21228150.57844
      1147.048         893.805  
 122650350.280    95571697.6854   23339579.861 6  23339579.33643  23339585.64843
      2791.145        2174.920  
 115148190.659    89725870.4314   21911968.624 7  21911967.84345  21911972.25945
      2469.191        1924.039  
 08 11 15  1 59 30.0000000  0  9G 6G16G 3G23G13G19G25G27G 7         
 111668947.680    87014763.5524   21249891.458 7  21249891.16245  21249895.66745
     -1860.492       -1449.732  
 119478630.491    93100228.5384   22736027.784 7  22736027.63744  22736030.68144
     -2058.544       -1604.058  
 106306280.423    82836071.3214   20229412.655 8  20229412.12345  20229416.03745
     -1255.406        -978.240  
 124956537.931    97368741.3184   23778443.074 6  23778441.74142  23778446.51442
     -2988.767       -2328.923  
 121333551.474    94545628.2994   23089009.857 6  23089008.90742  23089012.06042
     -2198.210       -1712.914  
 107360729.809    83657716.6344   20430062.152 8  20430061.26946  20430063.11246
       769.139         599.332  
 111520529.142    86899115.8984   21221646.648 6  21221646.43944  21221650.84444
      1130.306         880.762  
 122566743.795    95506549.7924   23323670.111 6  23323670.04343  23323675.90843
      2782.768        2168.388  
 115074319.543    89668308.5224   21897911.334 7  21897911.43945  21897914.87545
      2455.703        1913.537  
 08 11 15  2  0  0.0000000  0  9G 6G16G 3G23G13G19G25G27G 7         
 111724891.706    87058356.2844   21260537.098 8  21260536.78246  21260541.72645
     -1869.200       -1456.520  
 119540463.563    93148410.1344   22747794.189 6  22747793.44944  22747798.17344
     -2063.769       -1608.133  
 106344134.237    82865567.7894   20236615.876 8  20236615.13646  20236620.13746
     -1268.259        -988.256  
 125046261.084    97438655.4504   23795516.925 6  23795516.81341  23795520.43441
     -2992.875       -2332.124  
 121399686.526    94597162.0764   23101595.181 5  23101594.14042  23101598.50342
     -2210.868       -1722.747  
 107337886.727    83639916.8334   20425715.174 8  20425713.85746  20425715.84946
       753.628         587.240  
 111486868.460    86872886.7874   21215241.617 6  21215241.37644  21215244.93244
      1113.621         867.752  
 122483384.493    95441594.4894   23307807.553 6  23307807.35543  23307812.97443
      2774.382        2161.853  
 115000848.318    89611058.2134   21883930.282 7  21883929.99645  21883933.61245
      2442.236        1903.042  
 08 11 15  2  0 30.0000000  0  9G 6G16G 3G23G13G19G25G27G 7         
 111781091.063    87102147.9754   21271231.875 8  21271231.09445  21271236.16645
     -1877.928       -1463.325  
 119602449.114    93196710.5254   22759588.714 7  22759588.35843  22759593.88443
     -2069.126       -1612.314  
 106382367.956    82895360.2964   20243891.355 8  20243891.03045  20243895.64945
     -1281.180        -998.323  
 125136100.586    97508660.2354   23812612.706 5  23812612.61342  23812615.74542
     -2996.923       -2335.273  
 121466195.679    94648987.3684   23114250.462 5  23114250.21942  23114253.92742
     -2223.612       -1732.720  
 107315504.039    83622475.7734   20421455.683 8  20421454.48745  20421456.38845
       738.026         575.085  
 111453704.503    86847044.7254   21208930.974 7  21208930.99944  21208933.72644
      1096.772         854.628  
 122400273.200    95376832.4334   23291992.013 6  23291991.80043  23291996.76643
      2765.822        2155.178  
 114927777.886    89554120.2194   21870025.572 7  21870025.16445  21870028.90345
      2428.570        1892.390  
 08 11 15  2  1  0.0000000  0  9G 6G16G 3G23G13G19G25G27G 7         
 111837555.061    87146145.8724   21281976.271 8  21281975.96045  21281981.19645
     -1886.872       -1470.292  
 119664598.234    93245138.3614   22771414.966 6  22771414.17943  22771420.36443
     -2074.712       -1616.656  
 106420991.103    82925456.2454   20251241.020 8  20251240.35746  20251245.53746
     -1294.240       -1008.496  
 125226064.611    97578762.0474   23829733.058 6  23829732.74642  23829735.76842
     -3001.169       -2338.572  
 121533087.378    94701110.7144   23126978.667 5  23126977.11741  23126983.13341
     -2236.422       -1742.658  
 107293592.222    83605401.6254   20417286.305 8  20417285.23646  20417286.97446
       722.212         562.764  
 111421049.835    86821599.5234   21202716.204 6  21202715.86144  21202720.35144
      1079.648         841.284  
 122317423.353    95312274.1184   23276226.007 6  23276225.89643  23276230.80243
      2756.935        2148.257  
 114855121.931    89497505.1994   21856199.749 7  21856199.41645  21856202.98045
      2414.598        1881.503  
 08 11 15  2  1 30.0000000  0  9G 6G16G 3G23G13G19G25G27G 7         
 111894268.142    87190337.8684   21292768.424 8  21292768.46045  21292772.85645
     -1895.245       -1476.816  
 119726897.184    93293682.9754   22783270.693 6  22783269.76843  22783276.07143
     -2079.821       -1620.633  
 106459987.866    82955843.3284   20258661.927 8  20258661.19146  20258666.13346
     -1306.791       -1018.276  
 125316135.848    97648947.3874   23846873.070 5  23846872.93142  23846875.38142
     -3004.827       -2341.420  
 121600344.661    94753518.9634   23139777.090 5  23139777.08941  23139780.88641
     -2248.686       -1752.208  
 107272136.786    83588683.1024   20413203.394 7  20413202.18946  20413204.30546
       706.892         550.827  
 111388892.133    86796541.5594   21196596.855 6  21196596.16344  21196601.26444
      1062.948         828.265  
 122234823.393    95247910.5084   23260508.258 6  23260508.11344  23260512.56744
      2748.463        2141.663  
 114782869.046    89441204.2714   21842450.044 7  21842450.38845  21842453.85645
      2400.990        1870.902  
 08 11 15  2  2  0.0000000  0  9G 6G16G 3G23G13G19G25G27G 7         
 111951229.146    87234723.0484   21303607.833 8  21303607.41845  21303612.26145
     -1901.557       -1481.732  
 119789346.560    93342344.7814   22795154.691 6  22795153.63143  22795159.31743
     -2082.917       -1623.037  
 106499357.489    82986520.9554   20266153.639 8  20266153.14646  20266158.02046
     -1317.263       -1026.439  
 125406311.722    97719214.2284   23864032.669 5  23864031.26941  23864035.21341
     -3006.345       -2342.593  
 121667964.745    94806209.9304   23152645.036 5  23152645.31441  23152649.10341
     -2258.840       -1760.128  
 107251138.403    83572320.7254   20409207.300 8  20409206.24646  20409208.33246
       693.573         540.452  
 111357233.549    86771872.5254   21190572.758 6  21190571.72744  21190576.51244
      1048.199         816.776  
 122152476.182    95183743.8564   23244838.451 6  23244837.99344  23244842.10643
      2741.896        2136.540  
 114711022.481    89385219.9514   21828778.266 7  21828778.42245  21828781.60845
      2389.331        1861.807  
 08 11 15  2  2 30.0000000  0  9G 6G16G 3G23G13G19G25G27G 7         
 112008451.872    87279312.1834   21314496.837 8  21314496.58545  21314501.35745
     -1912.213       -1490.042  
 119851962.615    93391136.4864   22807070.501 7  22807070.07243  22807074.31843
     -2090.408       -1628.883  
 106539113.769    83017499.8764   20273718.873 8  20273718.35646  20273723.41446
     -1332.055       -1037.966  
 125496604.894    97789572.4714   23881215.305 6  23881215.59542  23881217.81942
     -3012.119       -2347.097  
 121735960.651    94859193.7214   23165585.855 6  23165586.03041  23165588.59141
     -2273.207       -1771.322  
 107230612.040    83556326.1484   20405301.556 8  20405300.55446  20405302.43846
       675.909         526.695  
 111326091.321    86747605.8484   21184646.973 7  21184646.81644  21184650.70344
      1029.018         801.837  
 122070400.159    95119788.5304   23229219.979 6  23229219.27143  23229223.50444
      2730.901        2127.985  
 114639600.645    89329566.5914   21815187.433 7  21815187.25745  21815190.19945
      2373.198        1849.242  
 08 11 15  2  3  0.0000000  0  9G 6G16G 3G23G13G19G25G27G 7         
 112065938.832    87324107.2094   21325436.124 8  21325436.14445  21325440.40945
     -1919.657       -1495.839  
 119914748.849    93440060.7914   22819018.847 7  22819018.58543  22819021.86143
     -2094.760       -1632.280  
 106579259.076    83048781.9334   20281358.176 8  20281357.43246  20281362.85346
     -1343.688       -1047.030  
 125587015.772    97860022.4494   23898420.428 6  23898419.22142  23898423.19142
     -3014.671       -2349.084  
 121804332.966    94912470.8644   23178597.971 6  23178596.30441  23178599.61541
     -2284.352       -1780.021  
 107210561.006    83540701.9594   20401485.675 8  20401484.81546  20401487.01646
       661.406         515.383  
 111295470.745    86723745.6554   21178820.349 7  21178819.43844  21178823.73644
      1012.927         789.289  
 121988601.414    95056049.2624   23213653.589 6  23213653.12943  23213657.34143
      2722.922        2121.753  
 114568609.860    89274249.1104   21801678.627 8  21801678.90445  21801680.85145
      2360.103        1839.042  
 08 11 15  2  3 30.0000000  0  9G 6G16G 3G23G13G19G25G27G 7         
 112123665.159    87369088.7484   21336420.932 7  21336420.58845  21336425.56245
     -1927.777       -1502.164  
 119977682.410    93489099.8804   22830994.687 7  22830994.27143  22830997.45643
     -2099.853       -1636.240  
 106619768.471    83080347.6944   20289066.681 8  20289066.23345  20289071.22445
     -1355.954       -1056.585  
 125677518.300    97930543.8184   23915642.387 6  23915642.00943  23915645.20743
     -3017.857       -2351.564  
 121873055.652    94966020.9534   23191675.507 6  23191675.84741  23191678.54442
     -2296.176       -1789.189  
 107190961.385    83525429.5214   20397755.630 7  20397754.33645  20397757.69745
       646.181         503.523  
 111265350.181    86700275.0794   21173088.578 7  21173088.11944  21173092.19744
       996.072         776.155  
 121907059.148    94992509.8334   23198136.776 6  23198136.02543  23198140.72543
      2714.176        2114.936  
 114498029.641    89219251.5444   21788248.157 8  21788248.22945  21788249.95945
      2346.195        1828.205  
 08 11 15  2  4  0.0000000  0  9G 6G16G 3G23G13G19G25G27G 7         
 112181634.146    87414259.3764   21347452.535 8  21347452.34945  21347456.64345
     -1936.684       -1509.100  
 120040768.639    93538257.9424   22842999.675 7  22842999.61744  22843003.01044
     -2105.769       -1640.863  
 106660644.933    83112199.4774   20296845.603 8  20296844.69146  20296849.96546
     -1369.007       -1066.757  
 125768114.420    98001138.1304   23932882.999 7  23932882.22743  23932885.30643
     -3021.754       -2354.609  
 121942130.764    95019845.7414   23204819.002 5  23204818.54641  23204823.40041
     -2308.713       -1799.012  
 107171818.354    83510512.8614   20394112.924 7  20394111.74146  20394115.00046
       630.137         491.016  
 111235736.436    86677199.4184   21167453.691 7  21167453.22845  21167456.55844
       978.300         762.312  
 121825781.035    94929176.2404   23182669.970 6  23182668.73643  23182674.41643
      2704.478        2107.375  
 114427868.053    89164580.1764   21774896.968 8  21774897.58945  21774898.82545
      2331.360        1816.641  
 08 11 15  2  4 30.0000000  0  9G 6G16G 3G23G13G19G25G27G 7         
 112239856.864    87459627.7154   21358532.297 8  21358531.90745  21358536.05445
     -1944.226       -1514.982  
 120104020.164    93587544.7934   22855036.067 7  22855036.24544  22855039.40244
     -2110.392       -1644.457  
 106701899.769    83144346.0994   20304696.342 8  20304695.91345  20304700.55345
     -1380.720       -1075.890  
 125858813.683    98071812.8464   23950142.915 7  23950142.61243  23950144.84343
     -3024.268       -2356.569  
 122011567.926    95073952.6054   23218030.362 5  23218031.53941  23218036.29041
     -2319.849       -1807.678  
 107153143.775    83495961.2444   20390559.421 7  20390558.42645  20390561.09845
       615.421         479.551  
 111206643.532    86654529.6084   21161917.458 7  21161917.29944  21161920.17144
       961.802         749.459  
 121744782.200    94866060.2814   23167256.450 6  23167255.64443  23167260.93743
      2696.010        2100.788  
 114358139.652    89110246.3604   21761627.770 8  21761628.10745  21761630.85845
      2317.758        1806.043  
 08 11 15  2  5  0.0000000  0  9G 6G16G 3G23G13G19G25G27G 7         
 112298309.175    87505174.9544   21369655.344 7  21369654.92745  21369659.00745
     -1952.354       -1521.319  
 120167414.963    93636943.3004   22867099.798 7  22867099.03844  22867103.07744
     -2115.688       -1648.584  
 106743508.865    83176768.7674   20312614.526 8  20312614.03946  20312618.51946
     -1392.993       -1085.450  
 125949590.511    98142547.9794   23967417.146 7  23967416.96643  23967418.62543
     -3027.290       -2358.917  
 122081341.651    95128321.7504   23231309.133 5  23231309.85441  23231313.25441
     -2331.517       -1816.735  
 107134914.524    83481756.6274   20387090.442 7  20387089.44446  20387092.17346
       600.065         467.581  
 111178050.470    86632249.2924   21156476.555 7  21156476.21144  21156479.17244
       944.614         736.069  
 121664042.708    94803146.4054   23151891.986 6  23151891.89044  23151896.32244
      2686.812        2093.622  
 114288825.290    89056235.1744   21748437.462 7  21748437.77645  21748440.55145
      2303.412        1794.863  
 08 11 15  2  5 30.0000000  0  9G 6G16G 3G23G13G19G25G27G 7         
 112357014.566    87550919.3854   21380826.567 8  21380826.23345  21380830.41245
     -1961.956       -1528.796  
 120230977.990    93686472.8934   22879195.039 6  22879194.18343  22879197.50843
     -2122.525       -1653.906  
 106785495.299    83209485.4644   20320604.535 8  20320604.15446  20320608.29846
     -1406.750       -1096.171  
 126040466.636    98213360.4784   23984709.888 7  23984709.96443  23984711.59943
     -3031.765       -2362.415  
 122151473.874    95182970.2054   23244655.960 5  23244656.47441  23244660.14741
     -2344.621       -1826.971  
 107117155.739    83467918.6124   20383711.489 7  20383710.39746  20383712.52246
       583.177         454.425  
 111149983.798    86610379.1574   21151135.300 7  21151134.93744  21151137.75144
       925.839         721.429  
 121583589.895    94740455.9234   23136582.847 6  23136582.61944  23136586.33944
      2676.009        2085.205  
 114219952.571    89002568.1234   21735331.522 7  21735331.57645  21735334.38045
      2287.444        1782.427  
 08 11 15  2  6  0.0000000  0  9G 6G16G 3G23G13G19G25G27G 7         
 112415974.904    87596862.4844   21392046.602 8  21392046.25145  21392049.97045
     -1968.991       -1534.279  
 120294713.033    93736136.5424   22891323.812 6  22891323.08244  22891327.38244
     -2126.798       -1657.250  
 106827861.179    83242497.8174   20328666.258 8  20328665.90146  20328669.90646
     -1417.942       -1104.889  
 126131442.770    98284250.8784   24002021.817 6  24002022.01442  24002023.52143
     -3033.606       -2363.855  
 122221965.445    95237898.6414   23258070.260 5  23258072.02041  23258075.32441
     -2355.135       -1835.161  
 107099870.075    83454449.2654   20380422.023 7  20380421.14346  20380423.47046
       568.884         443.284  
 111122448.541    86588923.1064   21145895.724 7  21145895.00644  21145898.11544
       909.543         708.733  
 121503429.949    94677993.6504   23121328.801 7  23121328.18744  23121333.12144
      2667.646        2078.676  
 114151527.381    88949249.7864   21722310.547 7  21722310.52445  21722312.79145
      2273.924        1771.889  
 08 11 15  2  6 30.0000000  0  8G 6G16G 3G13G19G25G27G 7            
 112475158.810    87642979.7964   21403308.930 8  21403308.97045  21403312.21345
     -1976.322       -1539.994  
 120358590.510    93785911.1854   22903479.802 7  22903479.05644  22903483.92044
     -2131.422       -1660.860  
 106870575.037    83275781.3364   20336794.530 8  20336794.11145  20336798.38945
     -1429.381       -1113.804  
 122292783.139    95293081.1874   23271547.616 5  23271547.88141  23271549.83841
     -2365.822       -1843.484  
 107083027.153    83441324.9124   20377217.557 8  20377216.47446  20377218.08046
       554.251         431.889  
 111095416.303    86567859.0164   21140751.314 7  21140751.20244  21140754.71644
       892.877         695.753  
 121423535.497    94615738.2454   23106125.393 6  23106124.28044  23106129.09244
      2658.890        2071.867  
 114083522.754    88896259.1634   21709369.692 7  21709369.65145  21709372.11945
      2259.974        1761.015  
 08 11 15  2  7  0.0000000  0  8G 6G16G 3G13G19G25G27G 7            
 112534585.506    87689286.2904   21414617.107 8  21414616.78645  21414620.77045
     -1985.009       -1546.761  
 120422631.395    93835813.1344   22915665.091 7  22915664.96544  22915669.61944
     -2137.515       -1665.599  
 106913655.949    83309350.8704   20344992.644 8  20344992.09545  20344996.64946
     -1442.228       -1123.818  
 122363944.897    95348531.8794   23285086.596 4  23285086.99641  23285090.82741
     -2377.864       -1852.881  
 107066647.319    83428561.4044   20374100.337 8  20374099.16246  20374101.16346
       538.179         419.358  
 111068909.480    86547204.3534   21135707.116 7  21135706.80045  21135711.16945
       874.699         681.577  
 121343929.789    94553707.8464   23090976.209 6  23090975.78544  23090981.08044
      2648.585        2063.820  
 114015962.023    88843614.4334   21696513.262 7  21696513.47745  21696515.83245
      2244.498        1748.965  
 08 11 15  2  7 30.0000000  0  8G 6G16G 3G13G19G25G27G 7            
 112594240.177    87735770.4284   21425969.051 7  21425968.78445  21425972.52145
     -1992.626       -1552.698  
 120486822.556    93885832.2014   22927881.096 6  22927880.55044  22927884.37744
     -2142.575       -1669.544  
 106957089.070    83343194.8574   20353257.584 8  20353257.17145  20353261.56045
     -1453.967       -1132.965  
 122435434.410    95404237.9894   23298690.836 5  23298690.78441  23298692.93741
     -2388.748       -1861.369  
 107050716.889    83416148.0854   20371068.677 7  20371067.64146  20371069.61646
       523.177         407.673  
 111042916.014    86526949.7034   21130760.783 7  21130760.28144  21130764.57345
       857.521         668.205  
 121264602.060    94491894.0424   23075880.843 7  23075880.70144  23075886.40644
      2639.237        2056.551  
 113948834.462    88791307.2474   21683739.060 7  21683739.51145  21683742.38245
      2229.992        1737.657  
 08 11 15  2  8  0.0000000  0  8G 6G16G 3G13G19G25G27G 7            
 112654109.314    87782421.6864   21437361.757 8  21437361.47745  21437365.68345
     -1999.500       -1558.046  
 120551152.691    93935959.5394   22940122.430 7  22940121.54244  22940126.22344
     -2146.967       -1672.953  
 107000860.835    83377302.7204   20361587.177 8  20361586.55945  20361591.15845
     -1465.004       -1141.562  
 122507236.692    95460187.7784   23312354.165 5  23312356.02641  23312356.90641
     -2398.924       -1869.300  
 107035223.382    83404075.2244   20368120.543 8  20368119.74246  20368121.26846
       508.849         396.508  
 111017425.678    86507087.1064   21125909.904 7  21125909.68245  21125913.67145
       840.958         655.289  
 121185543.042    94430289.6314   23060836.977 7  23060836.49144  23060841.58644
      2630.466        2049.717  
 113882130.982    88739330.5254   21671045.891 7  21671045.91045  21671048.96745
      2216.017        1726.769  
 08 11 15  2  8 30.0000000  0  8G 6G16G 3G13G19G25G27G 7            
 112714213.582    87829256.1634   21448798.788 7  21448798.46145  21448803.24445
     -2007.248       -1564.089  
 120615643.678    93986212.2054   22952394.431 7  22952394.64444  22952398.77944
     -2152.250       -1677.077  
 107044991.997    83411690.6314   20369984.792 8  20369984.61345  20369988.79345
     -1476.861       -1150.797  
 122579371.255    95516396.4994   23326081.124 5  23326080.37541  23326083.84741
     -2409.845       -1877.771  
 107020188.404    83392359.6584   20365259.217 8  20365258.35446  20365260.27146
       493.672         384.676  
 110992462.143    86487634.9874   21121159.924 7  21121159.94644  21121162.90644
       823.465         641.670  
 121106777.709    94368914.0514   23045848.284 7  23045847.75844  23045853.01744
      2620.719        2042.112  
 113815876.456    88687703.6264   21658437.737 7  21658437.72245  21658441.21345
      2201.120        1715.154  
 08 11 15  2  9  0.0000000  0  8G 6G16G 3G13G19G25G27G 7            
 112774528.133    87876254.4924   21460276.726 7  21460276.00245  21460280.67845
     -2015.158       -1570.255  
 120680272.584    94036572.3694   22964693.464 7  22964693.29844  22964697.72244
     -2157.765       -1681.375  
 107089457.025    83446338.7034   20378446.125 8  20378445.68445  20378449.98045
     -1488.907       -1160.187  
 122651811.515    95572843.4584   23339866.170 5  23339866.05941  23339867.99041
     -2420.917       -1886.400  
 107005587.971    83380982.6964   20362480.792 8  20362479.79546  20362482.33246
       478.260         372.668  
 110968003.312    86468576.1594   21116505.457 7  21116505.03944  21116508.50644
       805.682         627.800  
 121028285.084    94307750.9694   23030911.860 7  23030911.40544  23030915.76844
      2610.660        2034.280  
 113750050.144    88636410.4064   21645911.261 7  21645911.60945  21645915.19245
      2185.865        1703.266  
 08 11 15  2  9 30.0000000  0  9G 6G16G 3G13G19G25G27G11G 7         
 112835078.890    87923436.8914   21471799.120 8  21471798.52345  21471803.23045
     -2022.091       -1575.660  
 120745067.323    94087061.7384   22977023.468 7  22977023.66644  22977026.84644
     -2162.379       -1684.969  
 107134282.148    83481267.3624   20386975.873 8  20386975.30445  20386980.10345
     -1499.927       -1168.773  
 122724581.881    95629547.5634   23353713.756 6  23353714.03741  23353715.65141
     -2430.928       -1894.223  
 106991449.262    83369965.5284   20359790.107 8  20359789.20246  20359792.19146
       463.802         361.403  
 110944078.139    86449933.1594   21111952.249 7  21111951.64244  21111955.76344
       788.791         614.636  
 120950095.216    94246823.7944   23016032.683 7  23016032.52144  23016036.89044
      2601.460        2027.124  
 126866702.851    98857181.7764   24141926.425 6  24141925.84743  24141931.11943
      3829.524        2984.036  
 113684682.168    88585474.3224   21633472.799 7  21633472.75345  21633475.97245
      2171.471        1692.050  
 08 11 15  2 10  0.0000000  0  9G 6G16G 3G13G19G25G27G11G 7         
 112895861.232    87970799.7384   21483365.577 8  21483365.44245  21483370.42245
     -2029.384       -1581.335  
 120810024.963    94137678.0424   22989384.461 7  22989383.73044  22989388.14744
     -2167.423       -1688.898  
 107179462.381    83516472.7284   20395573.491 8  20395572.67245  20395577.30745
     -1511.370       -1177.695  
 122797676.402    95686504.2784   23367624.400 6  23367623.77341  23367626.16541
     -2441.316       -1902.320  
 106977768.650    83359305.3104   20357186.937 8  20357185.94246  20357188.33146
       448.941         349.821  
 110920684.977    86431704.7094   21107500.612 7  21107499.85445  21107504.83545
       771.443         601.130  
 120872207.415    94186132.0114   23001211.049 7  23001211.32144  23001215.03544
      2591.737        2019.541  
 126751857.595    98767692.0664   24120071.990 6  24120071.08643  24120076.75543
      3827.508        2982.469  
 113619771.976    88534894.9444   21621120.445 7  21621120.86345  21621124.00245
      2156.550        1680.429  
 08 11 15  2 10 30.0000000  0  9G 6G16G 3G13G19G25G27G11G 7         
 112956859.983    88018331.2264   21494973.282 7  21494973.14545  21494977.83045
     -2037.578       -1587.727  
 120875131.842    94188410.6344   23001773.553 7  23001772.89844  23001777.09844
     -2173.415       -1693.571  
 107224982.920    83551943.2654   20404235.783 7  20404234.89845  20404239.53345
     -1523.705       -1187.307  
 122871078.070    95743700.2874   23381591.912 6  23381591.70841  23381595.26241
     -2452.502       -1911.044  
 106964531.611    83348990.7324   20354667.781 7  20354666.54646  20354669.09846
       433.149         337.517  
 110897811.341    86413881.0834   21103148.646 7  21103148.14045  21103152.00645
       753.082         586.815  
 120794610.421    94125666.8404   22986444.904 7  22986444.57744  22986448.40644
      2581.001        2011.170  
 126637071.498    98678248.4644   24098228.130 6  24098227.48843  24098233.51143
      3824.474        2980.101  
 113555308.400    88484663.5944   21608853.630 7  21608853.35044  21608856.90144
      2140.607        1667.997  
 08 11 15  2 11  0.0000000  0  9G 6G16G 3G13G19G25G27G11G 7         
 113018091.798    88066044.3114   21506624.934 8  21506624.62145  21506629.80045
     -2045.130       -1593.609  
 120940406.529    94239274.0024   23014196.111 7  23014195.67644  23014198.66644
     -2178.819       -1697.776  
 107270860.135    83587691.7284   20412966.023 8  20412965.67645  20412969.48345
     -1535.331       -1196.360  
 122944802.402    95801147.7534   23395620.555 5  23395621.16541  23395624.37641
     -2463.015       -1919.229  
 106951755.979    83339035.6964   20352236.834 8  20352235.69946  20352238.10946
       417.975         325.695  
 110875476.959    86396477.6664   21098898.257 7  21098897.73945  21098902.02045
       735.295         572.948  
 120717324.986    94065444.4424   22971738.082 6  22971737.41944  22971741.57044
      2570.773        2003.179  
 126522365.724    98588867.4474   24076401.225 5  24076400.68843  24076405.77843
      3821.949        2978.138  
 113491312.363    88434796.5564   21596675.178 7  21596675.09244  21596678.61144
      2125.194        1655.989  
 08 11 15  2 11 30.0000000  0  9G 6G16G 3G13G19G25G27G11G 7         
 113079557.850    88113939.9164   21518321.838 8  21518321.50746  21518326.44645
     -2052.896       -1599.663  
 121005851.864    94290270.3344   23026647.990 6  23026647.59344  23026653.02744
     -2184.513       -1702.220  
 107317094.845    83623718.7524   20421763.974 8  20421763.66245  20421768.00445
     -1547.265       -1205.660  
 123018848.885    95858846.2464   23409710.752 5  23409709.51341  23409716.72041
     -2473.709       -1927.596  
 106939443.564    83329441.5994   20349893.694 8  20349892.49146  20349895.49246
       402.544         313.665  
 110853685.809    86379497.5434   21094751.251 7  21094750.71944  21094754.41244
       717.141         558.812  
 120640356.421    94005468.9414   22957090.890 6  22957090.34844  22957094.44044
      2560.153        1994.919  
 126407745.669    98499553.2184   24054589.124 5  24054588.50542  24054594.65942
      3819.034        2975.869  
 113427789.102    88385297.9234   21584587.099 7  21584587.06444  21584590.16944
      2109.386        1643.670  
 08 11 15  2 12  0.0000000  0  9G 6G16G 3G13G19G25G27G11G 7         
 113141242.615    88162005.9584   21530060.122 8  21530059.77145  21530064.73345
     -2059.740       -1604.986  
 121071454.006    94341388.8364   23039131.328 6  23039130.00143  23039136.84643
     -2189.326       -1705.969  
 107363671.475    83660012.2144   20430627.204 8  20430626.74145  20430630.72845
     -1558.200       -1214.180  
 123093200.451    95916782.4654   23423859.157 5  23423857.19241  23423866.28341
     -2483.396       -1935.160  
 106927579.905    83320197.1874   20347636.244 8  20347635.03946  20347637.59946
       388.003         302.346  
 110832425.013    86362930.6744   21090705.334 7  21090704.89944  21090709.04244
       699.865         545.359  
 120563693.231    93945731.4064   22942502.593 6  22942501.62744  22942506.40744
      2550.357        1987.296  
 126293199.635    98410296.6944   24032791.732 5  24032790.53342  24032796.23642
      3816.942        2974.243  
 113364727.315    88336158.8604   21572587.142 7  21572587.13544  21572590.40244
      2094.376        1631.980  
 08 11 15  2 12 30.0000000  0  9G 6G16G 3G13G19G25G27G11G 7         
 113203114.168    88210217.5424   21541833.702 8  21541833.41745  21541838.71345
     -2065.893       -1609.784  
 121137182.997    94392606.2134   23051639.396 6  23051638.20543  23051643.18743
     -2193.483       -1709.203  
 107410558.292    83696547.3784   20439549.692 8  20439548.70245  20439553.59945
     -1568.460       -1222.176  
 123167823.723    95974930.4384   23438060.547 6  23438060.50641  23438064.17241
     -2492.335       -1942.081  
 106916133.980    83311278.2814   20345458.173 8  20345457.34246  20345459.81146
       374.161         291.555  
 110811665.738    86346754.6134   21086755.548 7  21086754.95644  21086758.63844
       683.191         532.360  
 120487307.903    93886210.3744   22927966.327 6  22927966.29244  22927970.71144
      2541.119        1980.088  
 126178700.307    98321076.5474   24011003.696 6  24011003.92042  24011007.39542
      3815.458        2973.072  
 113302099.273    88287357.7904   21560669.551 7  21560669.35144  21560672.30344
      2079.932        1620.724  
 08 11 15  2 13  0.0000000  0  9G 6G16G 3G13G19G25G27G11G 7         
 113265183.476    88258583.2214   21553645.584 8  21553645.15245  21553649.65746
     -2072.917       -1615.257  
 121203051.151    94443932.0054   23064173.522 6  23064172.34943  23064178.14143
     -2198.554       -1713.169  
 107457765.718    83733332.3664   20448532.891 8  20448532.52145  20448537.09245
     -1579.568       -1230.827  
 123242727.793    96033297.2244   23452314.485 6  23452313.44141  23452320.88041
     -2502.104       -1949.720  
 106905117.542    83302694.0334   20343361.974 8  20343360.86046  20343363.64546
       359.418         280.068  
 110791421.397    86330979.7864   21082902.869 7  21082902.54244  21082906.14844
       665.570         518.627  
 120411214.743    93826916.9954   22913487.104 6  22913486.62744  22913490.99744
      2530.878        1972.115  
 126064262.260    98231904.1434   23989227.351 5  23989227.16543  23989229.96943
      3812.898        2971.081  
 113239919.542    88238906.0614   21548837.041 7  21548837.21444  21548840.25844
      2064.492        1608.693  
 08 11 15  2 13 30.0000000  0  9G 6G16G 3G13G19G25G27G11G 7         
 113327482.906    88307128.2124   21565500.634 8  21565500.31245  21565505.01045
     -2080.629       -1621.268  
 121269093.155    94495393.2824   23076741.013 6  23076740.18843  23076745.24143
     -2204.459       -1717.760  
 107505326.306    83770392.5544   20457583.580 8  20457583.23845  20457587.86645
     -1591.364       -1240.026  
 123317944.052    96091907.2444   23466627.795 6  23466627.29641  23466633.50141
     -2512.512       -1957.799  
 106894563.907    83294470.4194   20341353.899 8  20341352.91746  20341355.08346
       343.924         267.988  
 110771727.494    86315633.8834   21079155.461 7  21079155.28844  21079158.74244
       647.133         504.261  
 120335450.689    93767880.0774   22899068.782 6  22899069.16244  22899073.77844
      2519.798        1963.475  
 125949922.579    98142808.3874   23967469.021 5  23967468.80543  23967471.90343
      3809.491        2968.419  
 113178225.093    88190832.4704   21537096.910 7  21537097.10844  21537100.52345
      2048.215        1596.007  
 08 11 15  2 14  0.0000000  0  9G 6G16G 3G13G19G25G27G11G 7         
 113389997.186    88355840.6174   21577396.463 7  21577396.12945  21577400.63345
     -2087.814       -1626.871  
 121335295.182    94546979.2614   23089339.890 7  23089340.47543  23089344.22743
     -2209.841       -1721.953  
 107553224.488    83807715.7944   20466698.271 8  20466697.74945  20466702.76845
     -1602.679       -1248.844  
 123393455.190    96150747.0864   23480997.707 6  23480997.29041  23481003.26741
     -2522.376       -1965.487  
 106884458.876    83286596.3604   20339431.046 8  20339430.28546  20339431.95046
       328.902         256.286  
 110752571.281    86300706.9484   21075510.442 7  21075510.04844  21075513.29544
       629.092         490.198  
 120260004.347    93709090.7034   22884712.224 6  22884711.76044  22884717.21744
      2509.082        1955.130  
 125835669.970    98053780.4414   23945726.670 5  23945725.64642  23945729.91342
      3806.467        2966.060  
 113117004.371    88143128.0164   21525447.208 7  21525447.19244  21525450.59945
      2032.301        1583.602  
 08 11 15  2 14 30.0000000  0  9G 6G16G 3G13G19G25G27G11G 7         
 113452734.742    88404727.0054   21589335.036 8  21589334.55845  21589338.87145
     -2094.132       -1631.792  
 121401666.924    94598697.4804   23101970.480 6  23101970.97243  23101974.79243
     -2214.384       -1725.489  
 107601468.621    83845308.6154   20475878.859 7  20475878.31145  20475883.22545
     -1613.057       -1256.929  
 123469268.286    96209822.1894   23495424.186 6  23495425.61041  23495423.21741
     -2531.254       -1972.419  
 106874811.444    83279078.8714   20337595.056 8  20337594.04846  20337595.63546
       314.787         245.288  
 110733963.844    86286207.6334   21071969.721 7  21071969.61145  21071972.16145
       611.927         476.826  
 120184888.254    93650558.6834   22870417.985 6  22870416.72644  22870422.31444
      2499.192        1947.426  
 125721517.151    97964830.2924   23924002.454 4  23924002.37042  23924007.64842
      3804.205        2964.330  
 113056269.450    88095802.1124   21513889.855 7  21513889.69544  21513892.68444
      2017.199        1571.844  
 08 11 15  2 15  0.0000000  0  9G 6G16G 3G13G19G25G27G11G 7         
 113515677.276    88453773.1144   21601312.629 8  21601311.89845  21601316.64945
     -2100.859       -1637.036  
 121468192.125    94650535.2994   23114629.589 6  23114629.43143  23114633.66443
     -2219.470       -1729.445  
 107650040.172    83883156.5674   20485121.707 7  20485121.20345  20485126.51345
     -1623.880       -1265.362  
 123545363.260    96269116.9224   23509903.832 5  23509906.51441  23509905.99441
     -2540.559       -1979.649  
 106865604.105    83271904.3174   20335842.957 8  20335842.23046  20335843.92846
       300.177         233.902  
 110715889.731    86272123.9014   21068530.313 7  21068530.11445  21068534.22545
       594.174         462.996  
 120110088.046    93592272.8114   22856183.630 6  22856183.25444  22856188.27444
      2488.652        1939.210  
 125607449.606    97875946.5874   23902295.718 4  23902295.03541  23902302.00741
      3801.379        2962.112  
 112996006.688    88048844.1204   21502422.404 7  21502422.27044  21502425.04744
      2001.462        1559.584  
 08 11 15  2 15 30.0000000  0  9G 6G16G 3G13G19G25G27G11G 7         
 113578813.620    88502970.2454   21613327.350 8  21613326.84745  21613331.02645
     -2107.990       -1642.582  
 121534861.281    94702485.2764   23127315.716 6  23127315.55043  23127320.11143
     -2224.926       -1733.702  
 107698927.875    83921250.8694   20494424.408 7  20494424.23345  20494429.11745
     -1635.065       -1274.073  
 123621727.335    96328621.4104   23524435.970 5  23524434.76641  23524438.17241
     -2550.145       -1987.083  
 106856826.324    83265064.4904   20334172.848 8  20334172.00946  20334173.67146
       285.210         222.247  
 110698340.158    86258448.9034   21065190.461 7  21065189.74145  21065194.29345
       575.987         448.826  
 120035596.337    93534227.3164   22842008.640 6  22842008.18944  22842012.60644
      2477.680        1930.661  
 125493460.432    97787123.9704   23880604.922 4  23880603.89641  23880610.01441
      3798.076        2959.539  
 112936208.615    88002248.2094   21491043.335 7  21491043.31244  21491045.91344
      1985.251        1546.955  
 08 11 15  2 16  0.0000000  0  9G 6G16G 3G13G19G25G27G11G 7         
 113642152.359    88552325.0894   21625379.776 7  21625379.36545  21625384.47945
     -2114.880       -1647.961  
 121601684.721    94754555.4634   23140031.120 6  23140030.03943  23140036.54843
     -2230.240       -1737.864  
 107748140.162    83959598.1054   20503788.886 7  20503788.44245  20503793.61145
     -1646.041       -1282.632  
 123698367.812    96388341.2274   23539019.722 5  23539018.75341  23539023.57141
     -2559.483       -1994.392  
 106848487.643    83258566.8134   20332585.896 8  20332584.82246  20332586.57246
       270.405         210.701  
 110681326.559    86245191.5494   21061952.283 7  21061951.92445  21061956.36345
       557.932         434.753  
 119961425.764    93476432.0634   22827894.466 6  22827894.51744  22827898.28744
      2466.718        1922.111  
 125379562.541    97698372.4514   23858933.000 6  23858933.11042  23858934.85642
      3794.815        2957.001  
 112876888.281    87956024.5734   21479754.442 7  21479755.04244  21479756.93444
      1969.125        1534.383  
 08 11 15  2 16 30.0000000  0  9G 6G16G 3G13G19G25G27G11G 7         
 113705711.199    88601851.4364   21637474.861 8  21637474.36145  21637479.57145
     -2120.469       -1652.306  
 121668681.756    94806760.9064   23152778.687 5  23152777.11343  23152784.69942
     -2234.321       -1741.020  
 107797694.271    83998211.6874   20513218.908 7  20513218.35145  20513223.72145
     -1655.673       -1290.129  
 123775300.383    96448288.6134   23553659.476 5  23553657.14841  23553661.01641
     -2567.430       -2000.606  
 106840606.523    83252425.6764   20331086.174 8  20331085.01946  20331086.98846
       256.901         200.183  
 110664869.117    86232367.5754   21058820.505 7  21058820.35645  21058825.02545
       541.119         421.651  
 119887598.189    93418904.0924   22813846.120 6  22813845.95344  22813849.85544
      2456.986        1914.529  
 125265777.633    97609708.9704   23837280.332 6  23837279.99043  23837282.61043
      3792.719        2955.384  
 112818066.709    87910189.5664   21468561.143 7  21468561.16144  21468562.90444
      1954.191        1522.749  
 08 11 15  2 17  0.0000000  0  9G 6G16G 3G13G19G25G27G11G 7         
 113769458.951    88651524.9934   21649606.193 8  21649605.90245  21649610.73545
     -2129.755       -1659.550  
 121735822.836    94859078.6014   23165555.182 5  23165553.87343  23165561.62343
     -2242.113       -1747.102  
 107847559.272    84037067.5274   20522707.447 7  20522706.89845  20522712.13945
     -1669.020       -1300.527  
 123852492.179    96508437.9664   23568346.957 4  23568344.67341  23568349.98241
     -2579.077       -2009.699  
 106833152.258    83246617.1574   20329667.646 8  20329666.56746  20329668.50646
       239.668         186.753  
 110648939.286    86219954.7244   21055789.651 7  21055789.24045  21055793.28145
       520.504         405.595  
 119814086.380    93361622.1704   22799857.097 6  22799856.99044  22799861.15244
      2443.424        1903.973  
 125152078.574    97521112.3774   23815644.024 6  23815643.57743  23815645.59943
      3786.801        2950.757  
 112759716.775    87864722.0834   21457457.277 7  21457457.59044  21457459.36644
      1935.408        1508.108  
 08 11 15  2 17 30.0000000  0  9G 6G16G 3G13G19G25G27G11G 7         
 113833427.415    88701370.5264   21661778.698 8  21661778.41045  21661783.27245
     -2135.704       -1664.189  
 121803141.124    94911534.3744   23178365.909 5  23178364.57943  23178372.29543
     -2246.661       -1750.625  
 107897766.466    84076190.0174   20532262.143 7  20532261.35245  20532266.18645
     -1679.015       -1308.318  
 123929973.625    96568813.1034   23583092.247 5  23583091.94141  23583094.79641
     -2587.256       -2016.055  
 106826157.443    83241166.6574   20328336.349 8  20328335.32246  20328336.98346
       225.752         175.907  
 110633571.319    86207979.6834   21052865.196 7  21052865.13145  21052868.67245
       503.142         392.063  
 119740925.768    93304613.9054   22785935.256 6  22785934.98944  22785939.19844
      2433.045        1895.879  
 125038501.563    97432610.8694   23794032.033 6  23794031.79343  23794034.23743
      3784.067        2948.628  
 112701874.276    87819650.0034   21446450.652 7  21446450.82744  21446452.02544
      1919.835        1495.976  
 08 11 15  2 18  0.0000000  0  9G 6G16G 3G13G19G25G27G11G 7         
 113897580.404    88751359.8544   21673986.952 8  21673986.68745  21673990.94845
     -2142.276       -1669.303  
 121870602.836    94964101.9044   23191204.079 6  23191203.20043  23191209.95043
     -2251.866       -1754.706  
 107948279.776    84115551.0254   20541874.305 8  20541873.64445  20541878.63745
     -1689.614       -1316.580  
 124007707.053    96629384.5594   23597884.547 5  23597882.14941  23597888.51841
     -2596.086       -2022.950  
 106819586.914    83236046.7604   20327085.960 8  20327084.77946  20327086.87246
       211.191         164.566  
 110618731.869    86196416.4694   21050041.571 7  21050041.55345  21050045.62945
       485.060         377.970  
 119668084.569    93247854.5304   22772073.884 6  22772073.04544  22772078.28544
      2421.933        1887.225  
 124925014.506    97344179.4744   23772435.892 6  23772436.54243  23772438.45343
      3780.605        2945.929  
 112644506.997    87774948.2244   21435533.939 7  21435533.75044  21435536.15844
      1903.522        1483.268  
 08 11 15  2 18 30.0000000  0  9G 6G16G 3G13G19G25G27G11G 7         
 113961946.289    88801515.0724   21686235.263 8  21686234.75945  21686238.86645
     -2148.484       -1674.141  
 121938237.288    95016804.0394   23204075.748 6  23204075.63943  23204080.66243
     -2256.803       -1758.541  
 107999127.109    84155172.3174   20551550.676 8  20551550.04645  20551554.67445
     -1699.891       -1324.588  
 124085718.949    96690173.0204   23612729.436 5  23612728.55841  23612737.31341
     -2604.413       -2029.420  
 106813469.517    83231279.9634   20325922.233 8  20325921.16146  20325923.35246
       196.958         153.472  
 110604451.564    86185288.9564   21047324.428 7  21047324.61245  21047327.60545
       467.251         364.090  
 119595594.763    93191368.9734   22758279.047 6  22758278.16144  22758284.17344
      2411.049        1878.722  
 124811649.724    97255843.3574   23750862.771 6  23750862.85943  23750864.93443
      3777.332        2943.373  
 112587646.968    87730641.7164   21424713.394 7  21424713.30244  21424716.89844
      1887.431        1470.728  
 08 11 15  2 19  0.0000000  0  9G 6G16G 3G13G19G25G27G11G 7         
 114026503.580    88851819.4344   21698519.973 8  21698519.72045  21698523.73445
     -2155.388       -1679.521  
 122006025.068    95069625.6694   23216975.658 6  23216974.81943  23216980.04043
     -2262.443       -1762.946  
 108050287.237    84195037.3394   20561286.184 8  20561285.66545  20561290.06245
     -1710.815       -1333.103  
 124163986.041    96751160.3694   23627623.856 5  23627622.34641  23627628.73341
     -2613.438       -2036.450  
 106807784.221    83226849.8624   20324840.141 8  20324838.96246  20324841.12446
       182.026         141.839  
 110590711.410    86174582.3374   21044709.495 8  21044709.14444  21044712.07544
       448.707         349.640  
 119523439.059    93135143.7384   22744548.013 6  22744547.05144  22744553.56144
      2399.296        1869.583  
 124698389.939    97167589.0424   23729309.813 6  23729309.88443  23729312.00843
      3773.249        2940.193  
 112531276.946    87686717.0124   21413986.241 7  21413986.32844  21413989.81944
      1870.506        1457.544  
 08 11 15  2 19 30.0000000  0  9G 6G16G 3G13G19G25G27G11G 7         
 114091243.497    88902266.1084   21710839.519 8  21710839.03645  21710843.30245
     -2160.861       -1683.790  
 122073958.806    95122561.0214   23229902.746 6  23229901.14143  23229906.04843
     -2266.740       -1766.283  
 108101750.640    84235138.6754   20571079.464 8  20571078.67845  20571083.17045
     -1720.316       -1340.508  
 124242497.932    96812338.4214   23642563.909 5  23642564.05741  23642566.09841
     -2620.911       -2042.279  
 106802522.983    83222750.1914   20323839.240 8  20323838.18346  20323839.79946
       168.485         131.291  
 110577505.048    86164291.6554   21042196.093 7  21042195.68244  21042199.39544
       431.469         336.217  
 119451612.430    93079174.9494   22730879.809 6  22730879.91344  22730885.39944
      2388.885        1861.467  
 124585230.548    97079412.9574   23707776.278 7  23707776.60943  23707778.29443
      3770.438        2938.015  
 112475391.658    87643170.0404   21403351.992 7  21403351.88644  21403355.06344
      1854.918        1445.390  
 08 11 15  2 20  0.0000000  0  9G 6G16G 3G13G19G25G27G11G 7         
 114156174.735    88952861.8714   21723195.637 8  21723195.01745  21723199.74445
     -2168.391       -1689.649  
 122142048.841    95175618.1584   23242860.096 6  23242859.48143  23242864.25843
     -2273.103       -1771.258  
 108153525.873    84275482.9864   20580931.831 8  20580931.45845  20580935.33145
     -1731.856       -1349.497  
 124321261.674    96873712.7084   23657552.971 6  23657553.36241  23657555.19241
     -2630.461       -2049.700  
 106797695.150    83218988.2434   20322920.380 8  20322919.66946  20322921.39446
       152.875         119.119  
 110564843.620    86154425.6024   21039786.970 7  21039786.83144  21039790.97944
       412.122         321.137  
 119380127.442    93023472.3444   22717276.849 6  22717276.32244  22717282.39644
      2376.280        1851.653  
 124472184.471    96991325.1534   23686264.518 7  23686265.02243  23686266.45943
      3765.449        2934.120  
 112420003.714    87600010.6164   21392812.386 7  21392812.10244  21392815.77944
      1837.119        1431.523  
