     2.10           OBSERVATION DATA    G (GPS)             RINEX VERSION / TYPE
Pinnacle 1.00                           16-NOV-08 16:01     PGM / RUN BY / DATE
build April 19, 2002                                        COMMENT
-Unknown-           -Unknown-                               OBSERVER / AGENCY
         Begin Pinnacle project                             COMMENT
1115                                                        COMMENT
                                                            COMMENT
                                                            COMMENT
November 16, 2008 3:45:30 pm                                COMMENT
                                                            COMMENT
                                                            COMMENT
D:\2008-----\gps\20081115\Pinnacle.dbd                 COMMENT
         End Pinnacle project                               COMMENT
                                                            COMMENT
7230                                                        MARKER NAME
7230(Tail)(Head)                                            MARKER NUMBER
AF83006AI2O         TPS GB-1000         3.1 Jun,28,2007 p3  REC # / TYPE / VERS
-Unknown-           TPSPG_A1        NONE                    ANT # / TYPE
 -3062460.3352  4050019.2037  3847195.6995                  APPROX POSITION XYZ
        1.5039        0.0000        0.0000                  ANTENNA: DELTA H/E/N
     1     1                                                WAVELENGTH FACT L1/2
     7    L1    L2    C1    P1    P2    D1    D2            # / TYPES OF OBSERV
    30.000                                                  INTERVAL
  2008    11    15     4    40    0.0000000     GPS         TIME OF FIRST OBS
  2008    11    15     6    40    0.0000000     GPS         TIME OF LAST OBS
     8                                                      # OF SATELLITES
   G 4     6     0     6     0     0     5     0            PRN / # OF OBS
   G 8    90    71    90    71    71    89    71            PRN / # OF OBS
   G11   241   241   241   241   241   241   241            PRN / # OF OBS
   G17   153   149   153   149   149   153   149            PRN / # OF OBS
   G19    59    56    59    56    56    59    56            PRN / # OF OBS
   G20   137   137   137   137   137   137   137            PRN / # OF OBS
   G28   241   241   241   241   241   241   241            PRN / # OF OBS
   G32   210   209   210   209   209   210   209            PRN / # OF OBS
SE TPS c22d7bf3                                             COMMENT
                                                            END OF HEADER
 08 11 15  4 40  0.0000000  0  4G11G 8G19G28                        
 104687660.519    81574811.1524   19921398.708 6  19921398.71644  19921401.15444
       136.056         106.019  
 112758164.131    87863513.1864   21457162.780 6  21457162.19144  21457166.49344
      -914.391        -712.499  
 116820080.272    91028635.1334   22230118.480 5  22230117.71242  22230120.27342
     -2145.936       -1672.154  
 119015471.715    92739319.0324   22647884.819 6  22647884.64543  22647886.16143
      2828.333        2203.900  
 08 11 15  4 40 30.0000000  0  4G11G 8G19G28                        
 104683797.137    81571800.7284   19920664.172 7  19920663.31644  19920666.34944
       122.576          95.511  
 112785876.972    87885107.5884   21462436.017 6  21462435.38444  21462440.44043
      -932.078        -726.290  
 116884474.621    91078812.5184   22242372.240 6  22242370.76642  22242373.82742
     -2145.945       -1672.181  
 118930659.559    92673231.6774   22631746.245 6  22631744.90143  22631748.96143
      2826.879        2202.768  
 08 11 15  4 41  0.0000000  0  4G11G 8G19G28                        
 104680315.695    81569087.9094   19920001.329 6  19920000.84045  19920003.93044
       108.716          84.709  
 112814096.943    87907097.1564   21467805.672 6  21467805.36344  21467810.22444
      -950.078        -740.321  
 116948846.557    91128972.4324   22254621.565 5  22254620.59643  22254623.32243
     -2146.374       -1672.496  
 118845870.584    92607162.3694   22615611.271 6  22615610.42743  22615612.69943
      2824.901        2201.209  
 08 11 15  4 41 30.0000000  0  4G11G 8G19G28                        
 104677233.273    81566686.0274   19919414.595 7  19919413.83544  19919417.18044
        96.555          75.239  
 112842839.923    87929494.2614   21473275.469 6  21473275.62243  21473279.46944
      -966.357        -753.003  
 117013213.319    91179128.3264   22266870.430 6  22266869.11742  22266870.73842
     -2145.018       -1671.431  
 118761124.813    92541126.7074   22599484.091 6  22599484.25742  22599484.98042
      2824.585        2200.984  
 08 11 15  4 42  0.0000000  0  4G11G 8G19G28                        
 104674543.825    81564590.3524   19918902.470 6  19918902.64844  19918905.41144
        83.657          65.183  
 112872099.216    87952293.6864   21478844.418 6  21478843.64744  21478848.26744
      -983.356        -766.261  
 117077569.359    91229275.8724   22279117.091 6  22279116.71142  22279118.57942
     -2144.451       -1670.999  
 118676419.071    92475122.2084   22583365.815 6  22583365.16042  22583367.71642
      2823.375        2200.032  
 08 11 15  4 42 30.0000000  0  4G11G 8G19G28                        
 104672237.635    81562793.3084   19918464.375 6  19918463.65044  19918467.03344
        70.069          54.608  
 112901864.557    87975487.4164   21484507.814 6  21484508.02944  21484512.26543
     -1001.015        -780.003  
 117141904.900    91279407.4224   22291358.384 6  22291357.63942  22291360.35442
     -2144.590       -1671.107  
 118591746.308    92409143.4494   22567253.157 6  22567252.22842  22567255.85042
      2821.425        2198.513  
 08 11 15  4 43  0.0000000  0  4G11G 8G19G28                        
 104670334.238    81561310.1274   19918101.818 5  19918101.54444  19918104.63744
        57.221          44.599  
 112932154.386    87999089.8794   21490271.863 5  21490271.51544  21490276.43244
     -1017.937        -793.201  
 117206239.994    91329538.6434   22303602.226 5  22303601.13542  22303603.46742
     -2144.017       -1670.657  
 118507128.796    92343207.7244   22551151.370 5  22551150.13642  22551152.79743
      2820.104        2197.468  
 08 11 15  4 43 30.0000000  0  4G11G 8G19G28                        
 104668829.193    81560137.3564   19917816.631 6  19917815.26944  19917818.28344
        43.874          34.194  
 112962963.908    88023097.2464   21496134.932 6  21496134.07744  21496138.86444
     -1035.276        -806.704  
 117270570.419    91379666.1834   22315844.617 5  22315843.58242  22315845.34342
     -2143.931       -1670.578  
 118422565.637    92277314.3764   22535057.942 6  22535058.44042  22535062.67743
      2818.185        2195.992  
 08 11 15  4 44  0.0000000  0  4G11G 8G19G28                        
 104667755.937    81559301.0394   19917612.298 6  19917611.11144  19917613.81044
        27.656          21.563  
 112994325.543    88047534.8734   21502102.602 6  21502101.93944  21502106.91544
     -1055.471        -822.432  
 117334929.904    91429816.4204   22328090.323 5  22328089.79942  22328093.62342
     -2146.742       -1672.775  
 118338092.744    92211491.3534   22518984.356 6  22518984.55043  22518987.23743
      2813.312        2192.208  
 08 11 15  4 44 30.0000000  0  4G11G 8G19G28                        
 104667116.525    81558802.7814   19917489.793 5  19917489.14143  19917492.02043
        14.132          11.015  
 113026240.389    88072403.5674   21508176.129 5  21508175.25143  21508180.61843
     -1072.968        -836.085  
 117399321.218    91479991.4264   22340344.638 5  22340343.40442  22340345.56642
     -2146.821       -1672.872  
 118253715.388    92145742.7544   22502927.270 6  22502927.34842  22502930.03543
      2811.033        2190.404  
 08 11 15  4 45  0.0000000  0  4G11G 8G19G28                        
 104666889.864    81558626.1734   19917446.869 5  19917446.35344  19917449.01244
         1.165           0.904  
 113058686.764    88097686.4544   21514351.123 6  21514350.13844  21514354.44544
     -1089.932        -849.296  
 117463723.646    91530175.1164   22352599.153 5  22352599.61542  22352601.88342
     -2146.500       -1672.578  
 118169415.249    92080054.3624   22486885.961 5  22486886.31543  22486888.35243
      2809.175        2188.969  
 08 11 15  4 45 30.0000000  0  4G11G 8G19G28                        
 104667083.048    81558776.7084   19917482.981 5  19917483.07044  19917485.82344
       -14.022         -10.929  
 113091670.740    88123388.2474   21520627.340 6  21520626.47844  21520631.09344
     -1108.994        -864.144  
 117528144.394    91580373.0854   22364857.990 5  22364857.87543  22364860.88542
     -2148.256       -1673.961  
 118085202.721    92014434.2024   22470860.443 5  22470859.93543  22470863.23843
      2805.006        2185.714  
 08 11 15  4 46  0.0000000  0  4G11G 8G19G28                        
 104667729.069    81559280.1054   19917605.113 5  19917605.48344  19917608.36143
       -28.050         -21.868  
 113125224.168    88149533.7674   21527012.679 5  21527011.45443  21527016.43243
     -1126.867        -878.081  
 117592616.964    91630611.4334   22377127.513 5  22377125.47442  22377128.54442
     -2148.913       -1674.488  
 118001113.567    91948910.2154   22454859.591 5  22454858.76842  22454860.38842
      2801.921        2183.322  
 08 11 15  4 46 30.0000000  0  4G11G 8G19G28                        
 104668794.119    81560109.9834   19917808.513 5  19917808.30943  19917811.37744
       -42.814         -33.348  
 113159312.776    88176096.2924   21533499.292 6  21533498.79943  21533502.62843
     -1145.509        -892.607  
 117657107.953    91680864.1364   22389399.353 5  22389398.44443  22389402.14243
     -2150.285       -1675.549  
 117917117.175    91883458.4644   22438874.201 5  22438873.65542  22438877.35142
      2797.967        2180.229  
 08 11 15  4 47  0.0000000  0  5G11G 8G19G28G32                     
 104670302.999    81561285.7404   19918095.586 5  19918095.82143  19918098.19943
       -57.996         -45.189  
 113193960.360    88203094.3994   21540091.798 6  21540091.08943  21540095.69643
     -1164.505        -907.410  
 117721642.775    91731150.9574   22401680.347 5  22401679.13443  22401681.67543
     -2152.183       -1677.047  
 117833241.361    91818100.7224   22422913.804 5  22422914.54742  22422914.66742
      2793.517        2176.760  
 120243819.196                    22881633.686 4                                
      2416.862                  
 08 11 15  4 47 30.0000000  0  5G11G 8G19G28G32                     
 104672288.493    81562832.8844   19918475.056 5  19918473.06143  19918476.35443
       -73.777         -57.505  
 113229198.912    88230552.9884   21546797.282 6  21546796.93543  21546801.28443
     -1184.174        -922.721  
 117786254.715    91781497.9164   22413974.495 5  22413974.64542  22413976.81742
     -2154.730       -1679.030  
 117749522.132    91752864.9384   22406982.975 5  22406980.99342  22406983.99742
      2788.235        2172.662  
 120171452.339    93640083.4844   22867862.330 4  22867864.2474   22867869.01141
      2408.134        1876.458  
 08 11 15  4 48  0.0000000  0  5G11G 8G19G28G32                     
 104674706.138    81564716.7484   19918934.205 5  19918933.43643  19918936.38543
       -88.003         -68.562  
 113264982.863    88258436.5694   21553606.577 6  21553606.29043  21553611.52243
     -1202.129        -936.689  
 117850899.806    91831870.6824   22426276.855 5  22426276.39842  22426278.77742
     -2155.635       -1679.695  
 117665917.838    91687718.7474   22391072.558 5  22391072.18942  22391076.56442
      2784.612        2169.844  
 120099308.740    93583867.7524   22854133.141 4  22854132.87541  22854140.13641
      2400.854        1870.786  
 08 11 15  4 48 30.0000000  0  5G11G 8G19G28G32                     
 104677581.600    81566957.3564   19919480.442 5  19919480.24443  19919483.63543
      -102.863         -80.162  
 113301337.418    88286764.7424   21560524.138 5  21560523.96843  21560529.31343
     -1220.686        -951.186  
 117915604.502    91882289.8774   22438589.682 5  22438588.24643  22438590.57842
     -2157.218       -1680.948  
 117582457.669    91622684.8914   22375192.093 5  22375189.85742  22375193.74243
      2780.127        2166.332  
 120027418.490    93527849.4214   22840454.300 4  22840454.04541  22840460.92941
      2392.668        1864.395  
 08 11 15  4 49  0.0000000  0  5G11G 8G19G28G32                     
 104680924.209    81569561.9894   19920117.034 6  19920116.80444  19920119.86144
      -118.450         -92.308  
 113338270.745    88315543.9554   21567553.292 5  21567552.57744  21567557.28244
     -1239.949        -966.200  
 117980378.362    91932763.0164   22450915.610 6  22450914.68743  22450916.95243
     -2159.510       -1682.743  
 117499154.034    91557772.9944   22359338.179 5  22359337.87243  22359342.22343
      2774.932        2162.290  
 119955794.415    93472038.4904   22826824.960 5  22826822.35542  22826831.49442
      2383.784        1857.483  
 08 11 15  4 49 30.0000000  0  5G11G 8G19G28G32                     
 104684751.324    81572544.1694   19920846.368 5  19920844.65143  19920848.09943
      -135.251        -105.395  
 113375799.236    88344786.9164   21574694.886 6  21574694.52243  21574699.03343
     -1260.473        -982.178  
 118045239.499    91983304.1184   22463258.686 5  22463257.91743  22463259.71143
     -2163.082       -1685.523  
 117416027.471    91492999.0474   22343520.925 5  22343520.26443  22343523.97243
      2768.310        2157.120  
 119884457.926    93416451.6294   22813249.005 4  22813247.25142  22813254.33541
      2373.456        1849.452  
 08 11 15  4 50  0.0000000  0  5G11G 8G19G28G32                     
 104689045.919    81575890.5984   19921661.520 5  19921662.57143  19921665.52444
      -151.541        -118.099  
 113413904.685    88374479.4524   21581946.233 5  21581945.54343  21581949.10943
     -1280.400        -997.722  
 118110171.561    92033900.5034   22475613.957 5  22475614.34742  22475615.36842
     -2166.225       -1687.963  
 117333063.827    91428352.0774   22327733.450 5  22327733.05942  22327736.76042
      2762.069        2152.276  
 119813395.692    93361078.5104   22799725.964 5  22799726.08841  22799731.15341
      2363.497        1841.706  
 08 11 15  4 50 30.0000000  0  5G11G 8G19G28G32                     
 104693818.668    81579609.6064   19922571.122 5  19922570.76143  19922573.81043
      -166.895        -130.052  
 113452597.174    88404629.4244   21589308.721 6  21589308.38343  21589313.06943
     -1299.359       -1012.492  
 118175185.487    92084560.6704   22487985.918 5  22487985.39743  22487988.35942
     -2168.335       -1689.630  
 117250277.444    91363843.2044   22311978.844 5  22311978.83843  22311983.55643
      2756.705        2148.080  
 119742622.535    93305930.6484   22786259.710 5  22786258.17942  22786264.74041
      2354.400        1834.583  
 08 11 15  4 51  0.0000000  0  5G11G 8G19G28G32                     
 104699080.067    81583709.3994   19923571.017 5  19923572.01444  19923575.29843
      -182.266        -142.030  
 113491885.839    88435243.9614   21596785.942 6  21596785.05243  21596789.59343
     -1318.327       -1027.255  
 118240292.925    92135293.7004   22500375.681 5  22500375.16642  22500376.58643
     -2170.581       -1691.361  
 117167682.105    91299483.1734   22296261.654 6  22296261.96143  22296265.58142
      2751.197        2143.819  
 119672153.016    93251019.3694   22772848.974 5  22772848.37942  22772853.43342
      2345.138        1827.394  
 08 11 15  4 51 30.0000000  0  5G11G 8G19G28G32                     
 104704789.589    81588158.3714   19924658.136 5  19924658.38243  19924661.15443
      -198.002        -154.271  
 113531729.194    88466290.7274   21604368.270 6  21604367.33943  21604371.19743
     -1337.559       -1042.270  
 118305453.545    92186068.1934   22512776.007 5  22512773.68143  22512776.37643
     -2173.121       -1693.344  
 117085240.347    91235242.8474   22280574.045 5  22280573.12443  22280576.94943
      2745.246        2139.158  
 119601950.288    93196316.0364   22759490.797 5  22759490.73942  22759494.94142
      2335.375        1819.784  
 08 11 15  4 52  0.0000000  0  5G11G 8G19G28G32                     
 104710976.400    81592979.2504   19925836.032 5  19925835.42643  19925838.47843
      -213.971        -166.735  
 113572155.908    88497792.0314   21612060.030 5  21612059.95743  21612064.65443
     -1357.033       -1057.438  
 118370697.165    92236907.3354   22525191.061 5  22525189.33143  22525193.37142
     -2175.938       -1695.534  
 117002984.601    91171147.4344   22264920.732 5  22264920.66843  22264925.34742
      2738.933        2134.230  
 119532047.390    93141846.2674   22746187.978 5  22746188.13042  22746193.15842
      2325.267        1811.897  
 08 11 15  4 52 30.0000000  0  5G11G 8G19G28G32                     
 104717635.209    81598167.9324   19927103.038 5  19927102.40043  19927105.37243
      -229.823        -179.078  
 113613159.121    88529742.5594   21619864.249 5  21619863.39643  21619867.01443
     -1376.355       -1072.478  
 118436019.456    92287807.7874   22537621.519 4  22537618.97542  22537622.85442
     -2178.595       -1697.585  
 116920912.774    91107195.3914   22249303.872 5  22249303.04842  22249304.93942
      2732.634        2129.330  
 119462443.151    93087609.2634   22732943.583 5  22732942.20442  22732947.42242
      2315.134        1803.997  
 08 11 15  4 53  0.0000000  0  5G11G 8G19G28G32                     
 104724758.185    81603718.2924   19928458.997 5  19928458.14744  19928460.58044
      -245.567        -191.342  
 113654730.250    88562135.6174   21627773.972 5  21627773.65143  21627777.71443
     -1395.521       -1087.417  
 118501413.258    92338763.9784   22550065.289 5  22550063.99242  22550068.11842
     -2181.401       -1699.804  
 116839020.838    91043383.4954   22233718.779 5  22233719.27842  22233723.65742
      2726.306        2124.396  
 119393133.826    93033602.0254   22719753.418 5  22719753.12242  22719757.62342
      2305.030        1796.100  
 08 11 15  4 53 30.0000000  0  5G11G 8G19G28G32                     
 104732362.638    81609643.8524   19929905.668 7  19929905.25945  19929907.97645
      -262.109        -204.239  
 113696885.497    88594983.8484   21635795.867 7  21635794.90944  21635801.10045
     -1415.503       -1102.992  
 118566896.803    92389790.0964   22562525.509 6  22562524.04444  22562528.76344
     -2184.884       -1702.508  
 116757329.130    90979727.6234   22218174.686 7  22218173.89844  22218177.51644
      2719.077        2118.758  
 119324140.586    92979841.0904   22706623.918 7  22706623.60743  22706630.06443
      2293.860        1787.434  
 08 11 15  4 54  0.0000000  0  5G11G 8G19G28G32                     
 104740449.449    81615945.2484   19931444.208 5  19931444.25144  19931446.76744
      -276.110        -215.158  
 113739624.562    88628286.9664   21643928.932 5  21643927.84944  21643933.62144
     -1432.891       -1116.531  
 118632471.455    92440887.1894   22575005.409 5  22575003.76944  22575007.85243
     -2185.870       -1703.281  
 116675841.653    90916230.9314   22202667.387 6  22202667.82244  22202669.58444
      2714.304        2115.024  
 119255468.261    92926330.2184   22693555.714 5  22693555.60944  22693562.17343
      2285.196        1780.675  
 08 11 15  4 54 30.0000000  0  5G11G 8G19G28G32                     
 104749010.580    81622616.2504   19933074.243 6  19933072.94544  19933075.58843
      -293.023        -228.349  
 113782938.865    88662038.3454   21652171.721 6  21652170.53643  21652176.29143
     -1453.182       -1132.360  
 118698130.111    92492049.7564   22587499.951 5  22587498.05042  22587501.64842
     -2189.835       -1706.352  
 116594553.936    90852889.8274   22187200.414 5  22187198.75143  22187202.93643
      2706.451        2108.910  
 119187112.799    92873066.2544   22680547.727 5  22680547.97242  22680554.82142
      2273.435        1771.493  
 08 11 15  4 55  0.0000000  0  5G11G 8G19G28G32                     
 104758043.178    81629654.6284   19934792.746 5  19934791.96144  19934794.27044
      -309.380        -241.077  
 113826824.347    88696234.7904   21660522.378 5  21660521.18943  21660527.09643
     -1472.808       -1147.640  
 118763870.921    92543276.3034   22600011.064 4  22600008.16843  22600012.19743
     -2193.222       -1708.982  
 116513467.024    90789705.2574   22171768.250 6  22171770.21743  22171770.70243
      2699.044        2103.165  
 119119075.753    92820050.4064   22667602.136 5  22667601.73842  22667607.09342
      2262.065        1762.656  
 08 11 15  4 55 30.0000000  0  5G11G 8G19G28G32                     
 104767540.681    81637055.2754   19936599.804 7  19936598.84045  19936601.95445
      -323.758        -252.276  
 113871273.053    88730870.1264   21668980.259 7  21668979.52344  21668985.21144
     -1490.434       -1161.383  
 118829687.292    92594561.7844   22612534.866 7  22612533.24643  22612537.14343
     -2194.592       -1710.071  
 116432577.280    90726674.3014   22156375.738 7  22156374.73643  22156380.45844
      2693.579        2098.879  
 119051353.776    92767280.0484   22654715.281 7  22654714.55442  22654720.26143
      2252.678        1755.329  
 08 11 15  4 56  0.0000000  0  5G11G 8G19G28G32                     
 104777500.793    81644816.4104   19938494.996 5  19938494.50545  19938497.36544
      -339.484        -264.543  
 113916281.942    88765941.9524   21677544.845 5  21677544.45644  21677550.54544
     -1509.410       -1176.183  
 118895578.809    92645905.8084   22625071.893 6  22625071.41043  22625074.86243
     -2197.448       -1712.306  
 116351886.159    90663798.1194   22141020.950 6  22141020.41643  22141023.63944
      2686.575        2093.421  
 118983949.172    92714756.9974   22641887.866 6  22641887.85943  22641893.54743
      2241.705        1746.763  
 08 11 15  4 56 30.0000000  0  5G11G 8G19G28G32                     
 104787931.934    81652944.5534   19940479.944 6  19940479.36345  19940482.10145
      -355.537        -277.044  
 113961857.781    88801455.5584   21686218.605 6  21686217.92844  21686222.36644
     -1528.655       -1191.145  
 118961554.163    92697315.1374   22637626.497 6  22637626.50443  22637630.41443
     -2200.592       -1714.752  
 116271405.087    90601085.6144   22125704.670 5  22125705.28744  22125709.30143
      2679.149        2087.663  
 118916874.061    92662490.6874   22629123.551 6  22629123.66842  22629128.59343
      2230.320        1737.907  
 08 11 15  4 57  0.0000000  0  5G11G 8G19G28G32                     
 104798823.458    81661431.4434   19942552.706 6  19942552.72344  19942554.72744
      -370.502        -288.708  
 114007989.361    88837402.2244   21694996.855 6  21694996.64244  21695000.50243
     -1546.779       -1205.281  
 119027603.641    92748782.2494   22650195.911 4  22650196.33743  22650199.80043
     -2202.699       -1716.385  
 116191127.197    90538531.4004   22110428.693 4  22110428.17943  22110433.18542
      2672.772        2082.663  
 118850121.956    92610476.0734   22616421.488 4  22616420.73943  22616426.98843
      2219.821        1729.729  
 08 11 15  4 57 30.0000000  0  5G11G 8G19G28G32                     
 104810146.259    81670254.4104   19944707.582 7  19944706.87545  19944709.62245
      -385.577        -300.446  
 114054646.605    88873758.4814   21703876.157 7  21703876.10944  21703880.22344
     -1564.951       -1219.435  
 119093699.260    92800285.3184   22662774.355 7  22662773.42644  22662776.40144
     -2204.916       -1718.128  
 116111026.727    90476115.4964   22095185.918 7  22095185.13944  22095189.90744
      2666.057        2077.442  
 118783667.877    92558693.6864   22603775.036 6  22603773.38142  22603781.10542
      2209.182        1721.440  
 08 11 15  4 58  0.0000000  0  5G11G 8G19G28G32                     
 104821924.067    81679431.9054   19946949.166 5  19946948.41444  19946950.85944
      -400.359        -311.980  
 114101851.724    88910541.6554   21712858.878 5  21712858.54643  21712862.84643
     -1582.805       -1233.370  
 119159865.243    92851843.1844   22675364.786 5  22675364.42243  22675366.60844
     -2206.877       -1719.647  
 116031131.073    90413859.1394   22079982.790 4  22079981.88743  22079986.53043
      2659.553        2072.376  
 118717539.293    92507164.9264   22591190.047 4  22591189.35443  22591197.36643
      2198.601        1713.190  
 08 11 15  4 58 30.0000000  0  5G11G 8G19G28G32                     
 104834183.705    81688984.8754   19949281.463 6  19949281.54444  19949284.02044
      -416.001        -324.156  
 114149630.275    88947771.6584   21721950.646 5  21721950.93443  21721954.63743
     -1601.470       -1247.901  
 119226129.370    92903477.5574   22687973.697 5  22687973.21842  22687976.81742
     -2209.775       -1721.884  
 115951470.698    90351786.1344   22064823.751 5  22064823.16342  22064827.82943
      2652.099        2066.557  
 118651767.107    92455913.8614   22578676.262 5  22578674.91342  22578681.27141
      2187.112        1704.259  
 08 11 15  4 59  0.0000000  0  5G11G 8G19G28G32                     
 104846895.453    81698890.1274   19951701.047 5  19951700.08944  19951702.90844
      -431.469        -336.203  
 114197951.834    88985424.7904   21731144.941 5  21731145.77843  21731148.92543
     -1619.969       -1262.294  
 119292463.226    92955166.2514   22700597.649 4  22700597.45742  22700599.79342
     -2212.496       -1724.028  
 115872019.149    90289875.8484   22049705.860 5  22049704.70143  22049708.72243
      2644.687        2060.795  
 118586325.802    92404920.6074   22566221.532 5  22566222.84642  22566228.43142
      2175.627        1695.317  
 08 11 15  4 59 30.0000000  0  5G11G 8G19G28G32                     
 104860063.629    81709151.0504   19954206.486 5  19954205.81944  19954209.10544
      -445.948        -347.488  
 114246819.006    89023503.0784   21740444.843 5  21740444.31843  21740449.34642
     -1637.422       -1275.914  
 119358871.998    93006913.3254   22713234.385 4  22713232.60842  22713235.29042
     -2214.401       -1725.516  
 115792783.897    90228134.1024   22034628.634 5  22034626.98043  22034630.01343
      2638.077        2055.651  
 118521223.563    92354191.6244   22553833.024 5  22553832.72242  22553840.37143
      2164.954        1686.992  
 08 11 15  5  0  0.0000000  0  5G11G 8G19G28G32                     
 104873697.902    81719775.1564   19956800.991 6  19956800.78144  19956803.58044
      -462.101        -360.071  
 114296240.631    89062013.3844   21749849.647 5  21749848.25042  21749853.83643
     -1656.448       -1290.725  
 119425366.278    93058727.0434   22725887.287 4  22725886.24441  22725888.89341
     -2217.763       -1728.146  
 115713779.059    90166571.8884   22019594.088 5  22019592.49143  22019595.20343
      2629.730        2049.163  
 118456474.263    92303737.6284   22541513.234 4  22541511.28542  22541519.02742
      2152.534        1677.320  
 08 11 15  5  0 30.0000000  0  5G11G 8G19G28G32                     
 104887794.892    81730759.8344   19959483.758 6  19959483.96444  19959486.37144
      -477.153        -371.815  
 114346212.573    89100952.5324   21759359.214 6  21759358.89243  21759362.85043
     -1674.442       -1304.769  
 119491943.505    93110605.3844   22738557.294 4  22738556.74841  22738559.68741
     -2220.230       -1730.062  
 115635004.747    90105189.3404   22004601.990 5  22004602.41443  22004605.39543
      2622.357        2043.394  
 118392078.518    92253559.1384   22529258.078 5  22529257.37542  22529264.40742
      2141.041        1668.318  
 08 11 15  5  1  0.0000000  0  5G11G 8G19G28G32                     
 104902359.380    81742108.7874   19962255.265 6  19962255.01445  19962257.77244
      -493.113        -384.242  
 114396737.929    89140322.9164   21768974.104 6  21768973.22543  21768977.09644
     -1693.215       -1319.369  
 119558609.670    93162553.0204   22751242.197 5  22751241.79042  22751244.14442
     -2223.480       -1732.585  
 115556469.066    90043992.7044   21989658.344 6  21989657.01544  21989660.83544
      2614.018        2036.910  
 118328044.994    92203662.9074   22517071.578 5  22517071.99743  22517078.74643
      2128.521        1658.589  
 08 11 15  5  1 30.0000000  0  5G11G 8G19G28G32                     
 104917378.422    81753811.9334   19965112.029 5  19965112.98244  19965115.67544
      -508.641        -396.344  
 114447802.488    89180113.4764   21778691.082 5  21778690.37843  21778693.71543
     -1711.565       -1333.700  
 119625352.587    93214560.4764   22763941.755 4  22763943.59341  22763945.53542
     -2226.460       -1734.905  
 115478162.582    89982974.6944   21974756.931 6  21974757.00143  21974759.78543
      2605.880        2030.548  
 118264364.670    92154041.9274   22504956.403 5  22504954.74643  22504960.85942
      2116.299        1649.051  
 08 11 15  5  2  0.0000000  0  5G11G 8G19G28G32                     
 104932862.112    81765877.1344   19968059.659 5  19968059.20844  19968062.40944
      -523.287        -407.742  
 114499415.402    89220331.2674   21788513.773 5  21788512.12843  21788515.84043
     -1728.934       -1347.212  
 119692183.874    93266636.7804   22776662.786 4  22776660.43141  22776662.59041
     -2228.644       -1736.582  
 115400099.488    89922146.2984   21959903.004 6  21959902.43043  21959904.94343
      2598.593        2024.894  
 118201051.979    92104707.3904   22492907.166 5  22492907.44543  22492912.90343
      2104.823        1640.148  
 08 11 15  5  2 30.0000000  0  5G11G 8G19G28G32                     
 104948806.017    81778300.9614   19971093.288 6  19971092.80944  19971095.94144
      -538.573        -419.660  
 114551570.719    89260971.7264   21798437.429 6  21798437.33344  21798441.26343
     -1746.996       -1361.293  
 119759099.529    93318778.8574   22789395.694 5  22789395.90942  22789396.51041
     -2231.384       -1738.740  
 115322278.322    89861506.4244   21945093.782 6  21945093.11844  21945096.76044
      2590.533        2018.599  
 118138106.265    92055658.8134   22480929.855 5  22480928.98043  22480934.04343
      2092.592        1630.602  
 08 11 15  5  3  0.0000000  0  5G11G 8G19G28G32                     
 104965191.035    81791068.5144   19974211.976 6  19974211.34144  19974214.62244
      -553.391        -431.213  
 114604248.336    89302019.1874   21808462.021 5  21808461.42943  21808465.77843
     -1764.502       -1374.930  
 119826081.923    93370972.8854   22802140.679 4  22802139.88341  22802142.70941
     -2233.747       -1740.621  
 115244683.939    89801043.2934   21930328.535 6  21930327.40043  21930330.46543
      2582.786        2012.560  
 118075512.495    92006884.4794   22469017.932 6  22469017.51242  22469024.03643
      2080.679        1621.298  
 08 11 15  5  3 30.0000000  0  5G11G 8G19G28G32                     
 104982008.791    81804173.2514   19977411.545 6  19977411.95544  19977414.56544
      -568.414        -442.909  
 114657438.936    89343466.3594   21818584.138 5  21818583.59143  21818587.29143
     -1782.136       -1388.663  
 119893123.726    93423213.2114   22814898.762 4  22814897.63841  22814900.22441
     -2236.238       -1742.454  
 115167312.076    89740753.5354   21915604.285 6  21915603.87843  21915607.88343
      2574.743        2006.300  
 118013266.474    91958381.1224   22457173.020 5  22457173.34343  22457178.65043
      2068.420        1611.766  
 08 11 15  5  4  0.0000000  0  5G11G 8G19G28G32                     
 104999298.010    81817645.3754   19980701.829 6  19980701.90044  19980704.55544
      -583.569        -454.725  
 114711179.351    89385342.0014   21828809.834 5  21828809.58343  21828814.23043
     -1799.903       -1402.510  
 119960264.708    93475530.8324   22827675.431 3  22827675.90241  22827678.78241
     -2239.158       -1744.760  
 115090204.725    89680669.8914   21900932.187 5  21900931.48443  21900934.19943
      2566.402        1999.810  
 117951410.861    91910182.0114   22445402.784 5  22445401.98442  22445407.56242
      2055.896        1601.997  
 08 11 15  5  4 30.0000000  0  5G11G 8G19G28G32                     
 105017018.089    81831453.2124   19984073.123 6  19984073.19444  19984076.33144
      -597.692        -465.735  
 114765427.773    89427613.4844   21839132.454 5  21839131.62843  21839138.38243
     -1816.591       -1415.524  
 120027465.182    93527894.8264   22840464.201 4  22840462.09341  22840465.82741
     -2240.815       -1746.089  
 115013324.764    89620763.4354   21886301.911 6  21886300.68744  21886305.81144
      2558.981        1994.007  
 117889908.914    91862258.4554   22433700.081 5  22433698.46742  22433703.90642
      2044.271        1592.940  
 08 11 15  5  5  0.0000000  0  5G11G 8G19G28G32                     
 105035193.621    81845615.9734   19987533.206 6  19987532.24244  19987535.17144
      -614.592        -478.911  
 114820208.126    89470299.4204   21849557.064 5  21849555.70443  21849562.39043
     -1836.006       -1430.658  
 120094751.149    93580325.4814   22853270.334 4  22853267.99741  22853269.79641
     -2245.496       -1749.750  
 114936701.276    89561056.8224   21871721.188 6  21871721.39544  21871724.55444
      2548.659        1985.972  
 117828789.528    91814632.9904   22422067.414 5  22422067.57842  22422072.73342
      2029.730        1581.592  
 08 11 15  5  5 30.0000000  0  5G11G 8G19G28G32                     
 105053840.501    81860145.9964   19991081.147 5  19991080.56944  19991083.64144
      -628.328        -489.597  
 114875535.051    89513411.2494   21860086.457 5  21860084.66743  21860091.32343
     -1852.222       -1443.293  
 120162139.474    93632835.7924   22866091.526 4  22866089.87941  22866095.66241
     -2246.863       -1750.786  
 114860353.646    89501565.1594   21857191.950 6  21857192.21144  21857196.65444
      2541.384        1980.302  
 117768072.651    91767321.1834   22410513.130 5  22410513.11243  22410519.74143
      2018.243        1572.644  
 08 11 15  5  6  0.0000000  0  5G11G 8G19G28G32                     
 105072921.960    81875014.6684   19994711.984 6  19994711.76644  19994714.92344
      -643.978        -501.797  
 114931369.972    89556918.9364   21870711.136 5  21870710.13144  21870716.27544
     -1870.325       -1457.392  
 120229594.932    93685398.5204   22878927.832 4  22878928.00041  22878930.80442
     -2250.399       -1753.549  
 114784248.667    89442262.5954   21842710.053 6  21842709.23344  21842713.12244
      2532.055        1973.030  
 117707725.457    91720297.4244   22399028.716 5  22399029.30243  22399035.39843
      2004.644        1562.054  
 08 11 15  5  6 30.0000000  0  5G11G 8G19G28G32                     
 105092441.892    81890225.0144   19998427.224 5  19998426.55144  19998429.59044
      -659.182        -513.644  
 114987715.488    89600824.4734   21881432.652 5  21881432.21243  21881438.19043
     -1887.864       -1471.073  
 120297122.610    93738017.4644   22891778.697 4  22891776.24941  22891781.20841
     -2253.471       -1755.953  
 114708393.890    89383154.9904   21828275.834 6  21828275.42244  21828279.42744
      2523.072        1966.045  
 117647755.878    91673567.9154   22387617.664 6  22387618.58743  22387624.06043
      1991.459        1551.775  
 08 11 15  5  7  0.0000000  0  5G11G 8G19G28G32                     
 105112421.641    81905793.6484   20002228.274 6  20002228.36244  20002231.32344
      -674.368        -525.488  
 115044591.684    89645143.5514   21892255.682 6  21892255.79443  21892261.48143
     -1905.415       -1484.724  
 120364744.556    93790709.8364   22904646.265 4  22904645.74641  22904649.69141
     -2256.416       -1758.229  
 114632814.618    89324262.0684   21813893.753 6  21813892.54043  21813896.02643
      2513.965        1958.938  
 117588189.101    91627152.2544   22376283.304 5  22376282.97243  22376289.59643
      1978.092        1541.366  
 08 11 15  5  7 30.0000000  0  5G11G 8G19G28G32                     
 105132850.478    81921712.2234   20006116.125 7  20006115.65945  20006118.84845
      -688.282        -536.319  
 115101986.680    89689866.8904   21903178.722 7  21903178.07745  21903183.18445
     -1921.614       -1497.356  
 120432451.266    93843468.3074   22917529.231 5  22917529.12141  22917534.39341
     -2258.116       -1759.560  
 114557503.959    89265578.4594   21799561.834 7  21799560.64745  21799564.39645
      2506.007        1952.738  
 117529018.595    91581045.4054   22365022.973 6  22365022.34444  22365029.38544
      1965.891        1531.865  
 08 11 15  5  8  0.0000000  0  4G11G 8G28G32                        
 105153715.413    81937970.6064   20010086.328 6  20010086.01944  20010089.40844
      -704.161        -548.699  
 115159886.108    89734983.2934   21914196.428 6  21914195.11343  21914201.22843
     -1939.793       -1511.524  
 114482452.584    89207096.8764   21785279.732 6  21785279.34343  21785283.65343
      2495.972        1944.914  
 117470235.233    91535240.2264   22353837.588 5  22353836.70643  22353843.10943
      1951.564        1520.700  
 08 11 15  5  8 30.0000000  0  4G11G 8G28G32                        
 105175018.502    81954570.4004   20014139.784 6  20014140.45845  20014143.28144
      -717.742        -559.279  
 115218290.962    89780493.5174   21925310.487 6  21925309.56844  21925315.24744
     -1955.595       -1523.826  
 114407666.519    89148822.0424   21771048.086 6  21771047.71544  21771050.61144
      2488.060        1938.738  
 117411845.386    91489741.6624   22342726.660 6  22342727.13643  22342731.45343
      1939.401        1511.206  
 08 11 15  5  9  0.0000000  0  5G11G 8G19G28G32                     
 105196753.941    81971507.0944   20018276.414 5  20018276.21843  20018279.30344
      -731.718        -570.169  
 115277193.677    89826391.7044   21936519.263 5  21936518.56043  21936524.26344
     -1971.712       -1536.387  
 120636036.811                    22956271.317 3                                
     -2265.458                  
 114333143.585    89090752.2254   21756867.402 6  21756866.40045  21756870.79444
      2479.674        1932.217  
 117353846.911    91444548.0704   22331689.538 5  22331688.70143  22331694.53043
      1926.715        1501.337  
 08 11 15  5  9 30.0000000  0  5G11G 8G19G28G32                     
 105218957.139    81988808.2924   20022501.445 5  20022501.36744  20022504.20144
      -747.716        -582.650  
 115336628.452    89872704.4864   21947830.145 5  21947828.56843  21947833.89643
     -1989.828       -1550.506  
 120704062.672                    22969215.066 4                                
     -2269.504                  
 114258923.236    89032918.1984   21742743.406 5  21742743.40243  21742745.52043
      2469.134        1923.987  
 117296279.304    91399690.2264   22320735.337 6  22320735.21743  22320739.51243
      1911.884        1489.766  
 08 11 15  5 10  0.0000000  0  4G11G 8G28G32                        
 105241582.025    82006438.0704   20026807.509 6  20026806.73644  20026809.61144
      -761.276        -593.203  
 115396548.374    89919395.3084   21959231.900 5  21959230.52043  21959236.04943
     -2005.495       -1562.730  
 114184963.408    88975287.1624   21728668.397 6  21728668.73643  21728672.67543
      2460.849        1917.549  
 117239100.837    91355135.5944   22309855.003 6  22309854.10843  22309858.35543
      1899.331        1480.006  
 08 11 15  5 10 30.0000000  0  4G11G 8G28G32                        
 105264639.726    82024405.0994   20031194.743 6  20031194.96444  20031197.45744
      -776.157        -604.789  
 115456962.629    89966471.3144   21970728.148 6  21970728.61042  21970732.20342
     -2022.372       -1575.856  
 114111278.590    88917870.4254   21714648.291 6  21714647.64544  21714650.42044
      2451.200        1910.041  
 117182326.238    91310895.6814   22299049.635 5  22299049.57243  22299054.46143
      1885.392        1469.150  
 08 11 15  5 11  0.0000000  0  4G11G 8G28G32                        
 105288128.480    82042708.0194   20035664.866 6  20035664.60444  20035666.99344
      -789.625        -615.306  
 115517868.093    90013930.1114   21982319.037 5  21982317.74142  21982322.63342
     -2037.833       -1587.952  
 114037870.974    88860669.7074   21700678.990 6  21700678.76944  21700681.59144
      2442.775        1903.439  
 117125957.772    91266972.2434   22288323.306 5  22288322.23143  22288328.73643
      1872.647        1459.196  
 08 11 15  5 11 30.0000000  0  4G11G 8G28G32                        
 105312046.086    82061345.1134   20040215.943 6  20040215.41244  20040217.93244
      -804.892        -627.197  
 115579261.267    90061768.9204   21994001.337 5  21994000.22542  21994004.99242
     -2055.018       -1601.356  
 113964742.774    88803686.6924   21686762.826 6  21686762.79543  21686766.64843
      2432.407        1895.376  
 117069997.489    91223366.8454   22277674.618 5  22277674.35743  22277679.96843
      1858.003        1447.794  
 08 11 15  5 12  0.0000000  0  4G11G 8G28G32                        
 105336399.672    82080321.9274   20044849.902 6  20044849.52644  20044852.47244
      -819.155        -638.303  
 115641148.074    90109992.3504   22005778.156 5  22005776.72442  22005782.74042
     -2071.202       -1613.927  
 113891904.649    88746929.7104   21672902.692 6  21672902.51344  21672904.66244
      2422.953        1888.013  
 117014456.187    91180087.9394   22267104.536 5  22267104.82843  22267110.31743
      1844.231        1437.058  
 08 11 15  5 12 30.0000000  0  4G11G 8G28G32                        
 105361189.048    82099638.3194   20049568.146 6  20049567.10244  20049570.14944
      -834.024        -649.896  
 115703526.616    90158598.9524   22017647.409 5  22017645.10241  22017652.61441
     -2087.939       -1626.952  
 113819360.184    88690401.5614   21659097.944 6  21659097.59944  21659100.89344
      2412.748        1880.061  
 116959337.639    91137138.4454   22256617.353 5  22256616.38742  22256620.96742
      1829.748        1425.786  
 08 11 15  5 13  0.0000000  0  4G11G 8G28G32                        
 105386400.814    82119283.8474   20054365.731 6  20054365.02144  20054367.55944
      -847.573        -660.450  
 115766382.452    90207577.4684   22029610.152 5  22029608.48041  22029612.89541
     -2103.292       -1638.918  
 113747100.009    88634094.9374   21645346.821 5  21645346.32044  21645349.01044
      2403.742        1873.053  
 116904632.802    91094511.3304   22246206.999 5  22246205.77542  22246211.54743
      1816.390        1415.385  
 08 11 15  5 13 30.0000000  0  4G11G 8G28G32                        
 105412042.214    82139264.1514   20059245.464 6  20059244.53744  20059247.27644
      -862.172        -671.813  
 115829721.413    90256932.5044   22041662.394 4  22041661.69142  22041666.35342
     -2119.673       -1651.685  
 113675135.707    88578018.8514   21631651.390 6  21631651.40444  21631655.83544
      2393.546        1865.105  
 116850352.829    91052215.2684   22235877.391 4  22235876.37242  22235882.28342
      1801.936        1404.107  
 08 11 15  5 14  0.0000000  0  4G11G 8G28G32                        
 105438129.888    82159592.2084   20064209.036 6  20064209.00044  20064211.40244
      -876.761        -683.169  
 115893558.437    90306675.6194   22053810.393 5  22053812.25941  22053815.61641
     -2135.861       -1664.338  
 113603487.301    88522188.9514   21618018.827 6  21618017.49543  21618021.06843
      2383.256        1857.087  
 116796517.957    91010266.0294   22225633.502 5  22225632.77042  22225637.32442
      1787.304        1392.709  
 08 11 15  5 14 30.0000000  0  4G11G 8G28G32                        
 105464628.311    82180240.3134   20069251.821 6  20069251.46244  20069254.24444
      -890.555        -693.935  
 115957856.697    90356778.1694   22066045.589 4  22066045.11841  22066050.96341
     -2151.419       -1676.433  
 113532123.248    88466580.6014   21604438.459 6  21604438.10443  21604440.89243
      2373.581        1849.555  
 116743096.601    90968639.0124   22215467.992 5  22215466.90242  22215471.74742
      1773.287        1381.803  
 08 11 15  5 15  0.0000000  0  4G11G 8G28G32                        
 105491544.697    82201214.1294   20074373.861 6  20074373.27644  20074375.73044
      -905.252        -705.394  
 116022622.057    90407244.5944   22078370.820 4  22078370.35141  22078372.47841
     -2167.648       -1689.080  
 113461055.100    88411202.8394   21590913.790 6  21590914.20343  21590917.04143
      2362.883        1841.195  
 116690100.160    90927343.1464   22205381.871 5  22205382.13842  22205387.11342
      1758.351        1370.133  
 08 11 15  5 15 30.0000000  0  3G11G28G32                           
 105518899.628    82222529.6584   20079578.459 5  20079578.20044  20079581.24743
      -918.138        -715.432  
 113390307.134    88356074.5554   21577452.015 5  21577450.41643  21577453.56043
      2353.889        1834.207  
 116637553.293    90886397.5624   22195384.293 5  22195383.62842  22195386.49942
      1744.915        1359.649  
 08 11 15  5 16  0.0000000  0  3G11G28G32                           
 105546677.240    82244174.5554   20084865.621 6  20084864.20444  20084867.28844
      -933.102        -727.093  
 113319867.614    88301186.6424   21564047.019 5  21564047.13543  21564048.75543
      2342.704        1825.488  
 116585443.844    90845792.8034   22185466.049 5  22185466.92342  22185471.09242
      1729.671        1347.791  
 08 11 15  5 16 30.0000000  0  4G11G 8G28G32                        
 105574882.737    82266152.8624   20090232.290 6  20090232.22545  20090234.67944
      -947.077        -737.976  
 116219824.823                    22115891.518 5                                
     -2214.060                  
 113249745.512    88246546.0674   21550703.230 6  21550703.26744  21550706.00044
      2332.295        1817.383  
 116533781.196    90805536.2154   22175635.884 6  22175635.23043  22175640.75643
      1714.815        1336.235  
 08 11 15  5 17  0.0000000  0  3G11G28G32                           
 105603489.973    82288444.2264   20095676.309 6  20095676.37944  20095678.28044
      -960.757        -748.640  
 113179918.845    88192135.6724   21537415.427 6  21537414.67043  21537417.82043
      2322.150        1809.457  
 116482542.878    90765610.2984   22165884.494 5  22165883.86943  22165890.29942
      1700.391        1324.959  
 08 11 15  5 17 30.0000000  0  3G11G28G32                           
 105632512.278    82311059.0094   20101199.396 6  20101198.72345  20101200.88144
      -973.099        -758.251  
 113110404.654    88137968.7724   21524186.897 6  21524187.03543  21524190.74943
      2313.046        1802.373  
 116431746.025    90726028.3564   22156219.911 5  22156218.98142  22156224.21742
      1687.049        1314.599  
 08 11 15  5 18  0.0000000  0  3G11G28G32                           
 105661953.141    82333999.9424   20106801.359 6  20106801.50244  20106803.58844
      -989.162        -770.774  
 113041210.889    88084051.5474   21511020.939 6  21511019.95143  21511022.97943
      2300.295        1792.435  
 116381398.362    90686796.4094   22146637.982 5  22146637.67642  22146644.21942
      1669.923        1301.237  
 08 11 15  5 18 30.0000000  0  3G11G28G32                           
 105691824.790    82357276.5594   20112485.477 7  20112484.97944  20112487.64844
     -1002.587        -781.244  
 112972353.534    88030396.4634   21497917.541 7  21497916.57543  21497920.13943
      2289.917        1784.345  
 116331515.672    90647926.8234   22137145.438 6  22137144.60642  22137151.55942
      1655.303        1289.836  
 08 11 15  5 19  0.0000000  0  3G11G28G32                           
 105722111.127    82380876.3134   20118248.713 6  20118248.21144  20118251.07444
     -1016.137        -791.805  
 112903819.997    87976993.7204   21484876.387 6  21484875.55444  21484879.06844
      2279.321        1776.088  
 116282085.305    90609409.7194   22127740.828 5  22127739.31842  22127745.34942
      1640.428        1278.237  
 08 11 15  5 19 30.0000000  0  4G11G28G32G17                        
 105752813.432    82404800.1864   20124090.833 7  20124089.99944  20124093.15344
     -1029.739        -802.399  
 112835616.207    87923847.9244   21471897.849 7  21471896.78444  21471899.41744
      2268.491        1767.650  
 116233113.429    90571249.8224   22118419.918 6  22118419.07142  22118425.88942
      1625.342        1266.500  
 122715142.691                    23351915.009 4                                
      2446.389                  
 08 11 15  5 20  0.0000000  0  4G11G28G32G17                        
 105783924.260    82429042.4214   20130010.838 7  20130010.62144  20130013.30044
     -1044.892        -814.209  
 112767738.992    87870956.6024   21458981.168 7  21458980.16544  21458983.89644
      2256.062        1757.978  
 116184596.212    90533444.2354   22109188.428 6  22109187.24242  22109193.45542
      1608.604        1253.445  
 122641798.034                    23337958.253 5                                
      2442.717                  
 08 11 15  5 20 30.0000000  0  4G11G28G32G17                        
 105815459.117    82453615.0444   20136012.326 6  20136012.03944  20136014.39644
     -1057.961        -824.388  
 112700207.646    87818334.7854   21446129.312 6  21446128.90044  21446132.28644
      2245.504        1749.728  
 116136552.841    90496007.8784   22100045.723 5  22100045.35342  22100050.40342
      1593.775        1241.881  
 122568531.406                    23324016.340 4                                
      2441.146                  
 08 11 15  5 21  0.0000000  0  3G11G28G32                           
 105847408.853    82478510.9524   20142091.842 7  20142091.77044  20142094.09244
     -1071.429        -834.879  
 112633016.822    87765978.3044   21433343.609 7  21433343.64644  21433346.81044
      2234.436        1741.127  
 116088977.877    90458936.5154   22090992.351 5  22090992.52642  22090996.79642
      1578.504        1230.023  
 08 11 15  5 21 30.0000000  0  3G11G28G32                           
 105879758.851    82503718.7494   20148248.227 7  20148247.78846  20148250.08145
     -1084.929        -845.403  
 112566156.097    87713879.0424   21420620.681 7  21420620.19844  21420623.52745
      2223.245        1732.394  
 116041860.600    90422221.7864   22082024.586 6  22082025.07643  22082031.41643
      1562.979        1217.894  
 08 11 15  5 22  0.0000000  0  3G11G28G32                           
 105912502.247    82529233.1014   20154478.983 7  20154479.03844  20154481.67844
     -1098.917        -856.302  
 112499622.390    87662034.6084   21407959.658 7  21407959.11044  21407961.98644
      2211.400        1723.165  
 115995197.694    90385861.0884   22073146.749 4  22073145.22642  22073150.00042
      1546.976        1205.434  
 08 11 15  5 22 30.0000000  0  3G11G28G32                           
 105945657.015    82555067.9934   20160788.371 7  20160788.14544  20160790.76444
     -1111.045        -865.758  
 112433437.858    87610462.2634   21395365.650 7  21395364.70144  21395368.04044
      2201.265        1715.255  
 115949011.237    90349871.6524   22064357.112 5  22064356.22441  22064361.67341
      1532.557        1194.186  
 08 11 15  5 23  0.0000000  0  3G11G28G32                           
 105979217.610    82581219.0984   20167175.026 6  20167174.46045  20167177.04245
     -1126.194        -877.552  
 112367600.978    87559160.8034   21382837.144 6  21382836.83944  21382839.34244
      2187.958        1704.897  
 115903299.296    90314251.9394   22055657.466 5  22055657.85241  22055663.31541
      1515.021        1180.531  
 08 11 15  5 23 30.0000000  0  2G11G28                              
 106013184.187    82607686.5614   20173638.597 7  20173638.61744  20173640.38844
     -1138.861        -887.407  
 112302116.139    87508133.6624   21370375.192 7  21370375.80444  21370377.90244
      2177.021        1696.393  
 08 11 15  5 24  0.0000000  0  2G11G28                              
 106047546.649    82634462.5054   20180177.689 7  20180177.02044  20180179.64744
     -1151.758        -897.468  
 112236977.028    87457375.9374   21357980.329 7  21357979.94044  21357982.62644
      2165.733        1687.583  
 08 11 15  5 24 30.0000000  0  2G11G28                              
 106082300.679    82661543.5794   20186791.260 7  20186790.34744  20186793.26044
     -1165.012        -907.799  
 112172184.174    87406888.0114   21345650.553 7  21345650.25044  21345653.44244
      2153.904        1678.368  
 08 11 15  5 25  0.0000000  0  2G11G28                              
 106117439.061    82688924.1224   20193478.077 6  20193477.60045  20193479.93645
     -1177.870        -917.815  
 112107733.760    87356666.9174   21333385.925 6  21333384.97744  21333388.80544
      2142.346        1669.366  
 08 11 15  5 25 30.0000000  0  3G11G28G17                           
 106152986.993    82716623.8104   20200242.188 7  20200242.07545  20200244.38145
     -1191.601        -928.512  
 112043654.773    87306735.2614   21321191.785 7  21321191.22444  21321195.18744
      2129.872        1659.640  
 121839400.677                    23185265.226 5                                
      2419.188                  
 08 11 15  5 26  0.0000000  0  3G11G28G17                           
 106188927.947    82744629.7474   20207081.606 7  20207081.09745  20207083.71845
     -1203.891        -938.093  
 111979935.704    87257084.0504   21309066.684 7  21309066.20345  21309069.45345
      2118.597        1650.858  
 121766856.398    94883265.6734   23171461.328 5  23171462.53342  23171464.74842
      2417.670        1883.908  
 08 11 15  5 26 30.0000000  0  3G11G28G17                           
 106225268.337    82772946.9254   20213996.737 7  20213996.98545  20213999.19845
     -1218.060        -949.137  
 111916586.229    87207720.8344   21297010.964 6  21297009.99744  21297014.43944
      2105.373        1640.551  
 121694387.804    94826796.7224   23157667.653 5  23157669.91342  23157673.98542
      2414.244        1881.247  
 08 11 15  5 27  0.0000000  0  3G11G28G17                           
 106261995.030    82801565.1234   20220985.621 6  20220985.47744  20220987.96444
     -1231.004        -959.238  
 111853597.299    87158638.5654   21285024.760 6  21285023.85944  21285026.99244
      2093.234        1631.083  
 121621984.023    94770378.2354   23143891.307 5  23143890.46842  23143896.07842
      2412.056        1879.488  
 08 11 15  5 27 30.0000000  0  3G11G28G17                           
 106299112.362    82830487.7184   20228049.216 7  20228048.58545  20228051.23645
     -1243.796        -969.190  
 111790977.708    87109844.0744   21273109.255 7  21273108.53644  21273111.45744
      2081.093        1621.617  
 121549651.980    94714015.6644   23130127.643 6  23130127.67342  23130131.99242
      2409.816        1877.773  
 08 11 15  5 28  0.0000000  0  3G11G28G17                           
 106336622.246    82859716.1974   20235187.069 7  20235186.48444  20235189.12144
     -1255.744        -978.502  
 111728733.350    87061341.9784   21261264.018 7  21261263.64644  21261266.45244
      2069.636        1612.714  
 121477394.871    94657711.4554   23116377.079 6  23116377.17643  23116382.37643
      2408.487        1876.745  
 08 11 15  5 28 30.0000000  0  3G11G28G17                           
 106374491.863    82889224.9904   20242393.034 7  20242392.50645  20242394.80345
     -1268.884        -988.738  
 111666835.506    87013109.8954   21249484.974 7  21249484.96745  21249487.50845
      2056.863        1602.760  
 121405181.964    94601441.6954   23102635.570 6  23102635.31043  23102640.14243
      2405.798        1874.653  
 08 11 15  5 29  0.0000000  0  3G11G28G17                           
 106412744.859    82919032.5414   20249671.942 7  20249671.75144  20249673.87144
     -1281.168        -998.309  
 111605311.937    86965169.4614   21237778.274 7  21237777.61444  21237780.76644
      2044.855        1593.388  
 121333038.914    94545226.3894   23088908.524 6  23088907.38243  23088911.88043
      2403.909        1873.178  
 08 11 15  5 29 30.0000000  0  3G11G28G17                           
 106451372.777    82949132.2254   20257022.447 7  20257022.01044  20257024.09944
     -1294.053       -1008.351  
 111544157.996    86917517.0494   21226140.842 7  21226139.50844  21226142.49044
      2032.052        1583.432  
 121260959.285    94489060.4844   23075190.435 6  23075190.00243  23075195.32043
      2401.352        1871.185  
 08 11 15  5 30  0.0000000  0  3G11G28G17                           
 106490387.313    82979533.1854   20264446.178 7  20264446.08844  20264448.09044
     -1307.045       -1018.472  
 111483389.586    86870165.0644   21214576.810 7  21214575.94144  21214579.12644
      2019.028        1573.258  
 121188956.767    94432954.6784   23061489.003 6  23061489.04343  23061493.24943
      2398.604        1869.049  
 08 11 15  5 30 30.0000000  0  3G11G28G17                           
 106529780.586    83010229.2634   20271943.266 7  20271942.16544  20271944.76344
     -1319.434       -1028.131  
 111423003.213    86823110.7574   21203085.917 7  21203085.45844  21203088.23544
      2006.428        1563.441  
 121117026.205    94376904.9324   23047800.755 6  23047801.41444  23047804.59644
      2396.415        1867.313  
 08 11 15  5 31  0.0000000  0  3G11G28G17                           
 106569545.956    83041215.2824   20279510.109 7  20279509.99844  20279511.82044
     -1331.543       -1037.576  
 111362995.859    86776351.7904   21191666.907 7  21191666.21044  21191669.66344
      1994.048        1553.807  
 121045161.970    94320906.8694   23034126.619 6  23034126.46144  23034129.66044
      2394.476        1865.832  
 08 11 15  5 31 30.0000000  0  3G11G28G17                           
 106609685.605    83072492.9404   20287148.184 7  20287147.99544  20287150.16344
     -1343.740       -1047.074  
 111303373.998    86729893.2134   21180321.577 7  21180320.44144  21180324.36945
      1981.393        1543.936  
 120973368.715    94264964.1174   23020464.160 6  23020464.04844  23020467.78144
      2392.377        1864.193  
 08 11 15  5 32  0.0000000  0  5G11G28G32G20G17                     
 106650196.159    83104059.6254   20294857.334 7  20294856.86844  20294860.31244
     -1356.757       -1057.214  
 111244138.771    86683735.9024   21169049.392 7  21169048.51645  21169052.45045
      1967.810        1533.356  
 115163378.497    89737701.3594   21914859.099 6  21914859.2654   21914863.3584 
      1220.989         951.414  
 115739465.485    90186599.1844   22024485.556 6  22024484.37642  22024490.26241
      2682.343        2090.134  
 120901645.129    94209075.6404   23006816.265 7  23006816.33644  23006820.61044
      2389.416        1861.872  
 08 11 15  5 32 30.0000000  0  5G11G28G32G20G17                     
 106691092.733    83135927.0884   20302639.347 7  20302638.80644  20302641.95844
     -1368.994       -1066.759  
 111185308.431    86637894.1024   21157854.215 7  21157853.57545  21157856.95545
      1954.845        1523.251  
 115127012.876    89709364.5444   21907938.803 6  21907938.84542  21907942.75842
      1204.040         938.208  
 115659183.671    90124041.9644   22009207.218 6  22009206.71242  22009211.98042
      2670.422        2080.833  
 120830008.262    94153254.7604   22993184.696 7  22993184.90844  22993187.29644
      2387.068        1860.040  
 08 11 15  5 33  0.0000000  0  5G11G28G32G20G17                     
 106732344.679    83168071.4674   20310489.540 7  20310489.11645  20310492.61245
     -1381.314       -1076.353  
 111126857.060    86592347.5904   21146730.965 7  21146730.21045  21146734.79845
      1941.716        1513.018  
 115091144.539    89681415.2334   21901113.416 6  21901112.90242  21901118.22742
      1186.971         924.898  
 115579248.686    90061754.9754   21993997.348 6  21993995.60243  21994000.24743
      2658.338        2071.439  
 120758429.685    94097479.2724   22979563.352 6  22979563.76244  22979567.35345
      2384.621        1858.144  
 08 11 15  5 33 30.0000000  0  5G11G28G32G20G17                     
 106773955.120    83200495.1834   20318407.626 7  20318407.47845  20318411.13545
     -1393.488       -1085.822  
 111068791.556    86547101.7594   21135681.409 7  21135680.59545  21135684.10545
      1928.524        1502.751  
 115055779.798    89653858.3034   21894384.570 6  21894384.20342  21894388.28142
      1169.891         911.603  
 115499668.168    89999744.2094   21978853.492 6  21978851.47143  21978857.40743
      2646.217        2061.995  
 120686914.576    94041753.2594   22965954.124 6  22965954.12244  22965958.83644
      2382.248        1856.285  
 08 11 15  5 34  0.0000000  0  5G11G28G32G20G17                     
 106815934.325    83233206.2554   20326396.749 7  20326396.47945  20326399.33545
     -1406.186       -1095.731  
 111011126.567    86502168.0104   21124707.636 7  21124707.23745  21124711.95445
      1914.706        1491.986  
 115020932.328    89626704.4654   21887752.035 6  21887752.09942  21887757.96942
      1152.182         897.810  
 115420456.998    89938021.2314   21963779.768 7  21963779.00943  21963783.69844
      2633.430        2052.023  
 120615475.330    93986086.3564   22952359.228 7  22952359.81444  22952363.41544
      2379.290        1853.992  
 08 11 15  5 34 30.0000000  0  5G11G28G32G20G17                     
 106858288.080    83266209.1734   20334455.833 7  20334455.89645  20334459.00445
     -1418.284       -1105.152  
 110953871.880    86457553.9874   21113812.713 7  21113812.27545  21113816.65945
      1901.362        1481.585  
 114986611.649    89599961.0894   21881222.400 6  21881221.45542  21881225.21142
      1134.970         884.381  
 115341625.821    89876594.3614   21948778.622 7  21948778.11844  21948782.46244
      2621.080        2042.406  
 120544119.835    93930484.7094   22938780.579 6  22938780.41444  22938785.30744
      2376.852        1852.096  
 08 11 15  5 35  0.0000000  0  5G11G28G32G20G17                     
 106900994.854    83299487.1704   20342583.243 7  20342582.61645  20342585.77445
     -1429.874       -1114.189  
 110897009.711    86413245.8094   21102992.409 7  21102991.86445  21102995.53545
      1888.390        1471.471  
 114952799.446    89573613.9374   21874786.319 6  21874785.47142  21874791.53242
      1118.126         871.281  
 115263157.403    89815450.1704   21933846.377 7  21933845.70644  21933850.66844
      2609.078        2033.054  
 120472828.281    93874932.8854   22925213.720 6  22925214.67443  22925218.77743
      2374.851        1850.527  
 08 11 15  5 35 30.0000000  0  5G11G28G32G20G17                     
 106944065.919    83333049.0344   20350779.580 7  20350778.83345  20350781.57245
     -1441.610       -1123.333  
 110840555.789    86369255.7484   21092249.359 7  21092248.96345  21092253.07745
      1875.105        1461.123  
 114919510.494    89547674.5354   21868451.887 6  21868451.66742  21868455.57842
      1101.031         857.918  
 115185067.759    89754601.1274   21918986.661 7  21918985.53345  21918990.90945
      2596.792        2023.469  
 120401614.498    93819441.6844   22911662.931 6  22911663.62443  22911666.66543
      2372.660        1848.822  
 08 11 15  5 36  0.0000000  0  5G11G28G32G20G17                     
 106987491.663    83366887.2724   20359043.025 8  20359043.02245  20359044.80945
     -1452.353       -1131.693  
 110784504.292    86325579.2654   21081583.481 7  21081582.64245  21081585.69645
      1862.720        1451.477  
 114886738.445    89522137.8764   21862216.483 6  21862216.53942  21862219.37842
      1084.828         845.331  
 115107351.886    89694043.3254   21904198.020 7  21904197.10745  21904202.00745
      2585.335        2014.553  
 120330470.751    93764005.0254   22898123.734 5  22898124.10243  22898128.21943
      2371.354        1847.825  
 08 11 15  5 36 30.0000000  0  5G11G28G32G20G17                     
 107031267.855    83400998.5954   20367373.573 7  20367373.20745  20367375.30545
     -1465.288       -1141.782  
 110728855.297    86282216.4104   21070993.581 7  21070992.76745  21070996.16345
      1847.982        1439.982  
 114854482.706    89497003.5734   21856077.875 6  21856077.62843  21856081.59943
      1066.302         830.904  
 115030010.386    89633777.2624   21889480.461 7  21889479.47445  21889484.08345
      2571.546        2003.798  
 120259395.331    93708621.6354   22884597.848 5  22884598.19243  22884603.19843
      2367.800        1845.029  
 08 11 15  5 37  0.0000000  0  5G11G28G32G20G17                     
 107075388.567    83435378.3804   20375768.896 7  20375768.46045  20375771.44945
     -1476.540       -1150.559  
 110673606.633    86239165.5144   21060480.313 7  21060479.52845  21060482.58045
      1834.800        1429.713  
 114822740.301    89472269.2594   21850038.623 7  21850038.06143  21850040.87743
      1049.365         817.696  
 114953041.675    89573801.6784   21874833.461 7  21874832.52945  21874837.27945
      2559.251        1994.214  
 120188384.078    93653288.2374   22871084.238 5  22871085.91143  22871089.61343
      2365.825        1843.507  
 08 11 15  5 37 30.0000000  0  5G11G28G32G20G17                     
 107119859.757    83470031.2494   20384231.565 7  20384231.03045  20384233.87845
     -1487.847       -1159.353  
 110618768.235    86196434.2854   21050045.207 7  21050044.44745  21050046.29645
      1821.437        1419.309  
 114791520.675    89447942.3334   21844096.631 6  21844096.37343  21844101.54043
      1032.269         804.365  
 114876456.490    89514124.9524   21860259.745 7  21860259.09345  21860264.12845
      2546.782        1984.518  
 120117444.912    93598011.0074   22857585.070 5  22857585.54343  22857591.65242
      2363.799        1841.911  
 08 11 15  5 38  0.0000000  0  5G11G28G32G20G17                     
 107164702.709    83504973.8174   20392765.057 7  20392764.58745  20392767.57945
     -1501.628       -1170.102  
 110564365.843    86154042.8204   21039692.593 7  21039692.43645  21039695.11345
      1805.422        1406.825  
 114760848.400    89424041.9254   21838259.899 6  21838260.29443  21838264.40543
      1012.582         789.011  
 114800280.446    89454767.0444   21845764.395 7  21845763.71944  21845768.16745
      2531.654        1972.716  
 120046601.462    93542808.3624   22844104.658 5  22844104.95443  22844110.01943
      2359.188        1838.315  
 08 11 15  5 38 30.0000000  0  5G11G28G32G20G17                     
 107209905.959    83540197.1344   20401366.673 7  20401366.32945  20401369.12045
     -1512.472       -1178.556  
 110510392.051    86111985.3374   21029421.955 7  21029421.94445  21029424.46645
      1792.251        1396.556  
 114730715.536    89400561.8154   21832525.482 6  21832524.52743  21832530.89443
       995.738         775.887  
 114724506.988    89395722.8504   21831344.813 7  21831344.37344  21831349.21644
      2519.340        1963.111  
 119975844.704    93487673.2724   22830639.970 5  22830638.98543  22830645.53343
      2357.406        1836.938  
 08 11 15  5 39  0.0000000  0  5G11G28G32G20G17                     
 107255459.017    83575693.0264   20410034.918 7  20410033.95845  20410037.82345
     -1523.739       -1187.335  
 110456840.078    86070256.5174   21019231.258 7  21019231.12445  21019233.36645
      1778.508        1385.858  
 114701114.664    89377496.2394   21826892.385 6  21826890.93643  21826897.16643
       978.303         762.316  
 114649130.025    89336987.6054   21817001.047 7  21817000.14744  21817005.00444
      2506.433        1953.066  
 119905166.103    93432599.0534   22817191.299 6  22817190.27543  22817196.40043
      2355.126        1835.177  
 08 11 15  5 39 30.0000000  0  5G11G28G32G20G17                     
 107301332.244    83611438.4034   20418764.204 7  20418763.60045  20418766.95645
     -1534.843       -1195.984  
 110403684.518    86028836.6054   21009116.260 7  21009115.59245  21009118.82045
      1764.788        1375.160  
 114672019.332    89354824.5994   21821355.199 6  21821355.84043  21821360.20543
       960.971         748.805  
 114574124.616    89278541.8694   21802727.974 7  21802727.54444  21802731.72244
      2493.526        1943.009  
 119834538.213    93377564.3534   22803751.590 7  22803752.94144  22803754.99344
      2352.977        1833.491  
 08 11 15  5 40  0.0000000  0  5G11G28G32G20G17                     
 107347571.703    83647469.1684   20427563.574 7  20427563.01145  20427566.43245
     -1547.435       -1205.802  
 110350975.300    85987764.4944   20999085.438 8  20999085.00445  20999087.95645
      1749.477        1363.228  
 114643479.051    89332585.4614   21815924.692 6  21815923.93842  21815928.35642
       942.043         734.065  
 114499541.480    89220425.1484   21788535.227 7  21788534.47944  21788538.81544
      2479.000        1931.686  
 119764009.282    93322606.7554   22790330.722 7  22790329.65644  22790334.66744
      2349.259        1830.585  
 08 11 15  5 40 30.0000000  0  6G11G 8G28G32G20G17                  
 107394130.229    83683748.5534   20436423.386 7  20436422.98545  20436425.81945
     -1557.577       -1213.697  
 119885269.427                    22813405.217 4                                
     -2833.866                  
 110298669.265    85947006.5534   20989131.998 7  20989131.32045  20989134.69845
      1736.447        1353.082  
 114615449.478    89310744.2634   21810590.915 6  21810590.61742  21810595.35242
       925.466         721.134  
 114425337.521    89162603.8854   21774414.419 7  21774413.42544  21774418.70344
      2466.780        1922.173  
 119693533.921    93267690.9224   22776919.375 7  22776920.11244  22776923.99644
      2347.951        1829.564  
 08 11 15  5 41  0.0000000  0  6G11G 8G28G32G20G17                  
 107441034.973    83720297.7114   20445349.586 7  20445348.78545  20445351.63345
     -1568.379       -1222.112  
 119970445.926                    22829624.371 4                                
     -2843.559                  
 110246797.439    85906586.9584   20979261.326 7  20979260.86845  20979263.59745
      1722.645        1342.323  
 114587961.020    89289324.7084   21805360.735 6  21805359.81842  21805363.91342
       908.097         707.621  
 114351544.517    89105102.8774   21760371.828 7  21760370.64844  21760376.44244
      2453.735        1911.989  
 119623141.771    93212839.9084   22763524.703 7  22763524.55144  22763527.01944
      2345.866        1827.948  
 08 11 15  5 41 30.0000000  0  6G11G 8G28G32G20G17                  
 107488271.880    83757105.7014   20454338.260 7  20454337.80045  20454340.79645
     -1580.496       -1231.564  
 120055919.553                    22845888.065 5                                
     -2854.427                  
 110195350.057    85866498.0984   20969470.776 7  20969470.30545  20969473.21145
      1707.398        1330.437  
 114561003.137    89268318.6234   21800229.588 6  21800228.64042  21800235.32842
       889.318         692.952  
 114278153.519    89047915.1264   21746406.300 7  21746404.82644  21746410.64144
      2439.221        1900.686  
 119552821.474    93158044.8874   22750142.868 7  22750142.75944  22750147.38044
      2342.385        1825.236  
 08 11 15  5 42  0.0000000  0  6G11G 8G28G32G20G17                  
 107535852.227    83794181.3084   20463392.293 7  20463391.99145  20463394.82245
     -1592.954       -1241.273  
 120141722.672                    22862212.262 5                                
     -2865.637                  
 110144342.596    85826752.0294   20959764.468 8  20959764.26745  20959767.48945
      1691.653        1318.169  
 114534590.092    89247737.0644   21795203.425 6  21795203.40742  21795207.23542
       870.074         678.002  
 114205180.114    88991052.7944   21732519.930 7  21732518.66244  21732524.31344
      2424.205        1888.990  
 119482586.071    93103316.0514   22736777.368 7  22736777.42444  22736779.64644
      2338.521        1822.223  
 08 11 15  5 42 30.0000000  0  5G11G28G32G20G17                     
 107583766.596    83831517.1784   20472510.153 7  20472509.96445  20472512.66345
     -1603.165       -1249.219  
 110093769.181    85787344.1844   20950140.610 7  20950140.05945  20950142.74545
      1678.055        1307.577  
 114508715.585    89227575.1564   21790278.519 5  21790277.90842  21790285.06142
       853.001         664.671  
 114132619.089    88934511.8024   21718711.985 7  21718711.06544  21718716.29144
      2411.330        1878.962  
 119412428.050    93048647.4854   22723427.009 7  22723427.79244  22723430.59944
      2336.844        1820.911  
 08 11 15  5 43  0.0000000  0  5G11G28G32G20G17                     
 107631997.576    83869099.7664   20481688.290 7  20481687.59945  20481690.10645
     -1613.771       -1257.487  
 110043616.398    85748264.0904   20940597.332 8  20940596.59945  20940599.66445
      1663.907        1296.550  
 114483364.936    89207821.4384   21785454.913 5  21785454.39942  21785460.97642
       835.476         651.029  
 114060457.566    88878282.1054   21704979.959 7  21704979.29444  21704984.19444
      2397.883        1868.477  
 119342332.565    92994027.6714   22710088.260 7  22710088.25944  22710091.36844
      2334.631        1819.192  
 08 11 15  5 43 30.0000000  0  5G11G28G32G20G17                     
 107680584.291    83906959.5414   20490933.877 7  20490933.17545  20490935.50145
     -1625.482       -1266.599  
 109993927.380    85709545.3844   20931141.723 7  20931141.36045  20931144.15445
      1648.524        1284.569  
 114458580.687    89188509.0814   21780738.265 5  21780736.94842  21780744.08842
       816.671         636.358  
 113988739.174    88822397.6924   21691332.475 7  21691331.73545  21691336.46445
      2383.174        1857.022  
 119272340.903    92939488.7524   22696769.103 7  22696770.77744  22696771.18444
      2331.302        1816.591  
 08 11 15  5 44  0.0000000  0  5G11G28G32G20G17                     
 107729498.387    83945074.4394   20500242.021 7  20500241.18545  20500244.05845
     -1636.358       -1275.087  
 109944677.757    85671169.0634   20921769.697 7  20921769.18045  20921772.00045
      1633.855        1273.129  
 114434337.386    89169618.2084   21776125.047 5  21776123.02742  21776130.31842
       798.663         622.322  
 113917440.232    88766840.1004   21677764.555 7  21677763.87344  21677768.71144
      2369.171        1846.107  
 119202426.898    92885010.3544   22683465.381 7  22683465.58944  22683468.50444
      2328.711        1814.577  
 08 11 15  5 44 30.0000000  0  5G11G28G32G20G17                     
 107778743.588    83983447.3294   20509612.798 7  20509612.30144  20509615.15344
     -1646.844       -1283.260  
 109895874.893    85633140.8554   20912483.048 7  20912482.18545  20912485.70745
      1619.448        1261.906  
 114410641.691    89151154.0654   21771616.624 5  21771614.86642  21771621.55242
       780.883         608.472  
 113846568.509    88711615.3744   21664278.142 7  21664277.88044  21664281.77544
      2355.394        1835.361  
 119132596.253    92830596.8994   22670176.539 7  22670177.73544  22670178.99844
      2326.460        1812.822  
 08 11 15  5 45  0.0000000  0  5G11G28G32G20G17                     
 107828310.620    84022071.0004   20519044.973 7  20519044.65844  20519047.25344
     -1658.583       -1292.411  
 109847514.120    85595457.1484   20903280.125 7  20903279.24845  20903282.16945
      1603.641        1249.587  
 114387487.813    89133112.0904   21767209.258 5  21767209.04142  21767215.76042
       761.763         593.556  
 113776120.123    88656720.5384   21650872.335 7  21650871.71044  21650877.13344
      2340.198        1823.521  
 119062842.678    92776243.5004   22656903.267 7  22656903.94144  22656906.42544
      2322.810        1809.982  
 08 11 15  5 45 30.0000000  0  6G11G 8G28G32G20G17                  
 107878204.488    84060949.3474   20528539.099 7  20528538.65844  20528542.37644
     -1668.800       -1300.359  
 120750321.454                    22978016.759 4                                
     -2931.059                  
 109799604.032    85558124.6254   20894163.001 8  20894162.61245  20894164.82645
      1589.239        1238.363  
 114364883.469    89115498.3124   21762908.404 5  21762907.56042  21762914.66042
       744.073         579.808  
 113706103.823    88602162.4104   21637548.721 7  21637546.86944  21637553.46544
      2326.429        1812.807  
 118993172.972    92721955.4664   22643644.750 7  22643644.75244  22643649.15944
      2320.681        1808.330  
 08 11 15  5 46  0.0000000  0  6G11G 8G28G32G20G17                  
 107928425.131    84100082.3184   20538095.530 7  20538095.56044  20538099.05944
     -1678.912       -1308.233  
 120838383.628                    22994779.841 4                                
     -2939.366                  
 109752148.379    85521146.2024   20885132.600 7  20885131.73445  20885135.22245
      1574.784        1227.108  
 114342831.188    89098314.7354   21758712.486 6  21758711.69142  21758717.32842
       726.395         566.024  
 113636523.866    88547944.3154   21624307.535 7  21624305.99144  21624313.09144
      2312.545        1801.990  
 118923589.191    92667734.3554   22630404.435 7  22630404.44544  22630405.56044
      2318.552        1806.664  
 08 11 15  5 46 30.0000000  0  6G11G 8G28G32G20G17                  
 107978965.204    84139464.2054   20547713.248 6  20547712.10844  20547716.47644
     -1690.441       -1317.222  
 120926708.963                    23011589.539 4                                
     -2949.071                  
 109705144.248    85484519.6204   20876187.728 8  20876186.83345  20876189.53745
      1558.787        1214.643  
 114321327.201    89081558.4024   21754619.771 5  21754618.13542  21754626.61842
       707.178         551.069  
 113567377.731    88494064.2794   21611149.906 7  21611149.12144  21611154.57144
      2297.146        1789.994  
 118854086.580    92613576.5174   22617178.021 7  22617177.67344  22617182.65944
      2314.943        1803.851  
 08 11 15  5 47  0.0000000  0  5G11G28G32G20G17                     
 108029828.472    84179097.9474   20557392.324 7  20557392.11944  20557395.49444
     -1700.395       -1324.983  
 109658598.952    85448250.5584   20867330.630 7  20867329.97145  20867333.21645
      1544.227        1203.305  
 114300377.822    89065234.2574   21750633.277 5  21750631.58742  21750639.91042
       689.438         537.237  
 113498673.355    88440528.4484   21598076.345 8  21598075.71044  21598080.24144
      2283.161        1779.093  
 118784670.943    92559486.4294   22603968.384 7  22603968.79944  22603970.24444
      2312.799        1802.181  
 08 11 15  5 47 30.0000000  0  5G11G28G32G20G17                     
 108081022.886    84218989.7214   20567134.522 7  20567134.08845  20567137.41044
     -1712.237       -1334.198  
 109612524.176    85412348.1414   20858562.422 8  20858562.17345  20858565.47645
      1527.710        1190.428  
 114279993.864    89049350.6674   21746754.763 6  21746755.82742  21746759.42642
       669.787         521.926  
 113430423.157    88387346.5324   21585088.417 7  21585088.16144  21585091.81044
      2267.167        1766.617  
 118715352.458    92505472.0434   22590777.789 7  22590777.14844  22590781.64644
      2308.743        1799.026  
 08 11 15  5 48  0.0000000  0  5G11G28G32G20G17                     
 108132536.023    84259129.8444   20576937.539 7  20576937.42345  20576939.40845
     -1722.674       -1342.353  
 109566911.552    85376805.8354   20849883.270 7  20849882.61045  20849885.34045
      1512.406        1178.502  
 114260165.930    89033900.3704   21742982.056 5  21742981.74342  21742987.22542
       651.371         507.547  
 113362619.023    88334512.1794   21572185.143 7  21572185.06944  21572188.84444
      2252.388        1755.106  
 118646121.494    92451525.8774   22577603.772 7  22577604.37144  22577606.00944
      2305.968        1796.854  
 08 11 15  5 48 30.0000000  0  5G11G28G32G20G17                     
 108184383.005    84299530.0994   20586803.786 7  20586803.23445  20586805.40745
     -1734.159       -1351.295  
 109521779.955    85341638.3604   20841294.867 8  20841294.54745  20841297.73045
      1495.930        1165.662  
 114240911.811    89018897.2224   21739317.659 6  21739317.96442  21739324.10342
       631.830         492.326  
 113295280.656    88282040.7874   21559371.001 7  21559370.43544  21559374.66844
      2236.435        1742.668  
 118576994.767    92397660.9294   22564449.111 7  22564449.08144  22564450.54444
      2302.109        1793.856  
 08 11 15  5 49  0.0000000  0  5G11G28G32G20G17                     
 108236541.687    84340173.2384   20596729.136 7  20596729.13845  20596731.33445
     -1743.738       -1358.757  
 109477111.404    85306831.7014   20832795.028 7  20832794.46445  20832797.47145
      1481.290        1154.243  
 114222212.211    89004326.1374   21735758.316 5  21735758.78942  21735764.95142
       614.120         478.529  
 113228389.902    88229918.1764   21546642.089 7  21546641.40644  21546645.01544
      2222.274        1731.641  
 118507952.934    92343862.1454   22551310.971 7  22551311.23344  22551313.37644
      2300.042        1792.229  
 08 11 15  5 49 30.0000000  0  6G11G 8G28G32G20G17                  
 108289020.824    84381066.0774   20606715.471 7  20606714.63645  20606718.05545
     -1755.314       -1367.780  
 121462315.343                    23113499.870 5                                
     -3002.160                  
 109432917.993    85272395.2814   20824384.855 7  20824384.47045  20824387.62645
      1464.477        1141.145  
 114204078.572    88990196.0674   21732307.982 6  21732306.50642  21732314.30142
       594.331         463.109  
 113161959.644    88178154.3984   21534000.909 7  21533999.68944  21534003.39744
      2205.968        1718.925  
 118439006.569    92290137.7334   22538190.499 7  22538190.00144  22538193.05444
      2295.919        1789.028  
 08 11 15  5 50  0.0000000  0  6G11G 8G28G32G20G17                  
 108341813.604    84422203.3134   20616761.313 7  20616761.07545  20616764.09845
     -1765.709       -1375.881  
 121552480.965                    23130659.471 5                                
     -3010.395                  
 109389197.098    85238327.0464   20816065.467 8  20816064.66645  20816068.18045
      1448.715        1128.874  
 114186507.041    88976503.9864   21728963.197 6  21728963.17642  21728970.70242
       575.584         448.512  
 113095987.978    88126747.9564   21521447.287 7  21521445.35143  21521450.09044
      2190.625        1706.978  
 118370151.343    92236484.3294   22525087.852 7  22525088.29644  22525090.04144
      2292.893        1786.675  
 08 11 15  5 50 30.0000000  0  6G11G 8G28G32G20G17                  
 108394919.406    84463584.4664   20626866.725 7  20626866.45645  20626869.86645
     -1774.687       -1382.872  
 121642893.169                    23147866.547 4                                
     -3017.089                  
 109345951.886    85204629.4924   20807835.863 7  20807835.18645  20807838.84745
      1434.257        1117.604  
 114169499.631    88963251.4864   21725727.395 6  21725727.06043  21725734.65343
       558.200         434.972  
 113030478.404    88075701.5814   21508981.167 7  21508980.57744  21508985.35144
      2176.639        1696.072  
 118301389.181    92182903.4514   22512002.097 7  22512001.45544  22512004.44944
      2291.223        1785.377  
 08 11 15  5 51  0.0000000  0  6G11G 8G28G32G20G17                  
 108448327.139    84505200.8804   20637029.126 7  20637029.12644  20637032.61344
     -1784.939       -1390.865  
 121733539.165                    23165115.171 4                                
     -3024.983                  
 109303175.213    85171297.0194   20799695.859 7  20799695.12145  20799698.74345
      1418.407        1105.256  
 114153048.223    88950432.2264   21722597.965 6  21722595.39843  21722603.67743
       539.472         420.371  
 112965424.277    88025010.0724   21496601.849 7  21496601.49644  21496607.05544
      2161.202        1684.058  
 118232711.090    92129388.0694   22498933.499 7  22498933.58444  22498936.24744
      2288.212        1783.021  
 08 11 15  5 51 30.0000000  0  6G11G 8G28G32G20G17                  
 108502041.746    84547056.4304   20647250.945 7  20647250.23345  20647254.71444
     -1795.718       -1399.256  
 121824422.254                    23182413.436 4                                
     -3033.578                  
 109260875.586    85138336.2844   20791646.124 7  20791645.68345  20791649.38445
      1401.873        1092.365  
 114137160.143    88938051.9214   21719573.301 6  21719573.10643  21719580.29343
       520.081         405.263  
 112900834.586    87974680.4774   21484310.924 8  21484310.62544  21484315.94844
      2145.087        1671.494  
 118164124.309    92075943.8524   22485881.317 6  22485879.11244  22485883.98344
      2284.565        1780.181  
 08 11 15  5 52  0.0000000  0  6G11G 8G28G32G20G17                  
 108556068.673    84589155.3304   20657532.451 7  20657531.73644  20657535.04444
     -1806.519       -1407.680  
 121915545.941                    23199755.357 4                                
     -3041.876                  
 109219062.340    85105754.5414   20783689.621 8  20783689.22445  20783691.95345
      1385.217        1079.387  
 114121843.500    88926116.8944   21716659.454 6  21716659.37043  21716665.50743
       500.593         390.090  
 112836719.023    87924720.3364   21472109.778 7  21472109.79244  21472114.01944
      2128.822        1658.835  
 118095636.657    92022576.8864   22472847.561 6  22472847.85944  22472851.28944
      2280.845        1777.277  
 08 11 15  5 52 30.0000000  0  6G11G 8G28G32G20G17                  
 108610387.251    84631481.5094   20667869.351 7  20667868.75845  20667871.05445
     -1815.339       -1414.557  
 122006887.267                    23217134.425 5                                
     -3048.216                  
 109177718.373    85073538.4664   20775822.450 8  20775822.00545  20775824.52145
      1370.388        1067.830  
 114107080.081    88914612.9584   21713851.216 6  21713850.14043  21713856.06943
       482.993         376.360  
 112773061.037    87875116.7404   21459996.080 7  21459994.65644  21459999.70144
      2114.382        1647.566  
 118027229.720    91969272.8344   22459829.606 6  22459829.55144  22459834.34644
      2278.984        1775.822  
 08 11 15  5 53  0.0000000  0  6G11G 8G28G32G20G17                  
 108665016.025    84674049.4024   20678264.909 7  20678264.76744  20678266.28244
     -1826.128       -1422.962  
 122098421.980                    23234554.289 5                                
     -3056.434                  
 109136866.518    85041705.8544   20768048.456 8  20768047.97245  20768051.05945
      1353.491        1054.671  
 114092891.537    88903556.9554   21711150.218 6  21711149.11743  21711155.56543
       463.364         361.061  
 112709883.915    87825887.8244   21447973.541 7  21447972.15144  21447977.11144
      2097.839        1634.684  
 117958924.630    91916048.1064   22446832.424 7  22446833.87544  22446837.14044
      2275.107        1772.806  
 08 11 15  5 53 30.0000000  0  6G11G 8G28G32G20G17                  
 108719929.538    84716839.1464   20688714.486 8  20688714.25845  20688716.61145
     -1835.535       -1430.284  
 122190221.545                    23252021.576 5                                
     -3063.271                  
 109096484.578    85010239.4264   20760363.997 8  20760363.58845  20760366.47945
      1337.840        1042.471  
 114079254.758    88892930.9164   21708555.404 6  21708554.89943  21708560.57943
       445.008         346.758  
 112647166.084    87777016.8284   21436039.248 7  21436038.18044  21436041.69444
      2082.558        1622.764  
 117890698.163    91862884.6694   22433849.696 6  22433849.87044  22433854.57444
      2272.525        1770.798  
 08 11 15  5 54  0.0000000  0  6G11G 8G28G32G20G17                  
 108775145.549    84759864.6184   20699221.697 7  20699221.32345  20699223.85145
     -1844.910       -1437.591  
 122282229.846                    23269535.840 4                                
     -3070.051                  
 109056594.292    84979156.0924   20752773.139 8  20752772.88045  20752775.36845
      1322.108        1030.215  
 114066190.142    88882750.7164   21706069.511 6  21706069.32443  21706073.97043
       426.575         332.397  
 112584929.534    87728520.8404   21424196.233 7  21424195.14244  21424198.35944
      2067.139        1610.757  
 117822570.677    91809798.3584   22420886.488 7  22420887.45344  22420890.04444
      2269.908        1768.759  
 08 11 15  5 54 30.0000000  0  5G11G28G32G20G17                     
 108830653.379    84803117.4714   20709784.776 8  20709784.41245  20709786.85045
     -1854.551       -1445.107  
 109017188.770    84948450.4894   20745274.658 8  20745273.78745  20745276.97545
      1305.984        1017.661  
 114053689.410    88873009.8884   21703690.875 6  21703690.77843  21703696.19743
       407.838         317.797  
 112523167.771    87680394.8024   21412443.021 7  21412442.54143  21412445.44744
      2051.351        1598.470  
 117754533.324    91756782.2524   22407939.074 7  22407939.47944  22407942.94744
      2266.965        1766.470  
 08 11 15  5 55  0.0000000  0  5G11G28G32G20G17                     
 108886452.869    84846597.5854   20720403.130 8  20720403.43645  20720405.15245
     -1864.254       -1452.679  
 108978271.287    84918125.1814   20737868.719 8  20737868.12245  20737871.32245
      1289.655        1004.916  
 114041754.925    88863710.3204   21701419.205 6  21701418.90343  21701425.38343
       388.958         303.060  
 112461884.778    87632641.8334   21400781.264 7  21400780.55743  21400783.25343
      2035.342        1585.956  
 117686588.432    91703838.2064   22395009.242 7  22395009.77244  22395013.29544
      2263.850        1764.036  
 08 11 15  5 55 30.0000000  0  6G11G 8G28G32G20G17                  
 108942546.266    84890306.7314   20731077.635 8  20731077.59845  20731079.51445
     -1874.515       -1460.667  
 122559424.205                    23322277.951 4                                
         0.000                  
 108939848.094    84888185.0324   20730556.895 8  20730556.24045  20730559.65345
      1272.675         991.693  
 114030391.579    88854855.7744   21699257.297 6  21699256.74743  21699261.90543
       369.425         287.853  
 112401086.976    87585266.9544   21389211.595 7  21389211.04143  21389215.60543
      2018.640        1572.958  
 117618740.794    91650969.9234   22382098.565 6  22382097.06644  22382101.44044
      2260.111        1761.126  
 08 11 15  5 56  0.0000000  0  5G11G28G32G20G17                     
 108998914.322    84934229.8894   20741803.707 8  20741803.41345  20741806.04645
     -1884.729       -1468.620  
 108901902.970    84858617.4064   20723335.699 8  20723335.37245  20723338.93745
      1255.605         978.392  
 114019582.117    88846432.8384   21697199.673 6  21697198.95543  21697205.32143
       349.832         272.585  
 112340758.997    87538258.1734   21377730.960 7  21377730.30443  21377735.40943
      2001.837        1559.857  
 117550973.113    91598163.9694   22369202.760 7  22369202.89544  22369206.19844
      2256.344        1758.180  
 08 11 15  5 56 30.0000000  0  6G11G19G28G32G20G17                  
 109055563.390    84978372.0234   20752583.387 7  20752583.19645  20752586.43845
     -1892.522       -1474.693  
 127459822.705                    24254793.183 4                                
     -2522.506                  
 108864446.424    84829430.4904   20716208.586 7  20716208.13945  20716211.46945
      1240.829         966.890  
 114009335.793    88838448.7054   21695250.341 6  21695250.61843  21695255.91343
       332.584         259.158  
 112280911.732    87491623.9744   21366343.056 7  21366341.81243  21366345.85343
      1987.311        1548.545  
 117483294.494    91545427.3934   22356322.837 6  22356322.56744  22356326.35944
      2254.896        1757.069  
 08 11 15  5 57  0.0000000  0  5G11G28G32G20G17                     
 109112484.481    85022726.1144   20763414.644 7  20763413.89745  20763418.22745
     -1902.812       -1482.708  
 108827472.973    84800620.0084   20709172.659 7  20709172.05245  20709175.61545
      1223.427         953.323  
 113999645.837    88830898.1154   21693406.440 7  21693406.03143  21693411.78243
       312.800         243.753  
 112221539.768    87445360.1274   21355045.003 7  21355043.93243  21355047.42743
      1970.184        1535.220  
 117415698.417    91492755.1254   22343459.871 7  22343459.02644  22343464.19844
      2250.898        1753.951  
 08 11 15  5 57 30.0000000  0  5G11G28G32G20G17                     
 109169669.027    85067285.5064   20774296.497 7  20774296.09145  20774299.86845
     -1911.018       -1489.114  
 108790977.784    84772182.1954   20702227.885 8  20702227.22145  20702230.29645
      1208.016         941.309  
 113990505.954    88823776.1914   21691667.076 6  21691666.46043  21691672.01543
       295.001         229.866  
 112162638.850    87399463.3494   21343836.512 7  21343836.48343  21343838.19043
      1954.982        1523.365  
 117348178.365    91440142.1174   22330611.419 7  22330611.35444  22330615.99844
      2248.897        1752.382  
 08 11 15  5 58  0.0000000  0  5G11G28G32G20G17                     
 109227122.392    85112054.3624   20785229.479 7  20785229.22145  20785232.37745
     -1919.664       -1495.846  
 108754969.904    84744124.1094   20695376.105 7  20695375.75145  20695378.80745
      1192.036         928.863  
 113981924.017    88817088.9914   21690034.489 6  21690033.72943  21690039.74243
       276.666         215.588  
 112104218.398    87353940.9744   21332719.279 7  21332718.47243  21332720.99043
      1939.230        1511.070  
 117280742.200    91387594.4764   22317779.474 7  22317779.50744  22317781.61144
      2246.387        1750.431  
 08 11 15  5 58 30.0000000  0  5G11G28G32G20G17                     
 109284838.701    85157028.1124   20796212.930 7  20796212.56445  20796215.21445
     -1929.439       -1503.458  
 108719446.670    84716443.6724   20688616.344 8  20688615.82245  20688619.12246
      1174.815         915.440  
 113973896.260    88810833.6324   21688506.464 6  21688506.35443  21688511.63043
       257.161         200.384  
 112046276.714    87308791.6104   21321692.904 7  21321691.51543  21321695.74643
      1922.193        1497.823  
 117213386.399    91335109.4594   22304962.077 7  22304962.14844  22304964.25144
      2242.656        1747.528  
 08 11 15  5 59  0.0000000  0  5G11G28G32G20G17                     
 109342845.671    85202228.3584   20807251.242 7  20807251.04945  20807253.43245
     -1938.554       -1510.566  
 108684439.723    84689165.5224   20681954.616 7  20681954.10145  20681957.51745
      1158.101         902.414  
 113966452.898    88805033.6574   21687090.347 6  21687090.51043  21687094.30143
       238.232         185.624  
 111988845.471    87264040.0234   21310764.517 7  21310763.71443  21310766.73243
      1905.686        1484.961  
 117146141.070    91282710.5274   22292166.251 7  22292166.82044  22292168.80344
      2239.481        1745.047  
 08 11 15  5 59 30.0000000  0  5G11G28G32G20G17                     
 109401134.708    85247648.3944   20818343.554 7  20818343.31445  20818345.03945
     -1948.182       -1518.066  
 108649943.866    84662285.6444   20675390.269 8  20675389.52545  20675393.26645
      1140.796         888.931  
 113959587.517    88799684.0464   21685783.615 6  21685782.80843  21685787.59743
       218.684         170.397  
 111931919.850    87219682.4454   21299931.907 7  21299931.83643  21299933.61843
      1888.548        1471.586  
 117078999.956    91230392.7844   22279389.143 7  22279389.99044  22279391.74544
      2235.781        1742.167  
 08 11 15  6  0  0.0000000  0  5G11G28G32G20G17                     
 109459712.666    85293293.5664   20829491.013 7  20829490.49545  20829491.78245
     -1957.232       -1525.116  
 108615969.721    84635812.2924   20668925.074 8  20668924.90046  20668927.81145
      1123.923         875.783  
 113953309.382    88794792.0344   21684588.512 6  21684589.50043  21684592.77943
       199.635         155.564  
 111875510.888    87175727.4434   21289197.901 7  21289196.36343  21289199.34643
      1871.819        1458.559  
 117011972.699    91178163.7894   22266634.732 7  22266634.06244  22266636.37744
      2232.489        1739.603  
 08 11 15  6  0 30.0000000  0  5G11G28G32G20G17                     
 109518549.508    85339140.4654   20840687.280 7  20840686.80745  20840688.77545
     -1965.146       -1531.280  
 108582490.632    84609724.7034   20662554.256 7  20662553.49345  20662557.17045
      1108.069         863.430  
 113947590.537    88790335.8324   21683500.727 6  21683500.56643  21683506.16843
       181.628         141.536  
 111819592.506    87132154.6954   21278556.869 7  21278555.71043  21278559.22543
      1856.119        1446.335  
 116945031.453    91126001.7934   22253895.629 7  22253896.43145  22253898.79345
      2230.318        1737.906  
 08 11 15  6  1  0.0000000  0  5G11G28G32G20G17                     
 109577652.345    85385194.6314   20851934.093 8  20851934.02045  20851935.91145
     -1973.978       -1538.159  
 108549516.965    84584030.9474   20656279.830 8  20656279.27245  20656281.88545
      1091.215         850.301  
 113942440.133    88786322.5794   21682520.563 6  21682520.73342  21682525.83942
       162.753         126.809  
 111764175.565    87088972.7304   21268011.121 7  21268010.62943  21268015.32143
      1839.372        1433.271  
 116878185.476    91073914.0544   22241175.441 7  22241175.00045  22241180.44245
      2227.129        1735.420  
 08 11 15  6  1 30.0000000  0  5G11G28G32G20G17                     
 109637014.489    85431450.8514   20863230.126 7  20863229.59045  20863232.74545
     -1983.889       -1545.891  
 108517046.086    84558728.9764   20650100.702 8  20650100.08246  20650103.10145
      1073.121         836.195  
 113937853.877    88782748.9124   21681647.835 6  21681648.04742  21681652.47742
       142.631         111.127  
 111709257.433    87046179.4314   21257560.539 7  21257559.71443  21257565.21143
      1821.422        1419.298  
 116811430.958    91021897.5794   22228472.592 7  22228472.14345  22228475.83945
      2222.777        1732.035  
 08 11 15  6  2  0.0000000  0  5G11G28G32G20G17                     
 109696671.396    85477936.7524   20874582.124 7  20874581.65845  20874585.21545
     -1992.676       -1552.738  
 108485116.543    84533848.8144   20644024.289 7  20644023.93045  20644026.88645
      1056.073         822.907  
 113933869.081    88779643.9304   21680888.836 5  21680888.30642  21680892.97042
       123.593          96.319  
 111654877.536    87003805.5264   21247211.742 7  21247210.86143  21247215.73643
      1804.458        1406.051  
 116744805.402    90969981.5694   22215793.573 7  22215794.27144  22215796.40244
      2219.480        1729.462  
 08 11 15  6  2 30.0000000  0  5G11G28G32G20G17                     
 109756581.254    85524619.7544   20885982.837 7  20885982.27045  20885985.79945
     -2001.144       -1559.330  
 108453689.733    84509360.3884   20638044.139 8  20638043.71545  20638046.50245
      1039.217         809.781  
 113930446.033    88776976.6674   21680237.446 6  21680236.63742  21680242.78042
       104.793          81.666  
 111600997.615    86961821.2204   21236958.642 7  21236957.29243  21236963.64144
      1787.703        1393.023  
 116678269.383    90918135.3384   22203133.045 7  22203132.10644  22203136.51044
      2216.419        1727.079  
 08 11 15  6  3  0.0000000  0  5G11G28G32G20G17                     
 109816738.723    85571495.7054   20897430.339 7  20897429.98445  20897433.39145
     -2009.906       -1566.161  
 108422764.015    84485262.4224   20632159.099 8  20632158.63445  20632161.20945
      1021.943         796.318  
 113927581.382    88774744.5164   21679692.391 6  21679691.36942  21679696.93642
        85.643          66.755  
 111547616.089    86920225.2884   21226800.850 7  21226799.98043  21226804.56343
      1770.497        1379.609  
 116611819.920    90866356.5634   22190488.137 7  22190487.77445  22190491.19145
      2212.980        1724.397  
 08 11 15  6  3 30.0000000  0  5G11G28G32G20G17                     
 109877141.174    85618562.5484   20908924.358 7  20908924.21345  20908927.59045
     -2016.645       -1571.420  
 108392340.131    84461555.5014   20626369.862 8  20626369.16145  20626371.61745
      1006.571         784.339  
 113925274.928    88772947.3314   21679252.869 5  21679252.10642  21679258.22642
        68.426          53.325  
 111494734.696    86879019.0584   21216738.031 7  21216736.92843  21216741.32643
      1755.193        1367.682  
 116545457.276    90814645.4454   22177859.206 7  22177859.52044  22177863.29444
      2211.480        1723.236  
 08 11 15  6  4  0.0000000  0  5G11G28G32G20G17                     
 109937811.559    85665838.1834   20920469.350 7  20920468.75945  20920472.25444
     -2025.793       -1578.543  
 108362444.689    84438260.3474   20620680.701 8  20620680.11445  20620682.52245
       988.683         770.400  
 113923551.496    88771604.4364   21678925.556 6  21678924.48542  21678930.31842
        48.743          37.999  
 111442379.902    86838223.1674   21206775.306 7  21206774.47543  21206779.02043
      1737.356        1353.763  
 116479206.474    90763021.4794   22165251.864 7  22165252.19745  22165256.81944
      2207.489        1720.117  
 08 11 15  6  4 30.0000000  0  5G11G28G32G20G17                     
 109998731.637    85713308.3854   20932061.840 7  20932061.20544  20932064.93844
     -2034.591       -1585.408  
 108333062.675    84415365.2774   20615089.763 8  20615089.03845  20615092.09445
       971.037         756.646  
 113922394.708    88770703.0744   21678704.666 6  21678704.76442  21678711.09942
        29.298          22.841  
 111390537.249    86797826.3494   21196910.547 7  21196910.00743  21196912.44843
      1719.758        1340.062  
 116413051.630    90711472.2674   22152663.209 7  22152662.60045  22152666.67345
      2203.783        1717.229  
 08 11 15  6  5  0.0000000  0  5G11G28G32G20G17                     
 110059913.465    85760982.5424   20943704.398 7  20943703.65144  20943707.39744
     -2043.486       -1592.329  
 108304209.379    84392882.1894   20609598.964 8  20609598.49545  20609601.01045
       953.166         742.741  
 113921818.488    88770254.1174   21678595.270 6  21678594.83842  21678600.82842
         9.726           7.587  
 111339222.328    86757840.7104   21187145.505 7  21187145.10243  21187147.48343
      1701.906        1326.172  
 116347007.244    90660009.1334   22140095.870 7  22140095.91845  22140097.83045
      2199.853        1714.176  
 08 11 15  6  5 30.0000000  0  5G11G28G32G20G17                     
 110121342.923    85808849.6564   20955393.476 7  20955393.05044  20955396.98444
     -2051.685       -1598.718  
 108275873.972    84370802.6384   20604207.054 8  20604206.55546  20604209.53246
       935.934         729.302  
 113921810.758    88770248.1454   21678593.939 6  21678594.62042  21678598.49042
        -9.140          -7.141  
 111288424.978    86718258.4214   21177478.640 7  21177477.74643  21177481.74943
      1684.655        1312.711  
 116281061.834    90608623.1324   22127546.539 7  22127547.25145  22127548.98645
      2196.604        1711.638  
 08 11 15  6  6  0.0000000  0  5G11G28G32G20G17                     
 110183026.832    85856915.0434   20967131.481 7  20967130.59444  20967134.95244
     -2060.311       -1605.439  
 108248066.736    84349134.6694   20598915.345 8  20598914.69445  20598917.97345
       918.116         715.419  
 113922380.278    88770691.9484   21678702.247 5  21678702.09342  21678707.37042
       -28.568         -22.271  
 111238155.641    86679087.5544   21167912.281 7  21167912.14043  21167915.04043
      1666.851        1298.855  
 116215224.506    90557321.3334   22115017.499 7  22115017.84445  22115022.06445
      2192.787        1708.666  
 08 11 15  6  6 30.0000000  0  5G11G28G32G20G17                     
 110244947.862    85905165.1974   20978914.499 7  20978913.61644  20978918.00244
     -2068.978       -1612.193  
 108220773.560    84327867.2584   20593721.812 8  20593721.04946  20593724.35345
       900.181         701.439  
 113923511.554    88771573.4784   21678916.988 6  21678919.04242  21678924.98042
       -48.086         -37.471  
 111188400.867    86640317.6234   21158444.506 7  21158443.20943  21158445.86643
      1648.862        1284.829  
 116149480.685    90506092.4204   22102507.338 7  22102507.16845  22102511.42745
      2188.884        1705.619  
 08 11 15  6  7  0.0000000  0  5G11G28G32G20G17                     
 110307127.671    85953617.0044   20990747.283 7  20990746.20344  20990750.23244
     -2076.868       -1618.333  
 108194019.368    84307019.8294   20588630.154 7  20588629.39445  20588633.02645
       882.900         687.975  
 113925228.053    88772911.0594   21679245.395 6  21679243.65342  21679249.84942
       -66.903         -52.128  
 111139186.026    86601968.4474   21149079.589 7  21149078.77943  21149082.69043
      1631.553        1271.351  
 116083854.410    90454955.0894   22090018.838 7  22090019.25645  22090022.44645
      2185.664        1703.116  
 08 11 15  6  7 30.0000000  0  5G11G28G32G20G17                     
 110369558.839    86002264.6634   21002627.447 7  21002626.45644  21002631.03544
     -2085.704       -1625.224  
 108167799.961    84286589.1224   20583640.909 8  20583639.96445  20583643.54545
       864.572         673.686  
 113927523.997    88774700.1544   21679681.313 6  21679681.59642  21679686.28042
       -86.661         -67.547  
 111090506.872    86564036.6904   21139816.006 7  21139814.94543  21139818.21543
      1613.218        1257.060  
 116018340.266    90403905.1294   22077552.291 7  22077551.55245  22077554.95045
      2181.447        1699.827  
 08 11 15  6  8  0.0000000  0  5G11G28G32G20G17                     
 110432240.380    86051107.4204   21014555.809 7  21014555.53444  21014558.93444
     -2093.457       -1631.257  
 108142117.420    84266576.7444   20578753.251 8  20578752.79445  20578756.69845
       847.184         660.146  
 113930400.263    88776941.4394   21680228.767 6  21680229.13441  21680233.06041
      -105.478         -82.185  
 111042366.138    86526524.4594   21130655.122 7  21130654.80543  21130656.47643
      1595.756        1243.470  
 115952939.980    90352943.8934   22065106.990 7  22065106.79945  22065109.75845
      2178.187        1697.289  
 08 11 15  6  8 30.0000000  0  5G11G28G32G20G17                     
 110495158.963    86100134.8884   21026528.539 7  21026528.51444  21026531.76144
     -2101.145       -1637.261  
 108116962.288    84246975.3504   20573966.287 8  20573965.43845  20573969.57045
       829.762         646.569  
 113933845.793    88779626.3274   21680882.957 5  21680883.24841  21680888.61741
      -124.263         -96.844  
 110994754.772    86489424.7484   21121594.636 7  21121593.80943  21121596.26943
      1578.286        1229.820  
 115887643.045    90302063.1874   22052680.981 7  22052681.59445  22052684.55445
      2174.898        1694.721  
 08 11 15  6  9  0.0000000  0  5G11G28G32G20G17                     
 110558321.965    86149352.8084   21038548.494 7  21038547.73344  21038551.07344
     -2108.705       -1643.159  
 108092344.630    84227792.7664   20569282.312 8  20569281.73245  20569284.75945
       812.400         633.034  
 113937869.063    88782761.3604   21681649.739 4  21681645.59141  21681653.83041
      -142.857        -111.339  
 110947683.077    86452745.5414   21112637.417 7  21112636.31243  21112639.23043
      1560.855        1216.247  
 115822458.918    90251270.3854   22040276.639 7  22040275.92945  22040282.06145
      2171.710        1692.234  
 08 11 15  6  9 30.0000000  0  5G11G28G32G20G17                     
 110621724.531    86198757.3964   21050613.807 7  21050613.18244  21050617.17644
     -2117.528       -1650.022  
 108068262.706    84209027.6304   20564699.897 8  20564699.36645  20564702.00445
       793.653         618.427  
 113942466.973    88786344.1904   21682524.411 5  21682522.83741  21682528.92041
      -163.005        -127.019  
 110901149.823    86416485.8964   21103781.912 7  21103781.07743  21103783.59343
      1541.986        1201.551  
 115757385.193    90200563.6204   22027893.353 7  22027893.44345  22027898.70945
      2167.163        1688.695  
 08 11 15  6 10  0.0000000  0  5G11G28G32G20G17                     
 110685364.236    86248346.7714   21062724.383 7  21062723.88644  21062726.74244
     -2125.394       -1656.151  
 108044717.290    84190680.5574   20560218.902 8  20560218.13545  20560221.91445
       775.762         604.488  
 113947638.882    88790374.2734   21683509.791 5  21683510.02041  21683513.83241
      -182.053        -141.875  
 110855155.978    86380646.5834   21095029.196 6  21095027.98443  21095032.08243
      1523.990        1187.505  
 115692421.744    90149942.7784   22015531.026 7  22015532.46245  22015535.39645
      2163.476        1685.826  
 08 11 15  6 10 30.0000000  0  5G11G28G32G20G17                     
 110749251.268    86298128.8674   21074881.389 7  21074880.88844  21074884.11145
     -2133.291       -1662.302  
 108021721.551    84172761.7994   20555843.087 8  20555842.42246  20555845.96045
       757.730         590.437  
 113953396.596    88794860.8504   21684606.275 6  21684605.68541  21684608.27542
      -201.312        -156.887  
 110809715.410    86345238.3844   21086382.186 6  21086380.95943  21086385.72443
      1505.843        1173.379  
 115627581.387    90099417.8524   22003193.156 7  22003192.63345  22003196.62745
      2159.646        1682.841  
 08 11 15  6 11  0.0000000  0  5G11G28G32G20G17                     
 110813353.156    86348078.3854   21087079.842 7  21087079.08945  21087082.50145
     -2140.831       -1668.178  
 107999246.096    84155248.4604   20551566.108 8  20551565.18845  20551568.84645
       739.955         576.591  
 113959709.267    88799779.8284   21685806.378 6  21685805.55442  21685810.63742
      -220.211        -171.566  
 110764798.910    86310238.5714   21077834.925 7  21077834.21242  21077837.20242
      1487.937        1159.420  
 115562834.248    90048965.5564   21990872.330 7  21990871.35445  21990876.23745
      2156.186        1680.137  
 08 11 15  6 11 30.0000000  0  5G11G28G32G20G17                     
 110877701.655    86398220.0694   21099324.647 8  21099324.58245  21099327.99745
     -2149.062       -1674.597  
 107977325.800    84138167.7144   20547394.580 8  20547393.90945  20547396.99845
       721.380         562.106  
 113966610.111    88805157.1444   21687119.762 6  21687118.73542  21687124.20842
      -239.848        -186.876  
 110720441.798    86275674.5844   21069394.369 7  21069393.42543  21069395.68543
      1469.219        1144.841  
 115498214.404    89998612.4554   21978575.275 7  21978575.41045  21978578.94845
      2151.848        1676.762  
 08 11 15  6 12  0.0000000  0  5G11G28G32G20G17                     
 110942295.913    86448553.2544   21111616.677 8  21111616.34645  21111619.69645
     -2157.111       -1680.871  
 107955963.070    84121521.4364   20543329.707 8  20543329.13645  20543331.56145
       702.903         547.714  
 113974099.908    88810993.3754   21688544.088 6  21688542.91342  21688548.95142
      -259.340        -202.090  
 110676646.712    86241548.5934   21061060.694 7  21061059.78443  21061062.50743
      1450.558        1130.324  
 115433723.562    89948359.8644   21966302.913 7  21966303.12045  21966306.57945
      2147.641        1673.487  
 08 11 15  6 12 30.0000000  0  5G11G28G32G20G17                     
 111007099.742    86499049.7254   21123948.633 7  21123948.25745  21123951.09745
     -2163.715       -1686.009  
 107935124.665    84105283.7264   20539364.497 7  20539363.77545  20539366.53445
       685.749         534.347  
 113982143.905    88817261.4484   21690074.948 6  21690073.36342  21690080.33342
      -277.485        -216.236  
 110633380.885    86207834.9694   21052827.098 7  21052827.09543  21052828.52843
      1433.257        1116.819  
 115369327.997    89898181.5044   21954048.558 7  21954048.94545  21954052.94945
      2144.815        1671.288  
 08 11 15  6 13  0.0000000  0  5G11G28G32G20G17                     
 111072128.582    86549721.5444   21136323.323 7  21136323.05745  21136325.45445
     -2170.545       -1691.333  
 107914829.089    84089468.9924   20535502.272 7  20535501.82045  20535504.51745
       668.258         520.726  
 113990759.112    88823974.6334   21691714.153 6  21691713.75842  21691718.91842
      -295.880        -230.567  
 110590662.963    86174548.2974   21044697.022 6  21044695.61542  21044702.43643
      1415.589        1103.050  
 115305046.027    89848091.6604   21941816.115 7  21941816.20245  21941821.34645
      2141.646        1668.818  
 08 11 15  6 13 30.0000000  0  5G11G28G32G20G17                     
 111137345.773    86600540.1354   21148733.592 7  21148733.31545  21148736.18345
     -2178.174       -1697.280  
 107895042.585    84074050.9334   20531736.921 8  20531736.16345  20531738.97645
       649.913         506.428  
 113999910.547    88831105.6784   21693455.906 6  21693456.11642  21693459.35642
      -315.106        -245.543  
 110548459.894    86141662.8544   21036666.912 7  21036665.79543  21036671.75543
      1397.043        1088.610  
 115240843.106    89798063.4274   21929598.412 7  21929597.45045  21929602.94245
      2137.630        1665.691  
 08 11 15  6 14  0.0000000  0  5G11G28G32G20G17                     
 111202792.405    86651537.5024   21161187.669 7  21161186.97745  21161190.76145
     -2184.863       -1702.488  
 107875808.910    84059063.6464   20528076.944 8  20528076.16945  20528079.60845
       632.387         492.771  
 114009640.326    88838687.3444   21695307.206 6  21695306.46442  21695311.71442
      -333.455        -259.829  
 110506815.683    86109212.8324   21028741.538 6  21028740.10442  21028744.57942
      1379.301        1074.769  
 115176762.644    89748130.5994   21917405.088 7  21917404.33645  21917407.50445
      2134.474        1663.224  
 08 11 15  6 14 30.0000000  0  5G11G28G32G20G17                     
 111268462.274    86702708.8144   21173684.519 7  21173683.96845  21173687.06145
     -2193.365       -1709.116  
 107857124.918    84044504.6814   20524521.247 8  20524520.93045  20524524.02145
       612.937         477.617  
 114019943.708    88846715.9634   21697268.884 6  21697268.12642  21697272.32442
      -353.662        -275.582  
 110465727.438    86077196.0424   21020923.707 6  21020922.13942  21020926.87943
      1359.652        1059.467  
 115112800.863    89698290.2504   21905232.775 7  21905233.69345  21905236.78445
      2129.384        1659.267  
 08 11 15  6 15  0.0000000  0  5G11G28G32G20G17                     
 111334385.230    86754077.3394   21186228.974 7  21186228.18545  21186231.20845
     -2200.967       -1715.032  
 107839023.573    84030399.7264   20521077.085 8  20521076.51045  20521079.52945
       594.331         463.118  
 114030852.038    88855215.9664   21699344.099 6  21699343.45041  21699347.95241
      -373.026        -290.660  
 110425228.615    86045638.5624   21013216.885 6  21013215.96242  21013220.48642
      1340.792        1044.778  
 115048990.398    89648567.8194   21893089.838 7  21893089.86645  21893095.42645
      2125.150        1655.958  
 08 11 15  6 15 30.0000000  0  5G11G28G32G20G17                     
 111400518.700    86805609.9214   21198813.166 7  21198812.22544  21198816.16744
     -2208.413       -1720.842  
 107821465.054    84016717.7594   20517736.066 8  20517735.39146  20517738.07646
       575.733         448.627  
 114042324.049    88864155.1894   21701528.192 6  21701527.26041  21701531.98441
      -392.259        -305.647  
 110385279.655    86014509.5294   21005614.780 6  21005613.33242  21005616.98642
      1321.966        1030.103  
 114985291.067    89598931.9974   21880968.674 7  21880967.78045  21880973.96945
      2120.968        1652.699  
 08 11 15  6 16  0.0000000  0  5G11G28G32G20G17                     
 111466877.334    86857317.9504   21211441.132 7  21211440.36244  21211443.90944
     -2215.630       -1726.458  
 107804467.085    84003472.5784   20514501.372 8  20514500.72746  20514503.68346
       557.292         434.259  
 114054375.910    88873546.2294   21703820.219 6  21703819.43241  21703821.62941
      -411.320        -320.517  
 110345898.597    85983823.0144   20998122.372 7  20998121.24742  20998123.06742
      1303.285        1015.551  
 114921720.415    89549396.4354   21868871.105 7  21868871.13845  21868876.51345
      2116.923        1649.550  
 08 11 15  6 16 30.0000000  0  5G11G28G32G20G17                     
 111533441.254    86909185.9434   21224107.822 7  21224107.73744  21224110.74344
     -2222.680       -1731.957  
 107788012.328    83990650.6914   20511370.064 8  20511369.55146  20511372.30946
       538.951         419.961  
 114066988.653    88883374.3504   21706220.099 6  21706220.08141  21706223.85841
      -430.223        -335.257  
 110307068.391    85953565.7724   20990731.975 6  20990731.40943  20990734.46743
      1284.640        1001.005  
 114858260.631    89499947.2644   21856794.783 7  21856794.63545  21856800.19045
      2113.007        1646.489  
 08 11 15  6 17  0.0000000  0  5G11G28G32G20G17                     
 111600236.095    86961233.8854   21236818.570 8  21236818.74644  21236821.37344
     -2229.608       -1737.364  
 107772129.337    83978274.3294   20508347.586 8  20508347.04046  20508349.74246
       520.612         405.671  
 114080189.322    88893660.5614   21708732.424 6  21708731.21941  21708734.39541
      -449.114        -349.990  
 110268818.243    85923760.4804   20983453.540 7  20983452.35042  20983453.96042
      1266.052         986.534  
 114794939.868    89450606.4064   21844745.966 7  21844745.33145  21844749.56245
      2109.072        1643.438  
 08 11 15  6 17 30.0000000  0  5G11G28G32G20G17                     
 111667211.907    87013422.8354   21249563.562 7  21249563.23144  21249566.74544
     -2235.827       -1742.198  
 107756770.618    83966306.4964   20505424.798 8  20505424.01846  20505427.19246
       502.910         391.876  
 114093929.052    88904366.8634   21711347.298 6  21711347.80441  21711350.55041
      -467.310        -364.107  
 110231100.739    85894370.2264   20976275.784 6  20976274.80742  20976279.83242
      1248.058         972.497  
 114731710.528    89401336.8124   21832714.133 7  21832713.77945  21832716.94945
      2105.806        1640.885  
 08 11 15  6 18  0.0000000  0  5G11G28G32G20G17                     
 111734405.231    87065781.2714   21262349.553 7  21262348.98644  21262352.69944
     -2243.339       -1748.057  
 107741975.778    83954778.0414   20502609.170 8  20502608.37746  20502612.34346
       483.785         376.971  
 114108245.469    88915522.5374   21714071.026 5  21714070.88241  21714073.71841
      -486.765        -379.290  
 110193955.509    85865425.9414   20969207.078 6  20969206.19242  20969210.14942
      1228.646         957.390  
 114668611.632    89352168.8384   21820706.862 7  21820708.35545  21820709.68145
      2101.160        1637.270  
 08 11 15  6 18 30.0000000  0  5G11G28G32G20G17                     
 111801817.112    87118310.0044   21275177.720 7  21275177.77644  21275180.02844
     -2250.612       -1753.724  
 107727748.662    83943691.9734   20499902.113 8  20499901.26046  20499904.76646
       464.841         362.210  
 114123141.211    88927129.6074   21716905.481 6  21716903.99741  21716909.57041
      -506.100        -394.334  
 110157387.298    85836931.2374   20962248.403 6  20962246.63842  20962249.33242
      1209.402         942.411  
 114605646.910    89303105.4324   21808724.207 7  21808726.00745  21808728.34745
      2096.649        1633.750  
 08 11 15  6 19  0.0000000  0  5G11G28G32G20G17                     
 111869443.291    87171005.7294   21288046.713 7  21288046.59744  21288049.25044
     -2258.681       -1760.021  
 107714087.529    83933046.9254   20497302.347 8  20497301.67646  20497304.88346
       445.010         346.762  
 114138612.910    88939185.5144   21719848.780 5  21719848.92941  21719853.91041
      -526.244        -410.046  
 110121394.597    85808885.0094   20955398.672 6  20955399.25342  20955402.77542
      1189.246         926.675  
 114542814.947    89254145.4694   21796767.561 7  21796767.68345  21796772.11945
      2091.260        1629.555  
 08 11 15  6 19 30.0000000  0  5G11G28G32G20G17                     
 111937252.287    87223843.9024   21300949.999 7  21300949.47844  21300953.10844
     -2263.389       -1763.676  
 107700963.413    83922820.3354   20494804.851 8  20494804.30646  20494807.98146
       428.447         333.862  
 114154630.154    88951666.5284   21722897.779 5  21722897.44241  21722903.16441
      -543.050        -423.180  
 110085948.566    85781264.7684   20948654.109 6  20948653.43143  20948656.83843
      1172.346         913.510  
 114480086.335    89205266.0544   21784831.846 7  21784830.87745  21784835.61445
      2089.156        1627.921  
 08 11 15  6 20  0.0000000  0  5G11G28G32G20G17                     
 112005246.226    87276826.1874   21313888.850 7  21313887.90744  21313891.79244
     -2269.391       -1768.356  
 107688381.537    83913016.2724   20492410.757 8  20492410.14846  20492413.31445
       410.486         319.863  
 114171196.127    88964575.0934   21726049.851 5  21726048.70741  21726054.50541
      -561.190        -437.267  
 110051054.772    85754074.8204   20942013.732 6  20942013.26342  20942016.95042
      1154.044         899.253  
 114417465.785    89156470.8324   21772915.716 7  21772914.87445  21772919.45945
      2085.681        1625.204  
 08 11 15  6 20 30.0000000  0  5G11G28G32G20G17                     
 112073446.664    87329969.3754   21326866.877 7  21326866.13244  21326869.48344
     -2276.738       -1774.076  
 107676365.734    83903653.3034   20490124.022 8  20490123.30446  20490126.43446
       391.114         304.766  
 114188333.691    88977929.0694   21729312.046 5  21729312.84241  21729314.64742
      -580.724        -452.494  
 110016737.582    85727334.1914   20935483.644 6  20935482.57643  20935488.25443
      1134.305         883.865  
 114354977.509    89107778.6914   21761024.754 7  21761024.03145  21761028.87345
      2080.774        1621.390  
 08 11 15  6 21  0.0000000  0  5G11G28G32G20G17                     
 112141868.343    87383284.9684   21339887.468 7  21339886.77344  21339889.56144
     -2284.018       -1779.753  
 107664933.551    83894745.1024   20487948.647 8  20487947.76945  20487951.00745
       371.713         289.641  
 114206058.440    88991740.5874   21732683.613 5  21732682.38542  21732689.48142
      -600.252        -467.695  
 109983014.532    85701056.5274   20929065.617 6  20929064.56743  20929069.19843
      1114.554         868.488  
 114292638.855    89059203.1454   21749162.196 7  21749161.88945  21749165.74145
      2075.818        1617.531  
 08 11 15  6 21 30.0000000  0  5G11G28G32G20G17                     
 112210491.664    87436757.6744   21352946.195 7  21352945.72644  21352948.53744
     -2291.173       -1785.334  
 107654067.859    83886278.3374   20485880.633 8  20485880.01945  20485883.46945
       352.341         274.549  
 114224351.784    89005995.1674   21736165.279 5  21736165.15642  21736169.38342
      -619.636        -482.834  
 109949869.034    85675228.8754   20922758.699 6  20922757.58743  20922761.85843
      1094.836         853.124  
 114230432.446    89010730.6304   21737324.082 7  21737324.09945  21737327.56945
      2070.944        1613.723  
 08 11 15  6 22  0.0000000  0  5G11G28G32G20G17                     
 112279296.482    87490371.8174   21366039.840 7  21366039.07844  21366042.55044
     -2297.108       -1789.952  
 107643750.930    83878239.1814   20483917.674 8  20483917.20945  20483919.73545
       334.139         260.362  
 114243194.422    89020677.7494   21739749.734 5  21739748.75542  21739755.71142
      -637.839        -497.020  
 109917283.790    85649837.7964   20916558.059 6  20916557.08543  20916562.31843
      1076.226         838.616  
 114168340.905    88962347.6314   21725508.555 7  21725508.91745  21725511.14544
      2067.206        1610.803  
 08 11 15  6 22 30.0000000  0  5G11G28G32G20G17                     
 112348309.949    87544148.5474   21379172.599 7  21379172.35844  21379174.97444
     -2304.041       -1795.368  
 107634012.405    83870650.7244   20482064.598 8  20482063.88445  20482066.89145
       314.836         245.308  
 114262614.359    89035810.1754   21743445.537 5  21743445.77742  21743451.12442
      -657.079        -512.043  
 109885288.732    85624906.5924   20910470.088 7  20910469.39043  20910472.83143
      1056.539         823.273  
 114106393.707    88914077.1074   21713719.485 7  21713721.15945  21713722.70845
      2062.354        1607.021  
 08 11 15  6 23  0.0000000  0  5G11G28G32G20G17                     
 112417534.943    87598090.0874   21392345.751 7  21392345.21144  21392347.54244
     -2310.383       -1800.297  
 107624857.792    83863517.2624   20480322.651 8  20480321.87145  20480325.18945
       296.035         230.676  
 114282615.418    89051395.4294   21747250.047 5  21747248.76442  21747255.74842
      -675.770        -526.579  
 109853889.385    85600439.5714   20904494.158 6  20904493.04143  20904497.99343
      1037.322         808.299  
 114044596.253    88865923.2564   21701959.180 7  21701960.57245  21701963.53744
      2058.034        1603.664  
 08 11 15  6 23 30.0000000  0  5G11G28G32G20G17                     
 112486932.662    87652166.2224   21405551.405 7  21405550.67244  21405553.30744
     -2316.930       -1805.397  
 107616250.682    83856810.4264   20478684.400 7  20478683.69945  20478687.58546
       276.957         215.807  
 114303159.833    89067404.0534   21751161.304 5  21751160.28042  21751166.50442
      -694.698        -541.313  
 109823049.925    85576408.8244   20898625.934 7  20898625.59044  20898630.18444
      1017.841         793.119  
 113982912.226    88817857.7774   21690220.972 7  21690222.15245  21690225.21445
      2053.404        1600.063  
 08 11 15  6 24  0.0000000  0  5G11G28G32G20G17                     
 112556545.693    87706410.1424   21418797.937 7  21418797.45644  21418800.69144
     -2323.016       -1810.138  
 107608235.856    83850565.1094   20477159.059 7  20477158.15445  20477162.13945
       258.271         201.254  
 114324290.893    89083869.8244   21755182.083 6  21755182.76742  21755186.71442
      -713.124        -555.685  
 109792815.606    85552849.6254   20892872.831 7  20892872.06744  20892876.07344
       998.704         778.227  
 113921386.821    88769915.9174   21678513.555 7  21678514.34645  21678517.15545
      2049.180        1596.760  
 08 11 15  6 24 30.0000000  0  5G11G28G32G20G17                     
 112626347.538    87760801.1834   21432081.268 7  21432080.27944  21432083.86044
     -2329.736       -1815.379  
 107600789.456    83844762.7214   20475742.428 7  20475741.44745  20475745.11045
       238.858         186.126  
 114345982.945    89100772.7404   21759310.643 5  21759309.00842  21759316.76542
      -732.288        -570.587  
 109763162.830    85529743.5674   20887230.599 7  20887230.46744  20887233.81344
       978.840         762.736  
 113859996.107    88722078.9984   21666831.152 7  21666831.39645  21666835.10045
      2044.235        1592.917  
 08 11 15  6 25  0.0000000  0  5G11G28G32G20G17                     
 112696322.495    87815327.1124   21445397.459 7  21445396.76944  21445399.40544
     -2335.966       -1820.225  
 107593898.115    83839392.8444   20474431.024 7  20474430.18345  20474433.73945
       219.878         171.333  
 114368220.970    89118101.0864   21763542.510 6  21763542.21542  21763546.34642
      -750.966        -585.184  
 109734078.147    85507080.1884   20881696.977 7  20881696.44344  20881698.80344
       959.401         747.586  
 113798726.827    88674336.7124   21655172.884 7  21655172.42245  21655175.67245
      2039.669        1589.350  
 08 11 15  6 25 30.0000000  0  5G11G28G32G20G17                     
 112766486.157    87870000.0844   21458748.848 7  21458748.30744  21458751.17044
     -2343.109       -1825.796  
 107587579.911    83834469.5744   20473228.413 7  20473227.62145  20473231.45645
       199.843         155.722  
 114391021.466    89135867.7144   21767882.061 6  21767881.13742  21767885.51542
      -770.606        -600.447  
 109705580.254    85484874.0424   20876273.776 7  20876273.53844  20876275.23144
       938.930         731.632  
 113737597.380    88626703.3934   21643540.438 7  21643540.51745  21643543.56545
      2034.117        1585.023  
 08 11 15  6 26  0.0000000  0  5G11G28G32G20G17                     
 112836831.238    87924814.4144   21472134.800 7  21472134.25844  21472137.37944
     -2348.240       -1829.800  
 107581829.935    83829989.0624   20472134.204 7  20472133.50445  20472136.68245
       181.786         141.648  
 114414377.983    89154067.5804   21772326.294 6  21772325.30842  21772330.40242
      -788.206        -614.193  
 109677664.358    85463121.3974   20870961.457 7  20870960.91344  20870963.91144
       920.450         717.231  
 113676602.808    88579175.1734   21631933.757 7  21631933.83045  21631936.77845
      2030.490        1582.197  
 08 11 15  6 26 30.0000000  0  5G11G28G32G20G17                     
 112907342.016    87979757.8594   21485552.589 7  21485552.46644  21485555.44444
     -2352.445       -1833.076  
 107576634.265    83825940.4834   20471145.377 7  20471144.82945  20471148.11145
       164.577         128.241  
 114438274.914    89172688.5654   21776873.690 6  21776873.83842  21776876.71142
      -804.923        -627.241  
 109650316.674    85441811.5494   20865756.567 6  20865756.06344  20865759.60544
       902.748         703.447  
 113615729.582    88531741.5004   21620349.817 8  21620349.73145  21620353.55145
      2027.715        1580.038  
 08 11 15  6 27  0.0000000  0  5G11G28G32G20G17                     
 112978042.203    88034848.9004   21499005.827 7  21499005.16944  21499007.92744
     -2359.646       -1838.683  
 107572019.284    83822344.3784   20470267.120 7  20470266.43745  20470269.82845
       144.333         112.464  
 114462737.312    89191750.1714   21781528.796 6  21781528.38642  21781532.79842
      -824.648        -642.581  
 109623564.164    85420965.4514   20860665.283 7  20860663.83143  20860668.00743
       882.002         687.270  
 113555004.344    88484423.1604   21608794.545 7  21608793.58845  21608797.91645
      2021.876        1575.479  
 08 11 15  6 27 30.0000000  0  5G11G28G32G20G17                     
 113048916.677    88090075.7514   21512492.501 7  21512491.84244  21512495.09244
     -2365.022       -1842.868  
 107567971.692    83819190.4064   20469497.293 7  20469496.39345  20469499.45145
       125.807          98.038  
 114487750.333    89211240.8524   21786288.699 5  21786287.45742  21786292.74142
      -842.579        -656.541  
 109597394.044    85400573.1684   20855684.051 6  20855682.50543  20855688.20543
       862.971         672.449  
 113494414.461    88437210.2914   21597264.456 8  21597263.82545  21597268.09345
      2017.751        1572.277  
 08 11 15  6 28  0.0000000  0  5G11G28G32G20G17                     
 113119963.675    88145437.0444   21526012.105 7  21526012.54244  21526015.08244
     -2371.086       -1847.598  
 107564492.239    83816479.1304   20468834.445 7  20468833.92745  20468837.27345
       106.522          82.994  
 114513312.816    89231159.7114   21791152.038 5  21791150.86042  21791157.06742
      -861.195        -671.071  
 109571807.072    85380635.2784   20850814.296 6  20850812.93643  20850819.61343
       843.177         657.029  
 113433960.827    88390103.5804   21585760.373 8  21585760.32445  21585764.22345
      2012.853        1568.458  
 08 11 15  6 28 30.0000000  0  5G11G28G32G20G17                     
 113191201.689    88200947.1694   21539569.249 7  21539568.69644  21539571.56044
     -2377.988       -1852.974  
 107561601.575    83814226.6564   20468284.854 7  20468284.16045  20468287.65945
        86.323          67.263  
 114539443.991    89251521.6874   21796124.248 6  21796123.64942  21796128.83542
      -880.719        -686.268  
 109546824.461    85361168.3044   20846060.124 6  20846059.63943  20846063.74843
       822.464         640.884  
 113373664.282    88343119.2804   21574285.626 8  21574285.69345  21574290.28145
      2007.028        1563.924  
 08 11 15  6 29  0.0000000  0  5G11G28G32G20G17                     
 113262621.741    88256599.1824   21553160.184 7  21553159.66344  21553161.72244
     -2384.461       -1858.023  
 107559292.879    83812427.6564   20467845.198 7  20467844.67945  20467848.66345
        66.476          51.802  
 114566135.493    89272320.2834   21801204.933 6  21801204.46543  21801209.04343
      -899.831        -701.152  
 109522439.319    85342166.9084   20841420.479 6  20841419.17443  20841424.85843
       802.087         625.002  
 113313518.340    88296252.3174   21562840.221 8  21562840.19245  21562845.16145
      2001.569        1559.670  
 08 11 15  6 29 30.0000000  0  5G11G28G32G20G17                     
 113334202.966    88312376.7554   21566781.753 7  21566781.91044  21566783.35844
     -2388.078       -1860.839  
 107557547.316    83811067.4664   20467513.513 7  20467512.95845  20467516.51545
        49.445          38.521  
 114593366.582    89293539.3224   21806386.665 6  21806385.16843  21806390.85543
      -916.062        -713.828  
 109498633.511    85323616.9284   20836890.919 6  20836889.90244  20836894.37444
       784.506         611.302  
 113253504.310    88249488.1444   21551420.032 7  21551419.74345  21551424.68745
      1998.905        1557.580  
 08 11 15  6 30  0.0000000  0  5G11G28G32G20G17                     
 113405960.546    88368291.7664   21580436.970 7  21580437.53944  21580438.55644
     -2395.337       -1866.495  
 107556382.124    83810159.5084   20467291.879 7  20467291.07645  20467294.58445
        28.683          22.342  
 114621153.221    89315191.2424   21811674.465 6  21811674.29143  21811677.77743
      -935.955        -729.309  
 109475424.055    85305531.6324   20832474.428 7  20832473.52244  20832477.24544
       763.208         594.708  
 113193640.609    88202841.1154   21540028.680 8  21540028.25345  21540032.93845
      1992.452        1552.562  
 08 11 15  6 30 30.0000000  0  5G11G28G32G20G17                     
 113477884.239    88424336.2054   21594123.417 7  21594123.42844  21594125.83044
     -2399.090       -1869.426  
 107555789.284    83809697.5494   20467179.085 7  20467178.65145  20467181.60145
        11.341           8.836  
 114649485.675    89337268.4834   21817065.868 6  21817065.43143  21817069.49943
      -952.377        -742.118  
 109452803.277    85287905.0624   20828170.087 7  20828170.05244  20828172.98344
       745.312         580.761  
 113133919.354    88156305.0874   21528664.309 7  21528664.07046  21528668.74046
      1989.454        1550.218  
 08 11 15  6 31  0.0000000  0  5G11G28G32G20G17                     
 113549988.589    88480521.4244   21607844.619 7  21607844.37844  21607847.35644
     -2406.114       -1874.896  
 107555785.135    83809694.3034   20467178.313 7  20467177.43345  20467180.78245
        -9.332          -7.266  
 114678378.750    89359782.5674   21822564.060 7  21822563.89844  21822567.74744
      -972.073        -757.461  
 109430787.799    85270750.1544   20823980.816 7  20823979.89444  20823984.06344
       724.094         564.232  
 113074357.548    88109893.3014   21517330.511 8  21517330.23946  21517334.01746
      1983.082        1545.258  
 08 11 15  6 31 30.0000000  0  5G11G28G32G20G17                     
 113622260.729    88536837.3844   21621597.640 6  21621597.58344  21621600.19944
     -2412.010       -1879.479  
 107556358.865    83810141.3564   20467287.439 8  20467286.73445  20467290.00345
       -28.921         -22.529  
 114707820.184    89382723.9464   21828166.698 7  21828165.65244  21828170.84544
      -990.661        -771.945  
 109409367.126    85254058.7284   20819904.522 7  20819903.53744  20819907.96044
       703.922         548.518  
 113014944.808    88063597.6694   21506024.683 8  21506023.92045  21506027.75646
      1977.760        1541.118  
 08 11 15  6 32  0.0000000  0  5G11G28G32G20G17                     
 113694697.444    88593281.5804   21635381.064 6  21635380.55243  21635383.39043
     -2416.660       -1883.105  
 107557509.179    83811037.6904   20467506.232 7  20467505.12945  20467508.80345
       -47.333         -36.880  
 114737807.173    89406090.4394   21833872.805 7  21833872.68944  21833877.84544
     -1008.031        -785.481  
 109388540.599    85237830.2754   20815941.045 7  20815939.57644  20815944.53144
       684.925         533.706  
 112955680.521    88017417.7104   21494746.656 8  21494746.08745  21494750.47145
      1973.612        1537.885  
 08 11 15  6 32 30.0000000  0  6G11G28G32G20G17G 4                  
 113767309.515    88649862.4054   21649197.778 6  21649197.38943  21649200.68443
     -2422.575       -1887.734  
 107559248.697    83812393.1404   20467836.785 7  20467835.92945  20467840.04645
       -67.040         -52.231  
 114768350.650    89429890.5614   21839684.996 7  21839684.63144  21839688.31144
     -1026.627        -799.951  
 109368321.164    85222074.8824   20812093.619 7  20812092.38544  20812096.73344
       664.617         517.892  
 112896578.067    87971363.8564   21483499.748 8  21483500.00746  21483504.06746
      1968.157        1533.627  
 122403180.471                    23292546.617 4                                
         0.000                  
 08 11 15  6 33  0.0000000  0  6G11G28G32G20G17G 4                  
 113840091.182    88706575.3794   21663047.322 6  21663045.86743  21663052.14143
     -2427.854       -1891.829  
 107561573.411    83814204.5944   20468279.417 8  20468279.06446  20468282.34045
       -86.284         -67.228  
 114799444.995    89454119.9444   21845601.908 7  21845602.00044  21845605.89544
     -1044.669        -814.033  
 109348704.897    85206789.4814   20808360.290 7  20808359.44145  20808364.32845
       644.794         502.440  
 112837633.783    87925433.2424   21472283.097 8  21472283.27446  21472287.86546
      1963.136        1529.714  
 122316666.981                    23276085.490 4                                
      2880.209                  
 08 11 15  6 33 30.0000000  0  6G11G28G32G20G17G 4                  
 113913027.755    88763409.0604   21676926.914 6  21676926.95143  21676931.43843
     -2433.961       -1896.598  
 107564471.011    83816462.4524   20468830.982 8  20468830.57646  20468833.74746
      -106.336         -82.860  
 114831076.202    89478767.6564   21851620.973 7  21851620.32944  21851624.78644
     -1063.484        -828.682  
 109329679.532    85191964.5374   20804740.335 7  20804739.26245  20804743.43745
       624.129         486.331  
 112778836.139    87879616.9014   21461093.921 8  21461094.09746  21461098.61046
      1957.272        1525.152  
 122230393.772                    23259668.324 5                                
      2871.869                  
 08 11 15  6 34  0.0000000  0  6G11G28G32G20G17G 4                  
 113986118.493    88820362.8814   21690836.628 6  21690837.90343  21690840.69243
     -2438.876       -1900.429  
 107567942.396    83819167.4164   20469491.937 8  20469491.62946  20469494.02246
      -125.231         -97.585  
 114863243.624    89503833.2034   21857741.710 6  21857741.47744  21857745.77444
     -1081.112        -842.415  
 109311246.493    85177601.1374   20801232.639 7  20801231.47945  20801236.03545
       604.606         471.119  
 112720186.548    87833915.9304   21449933.542 8  21449934.09246  21449937.72046
      1952.553        1521.464  
 122144342.057                    23243292.956 5                                
      2864.809                  
 08 11 15  6 34 30.0000000  0  6G11G28G32G20G17G 4                  
 114059354.016    88877429.5164   21704773.273 6  21704772.75643  21704775.71243
     -2443.004       -1903.632  
 107571979.983    83822313.5824   20470260.258 8  20470259.80546  20470262.60446
      -143.475        -111.797  
 114895938.310    89529309.6014   21863963.184 6  21863962.78043  21863967.71243
     -1098.041        -855.621  
 109293398.368    85163693.5214   20797836.421 7  20797835.66045  20797839.67545
       585.733         456.413  
 112661678.632    87788325.3474   21438800.080 8  21438800.89146  21438803.47345
      1948.441        1518.266  
 122058502.496                    23226953.632 4                                
      2858.208                  
 08 11 15  6 35  0.0000000  0  5G11G28G32G20G17                     
 114132733.407    88934608.2554   21718736.548 6  21718734.76843  21718740.16443
     -2447.833       -1907.398  
 107576584.481    83825901.4924   20471136.548 8  20471135.88146  20471139.24346
      -162.371        -126.520  
 114929159.317    89555196.1164   21870284.840 6  21870283.15043  21870289.66243
     -1115.570        -869.271  
 109276136.106    85150242.4154   20794551.701 7  20794550.67045  20794554.97445
       566.187         441.192  
 112603313.577    87742846.0874   21427693.668 8  21427694.22445  21427696.57345
      1943.649        1514.533  
 08 11 15  6 35 30.0000000  0  5G11G28G32G20G17                     
 114206282.055    88991918.8864   21732731.421 6  21732730.97643  21732735.95043
     -2455.647       -1913.491  
 107581782.741    83829952.0784   20472125.566 8  20472124.98446  20472128.30546
      -184.372        -143.663  
 114962932.118    89581512.6014   21876711.834 6  21876712.04343  21876716.68943
     -1136.152        -885.318  
 109259486.862    85137268.9884   20791383.834 7  20791383.13845  20791386.78045
       543.542         423.539  
 112545119.221    87697499.8314   21416620.124 8  21416620.74546  21416622.30546
      1935.751        1508.380  
 08 11 15  6 36  0.0000000  0  5G11G28G32G20G17                     
 114279995.700    89049358.0774   21746759.696 6  21746758.92843  21746761.59443
     -2458.802       -1915.938  
 107587573.028    83834463.9864   20473227.398 8  20473226.72046  20473230.26446
      -201.852        -157.283  
 114997253.014    89608256.1584   21883243.040 6  21883241.93343  21883247.14143
     -1152.092        -897.723  
 109243449.165    85124772.0874   20788331.706 7  20788330.85545  20788334.96145
       525.426         409.432  
 112487094.077    87652285.4374   21405578.217 8  21405578.57546  21405580.48946
      1932.376        1505.744  
 08 11 15  6 36 30.0000000  0  5G11G28G32G20G17                     
 114353856.212    89106911.7044   21760814.927 6  21760813.93743  21760816.19343
     -2465.013       -1920.787  
 107593938.386    83839423.9984   20474438.389 8  20474437.82246  20474442.04246
      -222.337        -173.254  
 115032103.682    89635412.5324   21889875.454 7  21889875.08343  21889879.09543
     -1171.100        -912.554  
 109228006.267    85112738.6784   20785393.268 7  20785392.52145  20785395.73845
       504.253         392.928  
 112429222.532    87607190.7414   21394565.438 8  21394566.07946  21394568.26146
      1925.902        1500.700  
 08 11 15  6 37  0.0000000  0  5G11G28G32G20G17                     
 114427923.192    89164626.2344   21774908.831 5  21774907.35542  21774911.40842
     -2471.517       -1925.859  
 107600940.159    83844879.9164   20475771.183 8  20475770.50246  20475774.22646
      -243.191        -189.499  
 115067543.964    89663028.3454   21896619.732 7  21896619.15343  21896623.76043
     -1190.347        -927.544  
 109213219.746    85101216.7264   20782579.346 7  20782578.87145  20782581.93045
       482.740         376.157  
 112371566.788    87562264.1994   21383594.047 8  21383593.88245  21383597.09745
      1919.055        1495.371  
 08 11 15  6 37 30.0000000  0  5G11G28G32G20G17                     
 114502132.063    89222451.3224   21789030.279 6  21789029.87042  21789033.49842
     -2475.481       -1928.948  
 107608515.449    83850782.7274   20477212.833 8  20477212.17546  20477215.42046
      -261.579        -203.825  
 115103509.455    89691053.4124   21903463.694 7  21903462.79044  21903467.73844
     -1207.069        -940.578  
 109199027.089    85090157.5154   20779878.244 7  20779877.97745  20779881.43945
       463.680         361.310  
 112314064.834    87517457.4984   21372651.664 8  21372651.47945  21372654.42645
      1914.642        1491.929  
 08 11 15  6 38  0.0000000  0  5G11G28G32G20G17                     
 114576484.496    89280388.2484   21803179.409 6  21803178.25942  21803181.06642
     -2481.934       -1933.977  
 107616667.118    83857134.6704   20478764.239 8  20478763.39946  20478767.04346
      -282.475        -220.104  
 115140001.382    89719488.6744   21910407.605 7  21910406.49244  21910411.52944
     -1226.278        -955.541  
 109185431.508    85079563.5714   20777291.784 7  20777291.10545  20777293.75945
       442.103         344.496  
 112256720.555    87472773.6604   21361738.986 8  21361739.34845  21361742.00845
      1907.704        1486.521  
 08 11 15  6 38 30.0000000  0  5G11G28G32G20G17                     
 114650978.219    89338435.2954   21817355.655 5  21817355.37542  21817359.00442
     -2485.079       -1936.404  
 107625394.742    83863935.4084   20480424.743 8  20480424.43246  20480427.85346
      -300.161        -233.890  
 115177017.993    89748332.7924   21917451.748 7  21917451.83844  21917455.66844
     -1242.248        -967.984  
 109172432.856    85069434.7544   20774817.536 7  20774816.78345  20774820.76545
       423.704         330.165  
 112199534.466    87428213.0814   21350856.888 7  21350856.73145  21350860.06645
      1903.921        1483.576  
 08 11 15  6 39  0.0000000  0  5G11G28G32G20G17                     
 114725613.659    89396592.7594   21831558.842 6  21831559.11043  21831561.95543
     -2490.445       -1940.614  
 107634700.468    83871186.6214   20482195.946 8  20482195.27446  20482198.49446
      -320.086        -249.419  
 115214559.759    89777586.1144   21924595.633 7  21924594.77244  21924599.16544
     -1260.378        -982.118  
 109160033.288    85059772.7724   20772457.457 7  20772456.84845  20772461.11045
       403.077         314.084  
 112142509.728    87383778.2274   21340005.375 8  21340005.08745  21340008.54945
      1897.865        1478.854  
 08 11 15  6 39 30.0000000  0  5G11G28G32G20G17                     
 114800396.141    89454864.8094   21845788.874 6  21845788.61643  21845791.67143
     -2496.268       -1945.150  
 107644590.952    83878893.4874   20484078.099 8  20484077.25846  20484080.77446
      -340.495        -265.317  
 115252631.852    89807252.6874   21931840.452 7  21931839.78444  21931845.13944
     -1278.950        -996.587  
 109148239.699    85050582.9674   20770213.575 7  20770212.65045  20770216.99045
       381.948         297.627  
 112085654.239    87339475.2624   21329185.346 8  21329185.78245  21329189.33545
      1891.299        1473.740  
 08 11 15  6 40  0.0000000  0  6G11G28G32G20G17G 4                  
 114875346.754    89513267.8584   21860051.326 6  21860050.51543  21860053.85543
     -2501.220       -1949.000  
 107655088.744    83887073.5884   20486075.651 8  20486075.02746  20486078.29046
      -360.144        -280.635  
 115291255.134    89837348.7594   21939189.565 7  21939189.47644  21939194.08144
     -1296.706       -1010.425  
 109137074.959    85041883.1954   20768088.776 7  20768088.09645  20768092.80845
       361.575         281.742  
 112028991.106    87295322.1904   21318402.827 8  21318403.42645  21318406.25645
      1885.457        1469.187  
 121129873.044                    23050244.257 5                                
      2769.597                  
