     2.11           OBSERVATION DATA    G (GPS)             RINEX VERSION / TYPE
teqc  2008Feb15                         20081116 00:10:16UTCPGM / RUN BY / DATE
MSXP|IAx86-PII|bcc32 5.0|MSWin95->XP|486/DX+                COMMENT
convertToRinex 1.24 convertToRINEX OPR  16-11-08 00:10 UTC  COMMENT
----------------------------------------------------------- COMMENT
SUWN                                                        MARKER NAME
23903M001                                                   MARKER NUMBER
NGII                NGII                                    OBSERVER / AGENCY
4450241593          TRIMBLE NETRS       Version 1.15        REC # / TYPE / VERS
0220170420          TRM29659.00     DOME                    ANT # / TYPE
 -3062023.5446  4055449.0441  3841819.2109                  APPROX POSITION XYZ
        1.5700        0.0000        0.0000                  ANTENNA: DELTA H/E/N
     1     1                                                WAVELENGTH FACT L1/2
     5    C1    L1    L2    P2    S1                        # / TYPES OF OBSERV
    30.0000                                                 INTERVAL
Forced Modulo Decimation to 30 seconds                      COMMENT
  2008    11    15     0     0    0.0000000     GPS         TIME OF FIRST OBS
     0                                                      RCV CLOCK OFFS APPL
    14                                                      LEAP SECONDS
                                                            END OF HEADER
 08 11 15  0  0  0.0000000  0  9G 3G 6G13G16G19G21G23G25G31
  20936548.876 7 -21757355.95717 -16942771.45259  20936542.85249        51.000
  20636120.954 7 -23077390.20317 -17969555.97959  20636115.04049        52.000
  22839029.678 6  -4205180.48516  -6147746.67957  22839022.73847        43.000
  20623993.948 8 -23123904.89718 -17996338.31759  20623986.48249        53.000
  23619491.918 6  -7434271.37216  -5776082.56057  23619482.86947        44.000
  24078961.964 5  -7514585.06715  -5851081.90457  24078956.16547        42.000
  21499429.313 7 -12071955.42817 -10074258.98958  21499421.24948        48.000
  24428049.498 1     98911.06811                                        31.000
  22006467.000 7 -16212565.21817 -12621107.72258  22006460.59048        51.000
 08 11 15  0  0 30.0000000  0  9G 3G 6G13G16G19G21G23G25G31
  20921979.383 7 -21833918.815 7 -17002430.82349  20921973.61149        50.000
  20627724.624 7 -23121511.577 7 -18003936.26449  20627718.61149        51.000
  22826683.169 6  -4270061.351 6  -6198303.20247  22826676.25847        44.000
  20628389.460 8 -23100804.265 8 -17978337.83049  20628382.35249        53.000
  23598544.681 6  -7544347.694 6  -5861856.33247  23598536.30547        44.000
  24073565.419 5  -7542943.901 5  -5873179.69246  24073559.53546        42.000
  21496407.590 7 -12087834.124 7 -10086632.00948  21496399.26748        48.000
  24410569.888 1      7053.799 1                                        31.000
  22018627.002 7 -16148665.857 7 -12571316.04548  22018620.24248        51.000
 08 11 15  0  1  0.0000000  0  9G 3G 6G13G16G19G21G23G25G31
  20907494.028 7 -21910038.952 7 -17061745.20749  20907487.73449        50.000
  20619422.421 7 -23165140.240 7 -18037932.62449  20619416.27849        51.000
  22814432.313 6  -4334437.559 6  -6248466.46547  22814426.42947        45.000
  20632829.104 8 -23077474.400 8 -17960158.71949  20632822.09049        53.000
  23577630.239 6  -7654254.149 6  -5947497.70947  23577621.94947        44.000
  24068244.778 5  -7570904.036 5  -5894966.80947  24068238.50547        42.000
  21493505.387 7 -12103085.955 7 -10098516.56648  21493496.94548        48.000
  24393093.101 1    -84785.703 1                                        30.000
  22030846.757 7 -16084450.058 7 -12521277.76848  22030840.45748        51.000
 08 11 15  0  1 30.0000000  0  9G 3G 6G13G16G19G21G23G25G31
  20893093.331 7 -21985715.099 7 -17120713.63049  20893086.92849        50.000
  20611213.889 7 -23208275.943 7 -18071544.85649  20611208.14149        52.000
  22802279.007 6  -4398306.798 6  -6298234.71547  22802271.87347        45.000
  20637312.017 8 -23053917.010 8 -17941802.32349  20637304.70349        53.000
  23556748.707 6  -7763988.809 6  -6033005.22047  23556740.43447        44.000
  24063000.618 6  -7598464.031 6  -5916442.08446  24062993.49446        43.000
  21490722.484 7 -12117711.103 7 -10109912.79248  21490713.27148        48.000
  24375620.992 1                                                        29.000
  22043126.767 7 -16019918.302 7 -12470993.30348  22043119.69048        50.000
 08 11 15  0  2  0.0000000  0  9G 3G 6G13G16G19G21G23G25G31
  20878776.535 7 -22060950.709 7 -17179338.75949  20878770.59549        50.000
  20603098.395 7 -23250923.096 7 -18104776.39549  20603092.80549        52.000
  22790220.289 6  -4461671.660 6  -6347609.91947  22790214.18747        46.000
  20641836.952 8 -23030138.104 8 -17923273.30349  20641829.86849        53.000
  23535898.119 6  -7873554.837 6  -6118381.31747  23535890.12147        44.000
  24057831.715 5  -7625627.488 5  -5937608.40346  24057824.74746        42.000
  21488057.658 7 -12131714.489 7 -10120824.52648  21488049.50648        48.000
  24358150.679 1                                                        27.000
  22055465.742 7 -15955076.380 7 -12420467.14648  22055459.49648        50.000
 08 11 15  0  2 30.0000000  0  8G 3G 6G13G16G19G21G23G31
  20864544.344 7 -22135741.185 7 -17237617.04949  20864538.48749        50.000
  20595076.765 7 -23293078.236 7 -18137624.55749  20595070.57249        52.000
  22778259.783 6  -4524527.102 6  -6396588.18047  22778253.10947        45.000
  20646404.604 8 -23006135.542 8 -17904570.03149  20646397.53649        53.000
  23515082.023 6  -7982946.855 6  -6203621.85547  23515074.32647        44.000
  24052738.359 6  -7652389.952 6  -5958462.25946  24052731.65146        43.000
  21485511.559 7 -12145092.824 7 -10131249.21348  21485502.87548        48.000
  22067864.294 7 -15889921.887 7 -12369697.43948  22067857.64048        50.000
 08 11 15  0  3  0.0000000  0  8G 3G 6G13G16G19G21G23G31
  20850397.094 7 -22210084.996 7 -17295547.28249  20850391.42749        50.000
  20587148.493 8 -23334740.709 8 -18170088.81449  20587142.61049        53.000
  22766396.468 6  -4586870.935 6  -6445167.78347  22766389.50147        45.000
  20651014.176 8 -22981910.505 8 -17885693.38249  20651007.13049        53.000
  23494298.850 6  -8092162.786 6  -6288725.17447  23494291.30847        45.000
  24047722.764 6  -7678750.336 6  -5979002.76947  24047715.83947        43.000
  21483084.656 7 -12157845.689 7 -10141186.51248  21483076.62148        49.000
  22080322.469 7 -15824455.155 7 -12318684.41248  22080315.93648        50.000
 08 11 15  0  3 30.0000000  0  8G 3G 6G13G16G19G21G23G31
  20836334.962 7 -22283981.730 7 -17353129.15149  20836329.16749        52.000
  20579313.615 7 -23375910.868 7 -18202169.45949  20579308.24049        52.000
  22754630.165 6  -4648701.799 6  -6493347.70347  22754623.79747        44.000
  20655666.352 8 -22957464.742 8 -17866644.74949  20655659.08349        53.000
  23473549.311 6  -8201201.183 6  -6373690.11647  23473542.06847        44.000
  24042783.597 5  -7704707.251 5  -5999228.90447  24042776.32647        42.000
  21480777.188 7 -12169973.767 7 -10150636.97948  21480768.48148        49.000
  22092839.332 7 -15758677.740 7 -12267429.31848  22092832.81948        50.000
 08 11 15  0  4  0.0000000  0  8G 3G 6G13G16G19G21G23G31
  20822358.705 7 -22357428.032 7 -17410360.03249  20822352.50149        51.000
  20571573.776 7 -23416586.858 7 -18233865.03449  20571567.81649        52.000
  22742962.024 6  -4710016.900 6  -6541125.66747  22742955.82247        44.000
  20660360.203 7 -22932798.100 7 -17847423.99449  20660353.14649        51.000
  23452834.031 6  -8310058.543 6  -6458513.99947  23452826.89347        43.000
  24037920.189 5  -7730258.080 5  -6019138.61646  24037914.28046        41.000
  21478588.405 7 -12181475.512 7 -10159599.38248  21478580.10748        48.000
  22105415.600 7 -15692588.810 7 -12215931.46448  22105409.10548        50.000
 08 11 15  0  4 30.0000000  0  8G 3G 6G13G16G19G21G23G31
  20808468.265 7 -22430422.124 7 -17467238.54649  20808462.37549        52.000
  20563927.359 7 -23456768.057 7 -18265175.05949  20563921.63249        52.000
  22731392.684 6  -4770814.073 6  -6588500.07847  22731385.81647        45.000
  20665095.799 8 -22907911.335 8 -17828031.72649  20665088.65749        53.000
  23432154.047 6  -8418732.460 6  -6543194.93547  23432146.11047        43.000
  24033136.385 6  -7755401.499 6  -6038730.86846  24033129.36746        43.000
  21476518.952 7 -12192350.666 7 -10168073.53748  21476510.86248        48.000
  22118051.207 7 -15626188.503 7 -12164190.99348  22118044.70948        50.000
 08 11 15  0  5  0.0000000  0  8G 3G 6G13G16G19G21G23G31
  20794664.376 7 -22502963.827 7 -17523764.54349  20794657.96349        50.000
  20556375.227 7 -23496454.652 7 -18296099.67049  20556369.62049        51.000
  22719922.894 6  -4831091.622 6  -6635469.61747  22719916.12947        46.000
  20669873.300 7 -22882806.463 7 -17808469.49449  20669866.13449        51.000
  23411509.911 6  -8527221.529 6  -6627731.85247  23411501.41647        45.000
  24028429.452 5  -7780136.644 5  -6058004.98746  24028421.85346        42.000
  21474568.496 7 -12202600.000 7 -10176060.02948  21474560.06248        49.000
  22130745.575 7 -15559478.589 7 -12112209.27048  22130739.25348        48.000
 08 11 15  0  5 30.0000000  0  8G 3G 6G13G16G19G21G23G31
  20780946.583 7 -22575050.495 7 -17579935.97849  20780940.49349        52.000
  20548917.408 7 -23535645.045 7 -18326637.64649  20548911.60449        52.000
  22708551.738 6  -4890846.780 6  -6682032.07847  22708545.27847        46.000
  20674691.989 7 -22857483.029 7 -17788736.95249  20674685.00049        52.000
  23390900.219 6  -8635522.436 6  -6712122.15647  23390892.63647        44.000
  24023800.772 5  -7804460.872 5  -6076958.86546  24023793.38946        42.000
  21472737.476 7 -12212222.224 7 -10183557.88848  21472728.61248        50.000
  22143499.239 7 -15492458.528 7 -12059985.86548  22143492.93048        50.000
 08 11 15  0  6  0.0000000  0  8G 3G 6G13G16G19G21G23G31
  20767315.677 7 -22646681.041 7 -17635751.98049  20767310.04249        52.000
  20541554.553 8 -23574339.520 8 -18356789.18349  20541548.60049        53.000
  22697280.477 6  -4950078.039 6  -6728186.30447  22697272.97947        46.000
  20679552.297 7 -22831942.801 7 -17768835.48749  20679545.12449        52.000
  23370327.895 6  -8743633.672 6  -6796364.66247  23370320.27647        44.000
  24019249.921 5  -7828373.497 5  -6095592.05946  24019243.12946        41.000
  21471025.688 7 -12221218.091 7 -10190567.66148  21471017.20648        50.000
  22156311.685 7 -15425129.327 7 -12007521.57648  22156305.00848        49.000
 08 11 15  0  6 30.0000000  0  8G 3G 6G13G16G19G21G23G31
  20753772.122 8 -22717853.117 8 -17691210.73549  20753766.16049        53.000
  20534285.770 8 -23612536.866 8 -18386553.35349  20534280.16149        53.000
  22686108.489 6  -5008782.771 6  -6773930.26147  22686102.64347        45.000
  20684454.032 8 -22806185.919 8 -17748765.20249  20684446.65649        53.000
  23349791.052 6  -8851552.297 6  -6880457.06047  23349784.07547        45.000
  24014778.331 5  -7851872.107 5  -6113902.64446  24014771.36246        42.000
  21469432.930 7 -12229586.686 7 -10197088.65648  21469424.60348        49.000
  22169182.648 7 -15357491.080 7 -11954816.46548  22169176.14048        50.000
 08 11 15  0  7  0.0000000  0  8G 3G 6G13G16G19G21G23G31
  20740315.764 7 -22788566.011 7 -17746311.69049  20740309.67049        51.000
  20527111.394 7 -23650237.018 7 -18415930.09249  20527105.25149        51.000
  22675038.377 6  -5066959.315 6  -6819262.63147  22675031.23147        46.000
  20689396.102 7 -22780213.816 7 -17728527.21149  20689389.03649        51.000
  23329292.159 6  -8959276.561 6  -6964398.01447  23329284.00447        44.000
  24010385.723 5  -7874955.866 5  -6131889.96246  24010378.52346        42.000
  21467960.218 7 -12237328.296 7 -10203121.07948  21467951.97448        49.000
  22182112.773 7 -15289544.551 7 -11901871.14448  22182106.04848        49.000
 08 11 15  0  7 30.0000000  0  8G 3G 6G13G16G19G21G23G31
  20726947.623 8 -22858817.600 8 -17801053.18849  20726941.39749        53.000
  20520032.115 8 -23687439.008 8 -18444918.66049  20520026.16149        54.000
  22664068.534 6  -5124605.350 6  -6864181.63447  22664061.79547        46.000
  20694379.390 8 -22754026.789 8 -17708121.75549  20694371.95149        53.000
  23308830.094 6  -9066803.771 6  -7048185.41847  23308822.43247        44.000
  24006072.082 6  -7897622.710 6  -6149552.41346  24006065.66646        43.000
  21466606.132 7 -12244442.292 7 -10208664.46448  21466597.69248        50.000
  22195100.856 7 -15221289.834 7 -11848685.67348  22195094.32848        50.000
 08 11 15  0  8  0.0000000  0  8G 3G 6G13G16G19G21G23G31
  20713666.919 7 -22928606.654 7 -17855434.25849  20713660.99449        52.000
  20513047.661 7 -23724142.385 7 -18473518.69449  20513041.66549        51.000
  22653200.171 6  -5181719.098 6  -6908685.85647  22653194.08847        45.000
  20699403.294 7 -22727625.991 7 -17687549.71649  20699396.12849        52.000
  23288406.089 6  -9174131.506 6  -7131817.36347  23288398.69347        43.000
  24001838.541 5  -7919871.342 5  -6166888.99546  24001830.87546        42.000
  21465372.024 7 -12250928.853 7 -10213718.93348  21465363.52448        49.000
  22208147.658 7 -15152727.668 7 -11795260.62048  22208141.77348        49.000
 08 11 15  0  8 30.0000000  0  8G 3G 6G13G16G19G21G23G31
  20700474.612 8 -22997931.778 8 -17909453.82449  20700469.04149        53.000
  20506158.490 8 -23760347.051 8 -18501730.11949  20506152.50749        53.000
  22642433.303 6  -5238298.404 6  -6952773.60847  22642426.72347        46.000
  20704467.542 7 -22701012.482 7 -17666811.92849  20704460.53149        51.000
  23268020.967 6  -9281257.773 6  -7215292.34047  23268013.25947        44.000
  23997684.644 5  -7941700.924 5  -6183899.05446  23997677.10946        42.000
  21464256.981 7 -12256788.164 7 -10218284.63948  21464248.99648        50.000
  22221253.080 7 -15083858.917 7 -11741596.70348  22221247.09948        49.000
 08 11 15  0  9  0.0000000  0  8G 3G 6G13G16G19G21G23G31
  20687371.359 8 -23066791.633 8 -17963110.84349  20687365.16149        54.000
  20499363.730 7 -23796052.558 7 -18529552.58849  20499357.68449        51.000
  22631768.157 6  -5294341.676 6  -6996443.69647  22631762.25547        45.000
  20709572.230 7 -22674187.089 7 -17645909.03149  20709565.32649        51.000
  23247674.290 6  -9388180.573 6  -7298608.75447  23247666.67147        45.000
  23993610.298 5  -7963109.794 5  -6200581.25346  23993603.41546        42.000
  21463261.721 7 -12262020.386 7 -10222361.70048  21463252.68548        49.000
  22234416.908 7 -15014684.006 7 -11687694.18848  22234410.29048        50.000
 08 11 15  0  9 30.0000000  0  8G 3G 6G13G16G19G21G23G31
  20674356.522 8 -23135184.343 8 -18016403.85749  20674350.84949        53.000
  20492664.492 7 -23831258.243 7 -18556985.59049  20492658.39449        52.000
  22621206.660 6  -5349846.409 6  -7039694.14447  22621200.49347        45.000
  20714717.343 7 -22647150.308 7 -17624841.42649  20714710.45849        51.000
  23227367.001 6  -9494897.173 6  -7381764.51247  23227359.14647        46.000
  23989617.088 6  -7984096.010 6  -6216934.16246  23989609.70246        43.000
  21462384.882 7 -12266625.177 7 -10225949.84848  21462376.12148        49.000
  22247638.482 7 -14945203.330 7 -11633553.43048  22247632.41748        50.000
 08 11 15  0 10  0.0000000  0  8G 3G 6G13G16G19G21G23G31
  20661431.123 7 -23203107.879 7 -18069331.27849  20661425.20349        52.000
  20486060.424 7 -23865963.069 7 -18584028.30749  20486054.38249        52.000
  22610747.432 7  -5404810.795 7  -7082523.50847  22610740.80347        48.000
  20719902.136 7 -22619902.834 7 -17603609.63149  20719895.20749        51.000
  23207099.148 6  -9601404.750 6  -7464757.37747  23207091.53047        46.000
  23985704.272 6  -8004657.813 6  -6232956.30646  23985696.99146        43.000
  21461628.532 7 -12270602.111 7 -10229048.76048  21461620.28748        48.000
  22260918.320 7 -14875416.632 7 -11579174.20148  22260912.32848        51.000
 08 11 15  0 10 30.0000000  0  8G 3G 6G13G16G19G21G23G31
  20648595.025 8 -23270561.832 8 -18121892.78849  20648588.84849        53.000
  20479551.122 7 -23900167.743 7 -18610681.29649  20479545.08749        51.000
  22600391.141 6  -5459233.364 6  -7124930.72447  22600384.50547        47.000
  20725127.256 7 -22592446.286 7 -17582214.92849  20725120.40849        50.000
  23186871.556 6  -9707702.134 6  -7547586.47247  23186863.60847        46.000
  23981872.404 5  -8024794.847 5  -6248647.50646  23981864.91246        42.000
  21460990.876 7 -12273952.179 7 -10231659.20548  21460981.67148        48.000
  22274256.363 7 -14805325.771 7 -11524557.97048  22274249.69448        50.000
 08 11 15  0 11  0.0000000  0  8G 3G 6G13G16G19G21G23G31
  20635848.685 7 -23337543.440 7 -18174086.22949  20635843.04649        52.000
  20473138.081 7 -23933870.508 7 -18636943.18449  20473131.78949        51.000
  22590138.802 6  -5513110.766 6  -7166913.12447  22590131.85247        47.000
  20730392.123 7 -22564780.066 7 -17560656.83649  20730384.75649        50.000
  23166684.423 6  -9813785.747 6  -7630248.96947  23166676.58247        45.000
  23978121.182 6  -8044504.401 6  -6264005.58846  23978113.78246        43.000
  21460473.041 7 -12276674.091 7 -10233780.17448  21460464.65848        49.000
  22287652.075 7 -14734929.984 7 -11469704.11748  22287645.77948        49.000
 08 11 15  0 11 30.0000000  0  8G 3G 6G13G16G19G21G23G31
  20623192.554 8 -23404052.813 8 -18225911.71349  20623186.59149        53.000
  20466819.784 7 -23967072.297 7 -18662814.70349  20466814.08749        51.000
  22579990.257 6  -5566442.147 6  -7208470.03947  22579983.01947        47.000
  20735696.217 7 -22536906.131 7 -17538936.90149  20735689.20249        51.000
  23146538.122 6  -9919654.531 6  -7712744.08547  23146530.55547        45.000
  23974452.787 6  -8063786.424 6  -6279030.54646  23974446.22746        43.000
  21460074.197 7 -12278769.457 7 -10235412.94648  21460065.87048        49.000
  22301106.253 7 -14664231.097 7 -11414614.11848  22301099.59448        50.000
 08 11 15  0 12  0.0000000  0  8G 3G 6G13G16G19G21G23G31
  20610626.493 8 -23470087.900 8 -18277367.61649  20610620.62049        53.000
  20460597.116 7 -23999772.437 7 -18688295.33049  20460591.19749        51.000
  22569945.663 6  -5619226.349 6  -7249600.60247  22569938.80447        47.000
  20741039.602 7 -22508825.205 7 -17517055.66449  20741032.75749        51.000
  23126432.924 6 -10025305.984 6  -7795069.85247  23126424.95147        45.000
  23970865.153 6  -8082639.064 6  -6293720.90647  23970857.72847        45.000
  21459794.215 7 -12280238.045 7 -10236557.28448  21459786.31548        49.000
  22314617.018 7 -14593229.401 7 -11359288.13948  22314610.47048        49.000
 08 11 15  0 12 30.0000000  0  8G 3G 6G13G16G19G21G23G31
  20598150.830 8 -23535646.862 8 -18328452.51449  20598145.22449        53.000
  20454469.823 7 -24031970.152 7 -18713384.45949  20454464.84949        51.000
  22560005.896 6  -5671460.176 6  -7290302.28947  22559998.89847        47.000
  20746422.543 7 -22480537.780 7 -17495013.52849  20746415.34949        51.000
  23106370.475 6 -10130737.242 6  -7877224.05147  23106362.82747        46.000
  23967359.314 6  -8101060.548 6  -6308075.31747  23967352.34947        43.000
  21459634.476 7 -12281079.467 7 -10237212.94948  21459625.69948        48.000
  22328185.572 7 -14521924.827 7 -11303726.16348  22328179.46648        49.000
 08 11 15  0 13  0.0000000  0  8G 3G 6G13G16G19G21G23G31
  20585766.322 8 -23600728.323 8 -18379165.33049  20585760.21849        53.000
  20448438.722 7 -24063665.219 7 -18738081.90149  20448432.83249        51.000
  22550171.009 6  -5723142.228 6  -7330574.00447  22550164.19247        46.000
  20751844.627 7 -22452044.514 7 -17472810.98749  20751837.74649        51.000
  23086349.513 6 -10235946.275 6  -7959205.09247  23086341.94547        46.000
  23963936.111 6  -8119049.766 6  -6322092.88646  23963929.45546        43.000
  21459594.287 7 -12281294.297 7 -10237380.34348  21459586.29848        49.000
  22341812.296 7 -14450318.651 7 -11247929.16648  22341805.93948        49.000
 08 11 15  0 13 30.0000000  0  9G 3G 6G13G16G19G21G23G25G31
  20573473.030 8 -23665330.675 8 -18429504.82349  20573466.54549        54.000
  20442503.169 7 -24094856.725 7 -18762386.97149  20442497.80649        51.000
  22540441.034 6  -5774270.630 6  -7370414.33547  22540434.31947        46.000
  20757305.713 7 -22423345.683 7 -17450448.27149  20757298.71049        50.000
  23066372.122 6 -10340930.385 6  -8041010.86947  23066363.55147        46.000
  23960595.018 6  -8136604.633 6  -6335772.00746  23960587.86746        43.000
  21459672.204 7 -12280881.904 7 -10237059.00748  21459663.65648        49.000
  23957935.868 1                                                        31.000
  22355495.058 7 -14378410.582 7 -11191896.93148  22355489.46348        48.000
 08 11 15  0 14  0.0000000  0  9G 3G 6G13G16G19G21G23G25G31
  20561270.458 8 -23729454.105 8 -18479471.12849  20561264.56349        53.000
  20436663.249 7 -24125546.045 7 -18786300.72749  20436657.14449        51.000
  22530817.505 6  -5824843.974 6  -7409822.13847  22530810.31747        47.000
  20762805.820 7 -22394443.874 7 -17427927.38949  20762798.82449        51.000
  23046437.279 6 -10445688.777 6  -8122640.76747  23046430.05647        46.000
  23957337.606 5  -8153725.746 5  -6349113.12246  23957330.54146        42.000
  21459869.556 7 -12279844.399 7 -10236250.57148  21459861.34148        49.000
  23940635.877 1   -141658.037 1                                        32.000
  22369236.687 7 -14306202.782 7 -11135631.14048  22369230.52448        50.000
 08 11 15  0 14 30.0000000  0  9G 3G 6G13G16G19G21G23G25G31
  20549160.169 8 -23793096.434 8 -18529062.55149  20549154.18549        53.000
  20430919.163 7 -24155732.078 7 -18809822.30949  20430913.18949        51.000
  22521299.405 6  -5874860.486 6  -7448796.03747  22521293.37247        46.000
  20768343.881 7 -22365338.942 7 -17405248.23049  20768337.46849        51.000
  23026545.636 6 -10550218.379 6  -8204092.37247  23026537.69147        46.000
  23954162.179 5  -8170410.927 5  -6362114.53446  23954155.56846        42.000
  21460185.801 7 -12278181.123 7 -10234954.51048  21460177.50748        49.000
  23923346.819 1                                                        32.000
  22383034.178 7 -14233695.204 7 -11079131.76448  22383028.15748        49.000
 08 11 15  0 15  0.0000000  0  9G 3G 6G13G16G19G21G23G25G31
  20537140.958 7 -23856255.728 7 -18578277.58349  20537135.59749        51.000
  20425270.781 7 -24185413.788 7 -18832950.90949  20425264.88049        51.000
  22511888.434 6  -5924317.951 6  -7487334.33347  22511881.20847        47.000
  20773921.273 7 -22336030.825 7 -17382410.74649  20773914.62449        50.000
  23006698.110 6 -10654516.292 6  -8285363.46047  23006690.80147        46.000
  23951070.566 5  -8186658.102 5  -6374774.66546  23951063.32346        42.000
  21460621.555 7 -12275891.734 7 -10233170.57648  21460613.32348        49.000
  23906068.577 1   -323312.310 1                                        33.000
  22396888.645 7 -14160887.751 7 -11022398.71748  22396882.76348        49.000
 08 11 15  0 15 30.0000000  0  9G 3G 6G13G16G19G21G23G25G31
  20525214.576 7 -23918931.335 7 -18627115.71949  20525208.37349        52.000
  20419718.242 7 -24214591.868 7 -18855687.07349  20419712.87349        51.000
  22502583.730 6  -5973214.753 6  -7525435.69447  22502577.05947        46.000
  20779536.671 7 -22306520.885 7 -17359415.99949  20779530.29549        51.000
  22986895.824 6 -10758580.893 6  -8366452.74447  22986887.74747        45.000
  23948062.361 6  -8202466.692 6  -6387093.04247  23948055.62547        43.000
  21461176.266 7 -12272977.187 7 -10230899.51448  21461168.19148        50.000
  23888802.665 2   -414048.515 2                                        34.000
  22410800.388 7 -14087781.823 7 -10965433.08548  22410794.15048        49.000
 08 11 15  0 16  0.0000000  0  9G 3G 6G13G16G19G21G23G25G31
  20513379.885 7 -23981122.296 7 -18675576.20049  20513373.67649        52.000
  20414261.941 7 -24243266.216 7 -18878030.72149  20414255.62149        51.000
  22493385.681 6  -6021549.356 6  -7563099.03447  22493379.19347        46.000
  20785190.282 7 -22276810.453 7 -17336265.01949  20785183.27849        50.000
  22967136.785 6 -10862410.174 6  -8447358.66347  22967129.87847        45.000
  23945137.426 5  -8217835.709 5  -6399068.91746  23945130.47646        42.000
  21461849.759 7 -12269438.151 7 -10228141.81948  21461841.53948        50.000
  23871547.076 2   -504722.316 2                                        35.000
  22424768.888 7 -14014378.203 7 -10908235.47948  22424762.36948        48.000
 08 11 15  0 16 30.0000000  0  9G 3G 6G13G16G19G21G23G25G31
  20501637.751 7 -24042826.471 7 -18723657.38149  20501631.88749        51.000
  20408901.300 7 -24271436.185 7 -18899981.34749  20408895.35049        52.000
  22484295.697 6  -6069319.699 6  -7600322.67747  22484288.85947        46.000
  20790882.898 7 -22246899.427 7 -17312957.74049  20790875.38849        51.000
  22947424.679 6 -10966001.326 6  -8528079.02747  22947416.96547        45.000
  23942297.447 6  -8232763.408 6  -6410700.85847  23942290.34847        44.000
  21462641.984 7 -12265274.505 7 -10224897.44348  21462633.76148        49.000
  23854304.722 2   -595331.435 2                                        34.000
  22438793.424 7 -13940677.150 7 -10850806.11948  22438787.61348        49.000
 08 11 15  0 17  0.0000000  0  9G 3G 6G13G16G19G21G23G25G31
  20489988.800 7 -24104043.495 7 -18771358.95249  20489983.01249        51.000
  20403636.693 8 -24299101.895 8 -18921539.04549  20403630.83949        53.000
  22475313.016 6  -6116524.779 6  -7637105.86847  22475305.59247        45.000
  20796612.474 7 -22216789.047 7 -17289495.11749  20796605.19849        50.000
  22927757.843 6 -11069352.447 6  -8608612.36348  22927750.50848        46.000
  23939540.992 6  -8247249.264 6  -6421988.54747  23939533.02847        43.000
  21463553.340 7 -12260487.231 7 -10221167.11648  21463544.94248        50.000
  23837072.491 3   -685874.423 3                                        36.000
  22452874.641 7 -13866679.700 7 -10793145.80248  22452869.28448        48.000
 08 11 15  0 17 30.0000000  0  9G 3G 6G13G16G19G21G23G25G31
  20478432.301 7 -24164771.952 7 -18818679.82649  20478426.77849        52.000
  20398467.776 8 -24326263.529 8 -18942703.95449  20398462.32949        53.000
  22466437.699 6  -6163162.631 6  -7673447.04747  22466431.78847        45.000
  20802379.902 7 -22186480.361 7 -17265877.97349  20802372.87349        50.000
  22908136.312 6 -11172461.914 6  -8688957.39647  22908128.50147        46.000
  23936867.998 6  -8261292.106 6  -6432931.00847  23936861.68447        43.000
  21464582.526 7 -12255076.910 7 -10216951.29548  21464574.10848        51.000
  23819858.135 3   -776349.658 3                                        37.000
  22467012.354 7 -13792386.819 7 -10735255.27448  22467005.74448        48.000
 08 11 15  0 18  0.0000000  0  9G 3G 6G13G16G19G21G23G25G31
  20466969.173 7 -24225010.328 7 -18865618.81649  20466962.88449        51.000
  20393395.608 8 -24352920.287 8 -18963475.45649  20393388.99349        53.000
  22457671.018 6  -6209231.497 6  -7709344.86147  22457665.31847        46.000
  20808185.238 7 -22155973.705 7 -17242106.56349  20808177.91349        50.000
  22888562.185 6 -11275326.796 6  -8769111.84748  22888553.92948        46.000
  23934280.887 5  -8274890.086 5  -6443526.82746  23934273.92046        42.000
  21465730.432 7 -12249043.265 7 -10212249.76048  21465722.49648        50.000
  23802654.757 2   -866754.893 2                                        35.000
  22481206.391 7 -13717798.313 7 -10677134.38148  22481200.49748        49.000
 08 11 15  0 18 30.0000000  0  9G 3G 6G13G16G19G21G23G25G31
  20455600.063 7 -24284756.618 7 -18912174.36049  20455593.71649        52.000
  20388419.161 8 -24379071.483 8 -18983853.01049  20388413.25949        54.000
  22449013.319 6  -6254729.719 6  -7744798.02547  22449006.68347        47.000
  20814028.035 7 -22125268.945 7 -17218180.78249  20814021.06649        50.000
  22869034.804 6 -11377944.207 6  -8849073.44247  22869026.90747        46.000
  23931777.934 6  -8288041.618 6  -6453774.73847  23931771.18347        43.000
  21466997.632 7 -12242386.135 7 -10207062.40548  21466989.33948        51.000
  23785462.941 1   -957087.918 1                                        33.000
  22495456.101 7 -13642914.602 7 -10618783.47548  22495450.00948        49.000
 08 11 15  0 19  0.0000000  0  9G 3G 6G13G16G19G21G23G25G31
  20444324.635 8 -24344010.409 8 -18958346.13949  20444318.71249        53.000
  20383538.649 8 -24404717.532 8 -19003836.94649  20383533.14549        54.000
  22440463.983 6  -6299655.174 6  -7779804.87647  22440457.82847        46.000
  20819908.290 7 -22094367.545 7 -17194101.77749  20819901.26149        51.000
  22849554.874 6 -11480312.480 6  -8928840.93547  22849546.83747        45.000
  23929360.677 6  -8300746.209 6  -6463674.41746  23929353.03846        43.000
  21468382.799 7 -12235106.959 7 -10201390.33548  21468374.65248        50.000
  23768289.213 2  -1047347.427 2  -1584692.50155  23768280.59245        34.000
  22509761.773 7 -13567737.181 7 -10560203.69448  22509755.73748        49.000
 08 11 15  0 19 30.0000000  0  9G 3G 6G13G16G19G21G23G25G31
  20433142.975 7 -24402770.935 7 -19004133.55549  20433136.91049        51.000
  20378754.410 8 -24429859.441 8 -19023428.04649  20378748.53949        54.000
  22432023.905 6  -6344007.149 6  -7814364.86347  22432017.72147        46.000
  20825826.004 7 -22063270.880 7 -17169870.61349  20825818.88149        51.000
  22830122.266 6 -11582430.305 6  -9008413.26747  22830113.54947        46.000
  23927028.370 6  -8313003.419 6  -6473225.47846  23927020.78446        43.000
  21469886.290 7 -12227206.995 7 -10195234.52948  21469877.89948        50.000
  23751126.956 3  -1137532.382 3  -1654966.48145  23751118.85445        36.000
  22524123.065 7 -13492267.306 7 -10501396.03548  22524116.94948        48.000
 08 11 15  0 20  0.0000000  0  9G 3G 6G13G16G19G21G23G25G31
  20422055.151 7 -24461036.769 7 -19049535.49949  20422048.92449        51.000
  20374066.235 8 -24454496.157 8 -19042625.48549  20374059.85249        53.000
  22423694.248 6  -6387784.030 6  -7848476.71447  22423687.43947        46.000
  20831780.729 7 -22031979.365 7 -17145487.62449  20831773.76049        50.000
  22810737.936 6 -11684294.450 6  -9087787.91448  22810729.90648        46.000
  23924780.766 6  -8324811.740 6  -6482426.74547  23924773.44547        43.000
  21471507.374 7 -12218686.208 7 -10188594.98348  21471499.43248        50.000
  23733981.075 4  -1227640.309 4  -1725180.43346  23733971.92546        38.000
  22538540.467 7 -13416505.032 7 -10442360.50448  22538534.26248        48.000
 08 11 15  0 20 30.0000000  0  9G 3G 6G13G16G19G21G23G25G31
  20411061.690 7 -24518807.358 7 -19094551.53049  20411055.56049        52.000
  20369474.074 8 -24478628.218 8 -19061429.68549  20369467.94549        53.000
  22415472.261 6  -6430984.438 6  -7882139.36547  22415466.48147        45.000
  20837772.045 7 -22000493.898 7 -17120953.50149  20837764.93849        50.000
  22791402.727 6 -11785903.754 6  -9166963.98448  22791394.72748        46.000
  23922619.622 6  -8336170.085 6  -6491277.42747  23922612.68047        44.000
  21473247.003 7 -12209545.635 7 -10181472.47148  21473238.48148        51.000
  23716848.110 4  -1317669.909 4  -1795333.37846  23716841.05146        39.000
  22553013.170 7 -13340451.645 7 -10383098.16448  22553007.00648        48.000
 08 11 15  0 21  0.0000000  0  9G 3G 6G13G16G19G21G23G25G31
  20400162.690 7 -24576080.854 7 -19139180.22349  20400157.07749        51.000
  20364977.928 7 -24502255.188 7 -19079840.31749  20364972.22549        52.000
  22407361.687 6  -6473606.430 6  -7915351.31147  22407355.46747        44.000
  20843800.543 7 -21968814.463 7 -17096268.23549  20843793.61749        50.000
  22772115.874 6 -11887255.302 6  -9245939.20548  22772107.61748        46.000
  23920544.314 6  -8347077.184 6  -6499776.41647  23920537.20847        44.000
  21475104.375 7 -12199785.460 7 -10173867.15748  21475095.76548        50.000
  23699731.305 5  -1407618.827 5  -1865423.41446  23699725.13146        40.000
  22567541.061 7 -13264107.487 7 -10323609.23148  22567534.40348        48.000
 08 11 15  0 21 30.0000000  0  9G 3G 6G13G16G19G21G23G25G31
  20389358.989 7 -24632856.474 7 -19183420.95849  20389352.99849        52.000
  20360577.929 7 -24525377.060 7 -19097857.35649  20360572.06149        52.000
  22399362.275 6  -6515648.885 6  -7948111.66547  22399355.50747        45.000
  20849865.653 7 -21936942.228 7 -17071432.73049  20849858.05849        51.000
  22752878.810 6 -11988346.921 6  -9324711.89348  22752870.77948        47.000
  23918554.837 6  -8357531.978 6  -6507922.99747  23918547.86447        44.000
  21477079.656 7 -12189406.464 7 -10165779.64948  21477071.69448        51.000
  23682631.768 5  -1497485.459 5  -1935449.35046  23682623.95746        40.000
  22582123.622 7 -13187473.262 7 -10263894.28048  22582118.19448        48.000
 08 11 15  0 22  0.0000000  0  9G 3G 6G13G16G19G21G23G25G31
  20378649.799 7 -24689133.029 7 -19227272.81249  20378643.84949        52.000
  20356274.051 8 -24547993.941 8 -19115480.89749  20356268.59249        53.000
  22391471.950 6  -6557110.290 6  -7980419.25747  22391465.41647        45.000
  20855967.148 7 -21904877.969 7 -17046447.58949  20855960.36049        51.000
  22733691.584 6 -12089176.720 6  -9403280.54348  22733683.10248        45.000
  23916650.266 5  -8367533.686 5  -6515716.54446  23916643.82346        42.000
  21479172.500 7 -12178409.416 7 -10157210.53048  21479163.95848        51.000
  23665546.126 5  -1587267.947 5  -2005409.72546  23665539.21646        41.000
  22596761.724 7 -13110550.145 7 -10203954.22548  22596755.74648        48.000
 08 11 15  0 22 30.0000000  0  9G 3G 6G13G16G19G21G23G25G31
  20368035.650 7 -24744909.220 7 -19270734.76949  20368030.05949        51.000
  20352066.414 8 -24570105.510 8 -19132710.68449  20352060.78949        55.000
  22383692.981 6  -6597988.636 6  -8012272.51047  22383686.56747        47.000
  20862105.528 7 -21872621.466 7 -17021312.65849  20862098.62849        51.000
  22714554.139 6 -12189742.126 6  -9481643.16148  22714546.70148        46.000
  23914834.506 6  -8377080.826 6  -6523155.86146  23914827.54346        44.000
  21481382.165 7 -12166794.667 7 -10148160.09148  21481373.94948        52.000
  23648477.049 5  -1676964.111 5  -2075302.83146  23648471.26546        41.000
  22611454.976 7 -13033338.494 7 -10143789.33148  22611448.71648        49.000
 08 11 15  0 23  0.0000000  0  9G 3G 6G13G16G19G21G23G25G31
  20357517.263 7 -24800184.120 7 -19313806.11449  20357511.48049        52.000
  20347955.036 8 -24591711.965 8 -19149546.88449  20347949.36049        53.000
  22376025.390 6  -6638282.879 6  -8043670.62747  22376019.03247        47.000
  20868279.833 7 -21840174.010 7 -16996028.92849  20868272.72349        52.000
  22695468.147 6 -12290041.083 6  -9559798.16348  22695460.71548        46.000
  23913104.107 6  -8386172.683 6  -6530240.41147  23913098.02647        44.000
  21483710.152 7 -12154563.108 7 -10138629.01548  21483701.50648        50.000
  23631426.042 5  -1766572.301 5  -2145127.38347  23631419.20747        42.000
  22626202.481 7 -12955838.826 7 -10083400.01548  22626195.99248        49.000
 08 11 15  0 23 30.0000000  0  9G 3G 6G13G16G19G21G23G25G31
  20347094.669 8 -24854957.150 8 -19356486.39749  20347088.46149        54.000
  20343939.045 8 -24612813.784 8 -19165989.85349  20343933.44849        53.000
  22368469.242 6  -6677991.356 6  -8074612.29047  22368462.68647        47.000
  20874490.633 8 -21807536.584 8 -16970597.17249  20874483.77249        53.000
  22676433.214 6 -12390071.715 6  -9637744.11348  22676425.43348        45.000
  23911461.045 6  -8394808.466 6  -6536969.58546  23911453.22746        43.000
  21486154.696 7 -12141716.138 7 -10128618.39648  21486145.53148        51.000
  23614390.720 6  -1856090.914 6  -2214882.13147  23614384.85247        43.000
  22641004.420 7 -12878052.650 7 -10022787.44248  22640998.78048        48.000
 08 11 15  0 24  0.0000000  0  9G 3G 6G13G16G19G21G23G25G31
  20336767.118 8 -24909226.841 8 -19398774.46749  20336761.44449        53.000
  20340019.730 8 -24633411.034 8 -19182039.66049  20340013.97749        53.000
  22361024.204 6  -6717113.458 6  -8105097.05547  22361017.90647        46.000
  20880737.215 7 -21774710.007 7 -16945018.02449  20880729.81449        52.000
  22657449.163 6 -12489832.048 6  -9715479.41748  22657441.71648        46.000
  23909904.878 6  -8402987.445 6  -6543342.81046  23909897.81846        43.000
  21488716.463 7 -12128254.088 7 -10118128.51448  21488708.35048        51.000
  23597372.956 6  -1945518.253 6  -2284565.74947  23597366.75947        44.000
  22655861.114 7 -12799980.743 7  -9961952.21348  22655854.76948        48.000
 08 11 15  0 24 30.0000000  0  9G 3G 6G13G16G19G21G23G25G31
  20326536.278 8 -24962992.140 8 -19440669.49549  20326530.15449        53.000
  20336196.230 8 -24653503.546 8 -19197696.15849  20336190.55349        53.000
  22353691.821 6  -6755647.356 6  -8135123.46647  22353685.21747        46.000
  20887019.924 7 -21741694.454 7 -16919291.62049  20887013.06549        52.000
  22638517.247 6 -12589319.449 6  -9793002.04048  22638509.48048        45.000
  23908434.821 6  -8410708.102 6  -6549358.89846  23908428.02846        43.000
  21491395.042 7 -12114177.923 7 -10107160.08648  21491386.95248        51.000
  23580373.533 6  -2034852.028 6  -2354176.47047  23580367.30747        45.000
  22670772.537 7 -12721623.614 7  -9900894.74848  22670765.95948        48.000
 08 11 15  0 25  0.0000000  0  9G 3G 6G13G16G19G21G23G25G31
  20316401.073 8 -25016252.478 8 -19482171.06249  20316395.00449        54.000
  20332468.881 8 -24673091.469 8 -19212959.47449  20332462.81449        54.000
  22346471.006 6  -6793591.836 6  -8164690.59047  22346464.73547        46.000
  20893338.306 7 -21708490.845 7 -16893418.68649  20893331.35849        52.000
  22619637.652 6 -12688531.949 6  -9870310.45548  22619630.06848        46.000
  23907053.440 6  -8417969.942 6  -6555017.48847  23907046.67647        44.000
  21494190.256 7 -12099488.574 7 -10095713.86548  21494182.00348        50.000
  23563391.768 6  -2124090.565 6  -2423712.97747  23563385.87047        45.000
  22685737.232 7 -12642982.210 7  -9839615.74348  22685730.98448        48.000
 08 11 15  0 25 30.0000000  0  9G 3G 6G13G16G19G21G23G25G31
  20306362.146 8 -25069006.321 8 -19523277.95249  20306356.01149        54.000
  20328837.274 8 -24692174.904 8 -19227829.67849  20328831.34049        53.000
  22339363.298 6  -6830945.252 6  -8193797.14947  22339356.71447        46.000
  20899692.669 7 -21675099.450 7 -16867399.41049  20899685.19949        52.000
  22600810.870 6 -12787467.318 6  -9947402.92848  22600803.05848        46.000
  23905759.005 6  -8424771.817 6  -6560317.65446  23905751.37546        44.000
  21497102.198 7 -12084187.053 7 -10083790.59948  21497093.76548        51.000
  23546428.292 6  -2213231.654 6  -2493173.55247  23546422.50147        44.000
  22700756.360 7 -12564057.091 7  -9778115.68648  22700750.37848        49.000
 08 11 15  0 26  0.0000000  0  9G 3G 6G13G16G19G21G23G25G31
  20296419.981 8 -25121253.138 8 -19563989.75649  20296413.89949        53.000
  20325301.894 8 -24710754.018 8 -19242306.91049  20325295.92649        53.000
  22332367.380 6  -6867707.327 6  -8222442.92247  22332360.87147        47.000
  20906082.173 7 -21641521.027 7 -16841234.41749  20906074.84149        52.000
  22582037.570 6 -12886123.456 6 -10024277.82048  22582030.08548        46.000
  23904550.813 6  -8431112.604 6  -6565258.52346  23904543.88546        44.000
  21500130.705 7 -12068273.499 7 -10071390.44848  21500122.63148        51.000
  23529484.358 6  -2302273.541 6  -2562556.82347  23529478.15947        44.000
  22715829.189 7 -12484849.336 7  -9716395.39948  22715822.78648        48.000
 08 11 15  0 26 30.0000000  0  9G 3G 6G13G16G19G21G23G25G31
  20286574.285 8 -25172992.525 8 -19604306.15049  20286568.21049        54.000
  20321862.061 8 -24728829.599 8 -19256391.77149  20321856.18249        53.000
  22325484.929 6  -6903875.989 6  -8250626.28647  22325478.56347        47.000
  20912507.524 7 -21607756.911 7 -16814924.71549  20912500.24349        52.000
  22563317.681 7 -12984498.909 7 -10100933.99148  22563309.42148        48.000
  23903433.274 6  -8436992.569 6  -6569840.30346  23903426.62746        44.000
  21503274.606 7 -12051749.791 7 -10058514.83348  21503266.22748        50.000
  23512559.383 6  -2391215.024 6  -2631861.85147  23512552.67147        45.000
  22730954.985 6 -12405360.521 6  -9654456.07448  22730948.82548        47.000
 08 11 15  0 27  0.0000000  0  9G 3G 6G13G16G19G21G23G25G31
  20276825.384 8 -25224223.050 8 -19644226.04149  20276819.86349        53.000
  20318518.645 8 -24746401.297 8 -19270084.00649  20318512.44349        54.000
  22318715.696 6  -6939449.811 6  -8278346.15447  22318708.61647        47.000
  20918968.111 7 -21573806.986 7 -16788470.23649  20918961.02149        52.000
  22544650.910 6 -13082590.943 6 -10177369.34748  22544642.81248        47.000
  23902403.851 6  -8442409.852 6  -6574061.61246  23902395.05846        44.000
  21506534.960 7 -12034617.035 7 -10045164.64948  21506526.88748        50.000
  23495653.634 6  -2480053.503 6  -2701086.63147  23495647.55747        45.000
  22746135.083 7 -12325590.721 7  -9592297.82748  22746128.52048        48.000
 08 11 15  0 27 30.0000000  0  9G 3G 6G13G16G19G21G23G25G31
  20267173.829 8 -25274943.792 8 -19683748.68349  20267167.83149        53.000
  20315270.183 7 -24763469.380 7 -19283383.80049  20315264.29149        52.000
  22312059.285 7  -6974428.053 7  -8305601.94047  22312052.84947        48.000
  20925463.818 7 -21539672.137 7 -16761871.64549  20925456.47549        52.000
  22526038.494 6 -13180397.749 6 -10253582.40848  22526031.31048        47.000
  23901459.489 6  -8447364.208 6  -6577922.13646  23901453.34546        43.000
  21509910.769 7 -12016875.842 7 -10031340.35248  21509902.85948        50.000
  23478768.506 6  -2568787.191 6  -2770229.75747  23478762.09547        45.000
  22761367.912 6 -12245541.131 6  -9529921.54848  22761361.49448        46.000
 08 11 15  0 28  0.0000000  0  9G 3G 6G13G16G19G21G23G25G31
  20257618.955 8 -25325154.368 8 -19722873.81049  20257612.97749        54.000
  20312118.403 8 -24780034.364 8 -19296291.58449  20312112.60549        54.000
  22305516.134 6  -7008809.898 6  -8332392.97947  22305509.76147        47.000
  20931994.158 7 -21505353.361 7 -16735129.75449  20931986.89749        52.000
  22507481.731 7 -13277917.323 7 -10329571.68548  22507473.82948        48.000
  23900604.966 6  -8451854.410 6  -6581421.01547  23900598.40047        44.000
  21513402.881 7 -11998527.264 7 -10017042.77348  21513393.80548        51.000
  23461903.596 6  -2657414.439 6  -2839289.94547  23461897.12947        46.000
  22776653.984 6 -12165212.792 6  -9467328.06948  22776647.18548        47.000
 08 11 15  0 28 30.0000000  0  9G 3G 6G13G16G19G21G23G25G31
  20248161.387 7 -25374853.359 7 -19761600.28749  20248155.52049        52.000
  20309061.691 7 -24796096.222 7 -19308807.31049  20309055.62849        52.000
  22299088.156 6  -7042593.790 6  -8358718.10848  22299081.30348        47.000
  20938559.721 7 -21470850.865 7 -16708244.69449  20938552.72749        51.000
  22488979.244 6 -13375147.175 6 -10405335.17148  22488971.40648        47.000
  23899839.318 5  -8455879.682 5  -6584557.60547  23899831.69947        42.000
  21517009.639 7 -11979572.492 7 -10002272.82448  21517001.46148        49.000
  23445058.941 6  -2745932.977 6  -2908265.41947  23445052.97047        46.000
  22791992.708 6 -12084606.266 6  -9404517.82348  22791986.70448        46.000
 08 11 15  0 29  0.0000000  0  9G 3G 6G13G16G19G21G23G25G31
  20238801.640 8 -25424040.377 8 -19799927.82649  20238795.44049        54.000
  20306100.877 8 -24811655.250 8 -19320931.22649  20306094.96249        53.000
  22292772.738 7  -7075778.569 7  -8384576.39248  22292766.49248        48.000
  20945160.217 7 -21436165.323 7 -16681217.01249  20945153.01949        52.000
  22470532.440 7 -13472085.544 7 -10480871.55348  22470524.14748        48.000
  23899161.198 6  -8459439.827 6  -6587331.75447  23899155.05247        43.000
  21520731.704 7 -11960012.360 7  -9987031.18748  21520723.17448        50.000
  23428235.412 6  -2834340.977 6  -2977154.76247  23428229.15247        45.000
  22807384.304 6 -12003722.697 6  -9341491.70448  22807378.24148        45.000
 08 11 15  0 29 30.0000000  0  9G 3G 6G13G16G19G21G23G25G31
  20229538.880 7 -25472714.714 7 -19837855.86549  20229532.69949        52.000
  20303235.930 7 -24826712.151 7 -19332663.86949  20303229.98849        52.000
  22286572.134 6  -7108363.342 6  -8409967.12147  22286565.44247        46.000
  20951795.402 7 -21401297.923 7 -16654047.62349  20951788.27849        51.000
  22452141.071 6 -13568730.575 6 -10556179.35148  22452133.03148        46.000
  23898573.404 6  -8462533.770 6  -6589742.62446  23898565.69046        44.000
  21524569.016 7 -11939848.712 7  -9971319.24648  21524560.56548        49.000
  23411433.256 6  -2922636.886 6  -3045956.76347  23411426.54247        44.000
  22822828.759 6 -11922562.964 6  -9278250.38148  22822822.32448        46.000
 08 11 15  0 30  0.0000000  0  9G 3G 6G13G16G19G21G23G25G31
  20220374.422 8 -25520875.316 8 -19875383.60549  20220368.71449        55.000
  20300466.325 8 -24841266.664 8 -19344005.04249  20300459.83949        54.000
  22280485.709 6  -7140347.064 6  -8434889.49547  22280478.92347        46.000
  20958464.724 7 -21366248.418 7 -16626736.34049  20958457.86549        52.000
  22433806.608 6 -13665079.622 6 -10631256.50448  22433798.71148        47.000
  23898073.026 6  -8465160.606 6  -6591789.53046  23898065.83346        43.000
  21528520.628 7 -11919082.021 7  -9955137.42648  21528512.20548        51.000
  23394653.453 6  -3010818.213 6  -3114669.49847  23394646.59747        44.000
  22838325.371 6 -11841128.005 6  -9214794.60448  22838319.24848        47.000
 08 11 15  0 30 30.0000000  0  9G 3G 6G13G16G19G21G23G25G31
  20211307.543 8 -25568521.267 8 -19912510.30849  20211301.66049        54.000
  20297792.065 8 -24855319.245 8 -19354955.10349  20297785.74549        53.000
  22274514.197 6  -7171728.102 6  -8459342.24048  22274507.13948        45.000
  20965169.335 8 -21331017.600 8 -16599283.76849  20965162.30849        53.000
  22415528.861 6 -13761131.050 6 -10706101.74948  22415520.78448        47.000
  23897662.422 6  -8467319.776 6  -6593472.00146  23897655.11646        44.000
  21532587.047 7 -11897713.773 7  -9938486.84448  21532578.93448        51.000
  23377894.071 6  -3098883.159 6  -3183291.50447  23377888.46747        44.000
  22853874.669 7 -11759418.753 7  -9151125.07248  22853867.87448        48.000
 08 11 15  0 31  0.0000000  0  9G 3G 6G13G16G19G21G23G25G31
  20202338.991 8 -25615651.619 8 -19949235.24249  20202333.23449        54.000
  20295213.429 8 -24868870.087 8 -19365514.19049  20295207.31549        54.000
  22268657.592 6  -7202505.897 6  -8483324.93348  22268650.69148        47.000
  20971907.873 8 -21295605.884 8 -16571690.23349  20971900.71149        53.000
  22397307.666 6 -13856882.444 6 -10780713.21548  22397300.49748        47.000
  23897340.390 5  -8469010.423 5  -6594789.40847  23897333.62747        42.000
  21536767.664 7 -11875744.363 7  -9921367.83748  21536759.28948        50.000
  23361158.649 6  -3186829.420 6  -3251821.01547  23361153.12747        44.000
  22869474.719 6 -11677435.802 6  -9087242.27748  22869468.90048        46.000
 08 11 15  0 31 30.0000000  0  9G 3G 6G13G16G19G21G23G25G31
  20193468.554 7 -25662266.379 7 -19985558.42549  20193462.66849        52.000
  20292729.886 7 -24881920.156 7 -19375683.07349  20292724.19049        52.000
  22262915.604 6  -7232679.473 6  -8506836.82347  22262909.39447        46.000
  20978680.670 7 -21260014.287 7 -16543956.53149  20978673.81749        51.000
  22379143.896 6 -13952332.355 6 -10855089.73648  22379136.51148        45.000
  23897108.772 6  -8470232.251 6  -6595741.50347  23897101.70147        43.000
  21541062.112 7 -11853176.138 7  -9903782.21648  21541054.19348        50.000
  23344446.508 6  -3274655.784 6  -3320257.09847  23344440.58947        44.000
  22885127.351 6 -11595180.696 6  -9023147.42348  22885121.91348        46.000
 08 11 15  0 32  0.0000000  0  9G 3G 6G13G16G19G21G23G25G31
  20184696.384 8 -25708364.803 8 -20021479.26649  20184690.84249        54.000
  20290341.939 8 -24894469.876 8 -19385462.07749  20290335.97449        53.000
  22257288.787 6  -7262248.388 6  -8529877.55048  22257280.96048        47.000
  20985487.656 8 -21224243.969 8 -16516083.57249  20985480.44249        53.000
  22361038.139 6 -14047478.651 6 -10929229.68148  22361030.93548        45.000
  23896965.020 6  -8470984.449 6  -6596327.63546  23896957.62646        44.000
  21545470.542 7 -11830010.131 7  -9885730.77648  21545462.60448        49.000
  23327756.957 6  -3362360.131 6  -3388598.12647  23327751.22747        43.000
  22900831.889 6 -11512654.415 6  -8958841.27348  22900825.94548        46.000
 08 11 15  0 32 30.0000000  0  9G 3G 6G13G16G19G21G23G25G31
  20176022.580 8 -25753945.966 8 -20056997.04749  20176016.70349        53.000
  20288049.194 8 -24906519.130 8 -19394851.10249  20288043.42849        53.000
  22251777.632 6  -7291210.748 6  -8552445.61448  22251771.03748        46.000
  20992328.480 8 -21188294.432 8 -16488070.95149  20992321.67949        53.000
  22342991.004 6 -14142319.048 6 -11003131.25748  22342983.09248        46.000
  23896910.576 5  -8471266.086 5  -6596547.07946  23896904.13246        42.000
  21549992.370 7 -11806247.084 7  -9867214.12348  21549984.07548        49.000
  23311090.231 6  -3449940.022 6  -3456842.18347  23311084.94547        43.000
  22916587.695 6 -11429857.865 6  -8894324.49448  22916581.29248        45.000
 08 11 15  0 33  0.0000000  0  9G 3G 6G13G16G19G21G23G25G31
  20167447.088 8 -25799009.230 8 -20092111.27249  20167441.17349        54.000
  20285851.176 8 -24918068.395 8 -19403850.52649  20285845.06549        53.000
  22246381.909 6  -7319566.214 6  -8574540.79248  22246375.07448        47.000
  20999203.451 7 -21152166.669 7 -16459919.46149  20999196.32749        52.000
  22325002.161 6 -14236851.643 6 -11076792.99348  22324993.68048        46.000
  23896948.021 6  -8471076.944 6  -6596399.72246  23896940.56146        44.000
  21554627.582 7 -11781888.984 7  -9848233.80148  21554619.40248        50.000
  23294448.953 6  -3537393.737 6  -3524987.91647  23294442.44647        44.000
  22932394.026 6 -11346791.533 6  -8829597.52348  22932388.08148        46.000
 08 11 15  0 33 30.0000000  0  9G 3G 6G13G16G19G21G23G25G31
  20158970.626 8 -25843554.151 8 -20126821.59249  20158964.98649        55.000
  20283748.369 8 -24929118.462 8 -19412460.96049  20283742.55449        53.000
  22241101.452 6  -7347313.819 6  -8596162.30747  22241095.20447        46.000
  21006112.448 8 -21115861.335 8 -16431629.59549  21006105.03649        53.000
  22307071.932 6 -14331074.592 6 -11150213.44148  22307064.50548        46.000
  23897073.341 5  -8470416.426 5  -6595885.03346  23897065.25846        42.000
  21559375.717 7 -11756936.809 7  -9828790.55948  21559367.38948        49.000
  23277831.281 6  -3624719.250 6  -3593033.76747  23277824.40547        45.000
  22948252.440 6 -11263457.014 6  -8764661.55148  22948246.26148        45.000
 08 11 15  0 34  0.0000000  0  9G 3G 6G13G16G19G21G23G25G31
  20150592.702 8 -25887579.323 8 -20161126.92349  20150586.80949        54.000
  20281740.446 8 -24939669.376 8 -19420682.45149  20281734.62249        53.000
  22235937.248 6  -7374452.249 6  -8617309.12948  22235930.83448        47.000
  21013054.561 7 -21079378.780 7 -16403201.63849  21013047.79049        52.000
  22289201.509 7 -14424985.645 7 -11223390.85648  22289193.20948        48.000
  23897288.300 5  -8469284.181 5  -6595002.78146  23897281.41346        42.000
  21564237.361 7 -11731391.888 7  -9808885.42748  21564228.72448        51.000
  23261238.447 6  -3711914.475 6  -3660978.11847  23261231.36347        45.000
  22964161.413 6 -11179855.038 6  -8699517.20148  22964155.42948        46.000
 08 11 15  0 34 30.0000000  0  9G 3G 6G13G16G19G21G23G25G31
  20142314.187 8 -25931083.951 8 -20195026.62049  20142308.17149        54.000
  20279827.943 8 -24949721.420 8 -19428515.21049  20279822.04149        53.000
  22230888.871 6  -7400980.561 6  -8637980.55747  22230882.06447        46.000
  21020030.653 7 -21042719.221 7 -16374635.75649  21020023.63749        52.000
  22271390.798 6 -14518582.481 6 -11296323.43848  22271382.35048        47.000
  23897594.893 6  -8467679.096 6  -6593752.09846  23897587.30946        43.000
  21569210.755 7 -11705255.113 7  -9788519.11848  21569202.51148        51.000
  23244670.683 6  -3798977.107 6  -3728819.13147  23244663.83247        45.000
  22980121.536 6 -11095986.312 6  -8634164.96648  22980114.90348        46.000
 08 11 15  0 35  0.0000000  0  9G 3G 6G13G16G19G21G23G25G31
  20134134.169 8 -25974069.236 8 -20228521.65249  20134128.58949        53.000
  20278009.690 8 -24959276.297 8 -19435960.56749  20278004.02249        55.000
  22225956.458 6  -7426899.383 6  -8658177.05948  22225949.86548        47.000
  21027040.242 7 -21005884.738 7 -16345933.56849  21027032.83749        52.000
  22253639.305 7 -14611864.550 7 -11369010.73048  22253630.85848        48.000
  23897989.704 5  -8465601.362 5  -6592133.08746  23897982.30946        42.000
  21574296.121 7 -11678529.332 7  -9767693.84848  21574288.15148        51.000
  23228129.018 6  -3885906.325 6  -3796556.18647  23228122.28547        43.000
  22996131.133 6 -11011853.150 6  -8568606.68148  22996125.31348        47.000
 08 11 15  0 35 30.0000000  0  9G 3G 6G13G16G19G21G23G25G31
  20126053.762 8 -26016533.622 8 -20261610.78049  20126047.65349        55.000
  20276286.090 8 -24968333.374 8 -19443018.02349  20276280.48149        53.000
  22221140.325 6  -7452206.728 6  -8677897.08347  22221133.97347        44.000
  21034082.935 7 -20968874.398 7 -16317094.34549  21034075.72949        51.000
  22235949.045 6 -14704828.743 6 -11441450.33148  22235940.07748        47.000
  23898475.467 6  -8463049.611 6  -6590144.69246  23898467.74546        43.000
  21579494.182 7 -11651214.843 7  -9746409.85448  21579484.98748        49.000
  23211612.566 6  -3972698.947 6  -3864186.77847  23211605.86247        44.000
  23012191.720 6 -10927455.240 6  -8502842.10548  23012185.33948        46.000
 08 11 15  0 36  0.0000000  0  9G 3G 6G13G16G19G21G23G25G31
  20118072.376 8 -26058476.210 8 -20294293.32749  20118066.28749        54.000
  20274657.158 8 -24976893.616 8 -19449688.33649  20274651.24849        53.000
  22216441.309 6  -7476902.177 6  -8697140.30048  22216435.26948        47.000
  21041158.979 7 -20931689.236 7 -16288118.89649  21041151.78649        52.000
  22218318.994 6 -14797473.440 6 -11513641.00148  22218311.16048        46.000
  23899050.971 6  -8460024.039 6  -6587787.10947  23899044.05747        44.000
  21584803.599 7 -11623313.283 7  -9724668.37948  21584795.50048        50.000
  23195123.312 6  -4059353.428 6  -3931709.75247  23195116.02547        45.000
  23028301.737 6 -10842794.175 6  -8436872.46048  23028295.69048        46.000
 08 11 15  0 36 30.0000000  0  9G 3G 6G13G16G19G21G23G25G31
  20110190.293 8 -26099896.093 8 -20326568.55849  20110184.31449        54.000
  20273122.525 8 -24984956.987 8 -19455971.47749  20273117.03049        53.000
  22211858.701 6  -7500984.460 6  -8715905.71448  22211851.84248        45.000
  21048268.319 7 -20894329.173 7 -16259007.15749  21048261.06349        52.000
  22200750.567 6 -14889796.142 6 -11585580.75448  22200742.84748        45.000
  23899717.605 6  -8456523.568 6  -6585059.48946  23899710.35446        43.000
  21590224.643 7 -11594826.267 7  -9702470.71148  21590216.05248        49.000
  23178659.773 6  -4145867.161 6  -3999123.04447  23178653.74947        45.000
  23044462.385 6 -10757870.636 6  -8370698.31548  23044456.73748        46.000
 08 11 15  0 37  0.0000000  0  9G 3G 6G13G16G19G21G23G25G31
  20102407.584 8 -26140794.643 8 -20358437.56649  20102401.87749        55.000
  20271682.414 8 -24992525.363 8 -19461868.91049  20271676.43149        54.000
  22207392.583 6  -7524454.028 6  -8734193.70948  22207386.29648        47.000
  21055410.701 7 -20856796.042 7 -16229760.58049  21055403.28649        52.000
  22183243.607 6 -14981796.187 6 -11657269.08548  22183235.95348        46.000
  23900473.168 6  -8452548.811 6  -6581962.25246  23900466.09146        43.000
  21595756.681 7 -11565756.163 7  -9679818.69348  21595748.15648        49.000
  23162223.700 6  -4232239.427 6  -4066426.09247  23162217.51047        45.000
  23060671.944 6 -10672686.928 6  -8304321.42948  23060666.07248        46.000
 08 11 15  0 37 30.0000000  0  9G 3G 6G13G16G19G21G23G25G31
  20094724.340 8 -26181170.103 8 -20389898.96649  20094718.71449        53.000
  20270336.637 7 -24999598.366 7 -19467380.33649  20270330.52249        52.000
  22203042.918 6  -7547309.371 6  -8752003.06447  22203036.86547        46.000
  21062585.967 7 -20819089.394 7 -16200378.77549  21062578.22049        51.000
  22165798.793 6 -15073470.596 6 -11728703.68348  22165790.69848        47.000
  23901320.147 6  -8448098.511 6  -6578494.51746  23901313.74946        43.000
  21601399.797 7 -11536103.429 7  -9656712.68448  21601391.01748        49.000
  23145814.957 6  -4318467.050 6  -4133616.44247  23145808.89147        44.000
  23076932.160 6 -10587242.982 6  -8237741.77247  23076926.08447        46.000
 08 11 15  0 38  0.0000000  0  9G 3G 6G13G16G19G21G23G25G31
  20087140.688 8 -26221022.080 8 -20420952.45549  20087134.96349        54.000
  20269084.721 8 -25006176.779 8 -19472506.37949  20269078.49449        54.000
  22198811.093 6  -7569550.080 6  -8769333.48947  22198804.61547        47.000
  21069793.992 7 -20781210.115 7 -16170862.46649  21069787.19649        52.000
  22148416.210 6 -15164817.733 6 -11799883.25448  22148407.91248        47.000
  23902256.867 6  -8443172.453 6  -6574656.01246  23902249.07646        44.000
  21607152.401 7 -11505869.883 7  -9633154.09248  21607144.35448        48.000
  23129434.183 6  -4404548.322 6  -4200692.72847  23129428.66747        45.000
  23093240.722 6 -10501540.084 6  -8170960.30748  23093234.39948        46.000
 08 11 15  0 38 30.0000000  0  9G 3G 6G13G16G19G21G23G25G31
  20079656.846 8 -26260350.672 8 -20451598.10949  20079650.89349        54.000
  20267926.706 7 -25012261.808 7 -19477247.95449  20267920.69749        52.000
  22194696.509 6  -7591176.153 6  -8786184.95548  22194689.79948        47.000
  21077035.064 7 -20743159.203 7 -16141212.42549  21077027.79449        51.000
  22131095.265 6 -15255836.322 6 -11870806.82648  22131087.41548        46.000
  23903286.122 6  -8437770.623 6  -6570446.76746  23903278.44846        44.000
  21613016.010 7 -11475057.611 7  -9609144.53748  21613007.64148        49.000
  23113082.510 6  -4490481.733 6  -4267653.79847  23113076.29547        44.000
  23109598.825 6 -10415580.012 6  -8103978.46448  23109592.25148        45.000
 08 11 15  0 39  0.0000000  0  9G 3G 6G13G16G19G21G23G25G31
  20072272.727 8 -26299154.359 8 -20481834.75349  20072266.59049        54.000
  20266862.709 8 -25017852.926 8 -19481604.66649  20266856.49849        53.000
  22190697.923 6  -7612185.696 6  -8802556.03048  22190691.39148        47.000
  21084308.685 7 -20704936.338 7 -16111428.37449  21084301.53749        52.000
  22113837.864 6 -15346523.411 6 -11941472.05848  22113830.72148        47.000
  23904404.439 5  -8431891.988 5  -6565866.03846  23904396.74446        42.000
  21618989.120 7 -11443667.560 7  -9584684.78048  21618980.70048        50.000
  23096759.129 6  -4576264.173 6  -4334497.25147  23096752.40247        46.000
  23126005.213 6 -10329362.912 6  -8036796.34248  23125998.76648        44.000
 08 11 15  0 39 30.0000000  0  9G 3G 6G13G16G19G21G23G25G31
  20064988.699 8 -26337433.581 8 -20511662.71549  20064982.38449        53.000
  20265892.417 7 -25022951.722 7 -19485577.75549  20265886.65649        52.000
  22186816.922 6  -7632579.050 6  -8818446.94148  22186810.65548        46.000
  21091614.820 7 -20666542.375 7 -16081511.01349  21091607.42749        51.000
  22096644.292 6 -15436878.060 6 -12011878.29048  22096636.02948        47.000
  23905613.950 5  -8425536.704 5  -6560913.83447  23905606.75947        42.000
  21625072.370 7 -11411702.010 7  -9559776.57948  21625064.22348        50.000
  23080463.142 6  -4661894.297 6  -4401222.01347  23080456.86947        44.000
  23142460.243 6 -10242890.540 6  -7969415.30447  23142454.45347        45.000
 08 11 15  0 40  0.0000000  0  9G 3G 6G13G16G19G21G23G25G31
  20057804.162 8 -26375187.083 8 -20541081.02049  20057798.43149        54.000
  20265015.893 8 -25027557.865 8 -19489166.95749  20265010.01149        53.000
  22183053.907 6  -7652354.781 6  -8833856.62348  22183047.08848        47.000
  21098953.687 7 -20627977.206 7 -16051460.24549  21098946.26949        52.000
  22079513.890 7 -15526897.337 7 -12082023.16548  22079506.72148        48.000
  23906914.395 5  -8418703.710 5  -6555589.43146  23906906.81646        41.000
  21631264.504 7 -11379161.705 7  -9534420.49948  21631256.12748        51.000
  23064197.825 6  -4747369.237 6  -4467825.84847  23064191.49547        43.000
  23158963.671 6 -10156163.162 6  -7901835.56348  23158957.90448        43.000
 08 11 15  0 40 30.0000000  0  9G 3G 6G13G16G19G21G23G25G31
  20050719.845 8 -26412415.301 8 -20570090.01749  20050713.78549        53.000
  20264232.965 7 -25031672.869 7 -19492373.45249  20264227.16049        52.000
  22179408.479 7  -7671513.095 7  -8848785.16348  22179401.63448        48.000
  21106324.832 7 -20589241.782 7 -16021276.81249  21106317.55749        52.000
  22062447.444 7 -15616580.010 7 -12151905.74648  22062440.37648        48.000
  23908304.864 5  -8411393.372 5  -6549893.06146  23908298.36246        40.000
  21637565.473 7 -11346049.013 7  -9508618.41848  21637556.89248        50.000
  23047962.309 6  -4832687.467 6  -4534307.58147  23047956.08447        44.000
  23175515.821 6 -10069182.495 6  -7834058.45648  23175509.76648        43.000
 08 11 15  0 41  0.0000000  0  9G 3G 6G13G16G19G21G23G25G31
  20043735.772 8 -26449118.217 8 -20598689.69349  20043729.74549        54.000
  20263543.195 8 -25035297.867 8 -19495198.12749  20263537.11449        53.000
  22175880.114 7  -7690054.255 7  -8863232.82547  22175873.48847        48.000
  21113728.054 8 -20550337.256 8 -15990961.61149  21113721.12449        53.000
  22045446.773 6 -15705924.789 6 -12221525.05448  22045439.02448        47.000
  23909786.754 6  -8403605.733 6  -6543824.76546  23909780.00546        43.000
  21643975.364 7 -11312366.190 7  -9482372.07748  21643966.54148        51.000
  23031756.962 6  -4917847.632 6  -4600666.14147  23031750.86947        45.000
  23192115.858 6  -9981950.629 6  -7766085.59947  23192109.18447        43.000
 08 11 15  0 41 30.0000000  0  9G 3G 6G13G16G19G21G23G25G31
  20036851.676 8 -26485294.478 8 -20626878.97849  20036845.41949        54.000
  20262946.561 7 -25038432.557 7 -19497640.73849  20262940.60449        52.000
  22172469.818 7  -7707976.476 7  -8877198.18948  22172462.85648        49.000
  21121163.447 7 -20511263.231 7 -15960514.33049  21121156.31049        52.000
  22028509.343 6 -15794929.077 6 -12290879.00948  22028502.12448        47.000
  23911359.689 5  -8395339.545 5  -6537383.58146  23911353.14346        40.000
  21650493.160 7 -11278113.950 7  -9455682.02948  21650484.47948        50.000
  23015582.218 6  -5002846.446 6  -4666898.97747  23015575.69247        45.000
  23208763.035 6  -9894467.106 6  -7697916.66747  23208756.87547        43.000
 08 11 15  0 42  0.0000000  0  9G 3G 6G13G16G19G21G23G25G31
  20030067.477 8 -26520944.587 8 -20654658.28349  20030061.29749        54.000
  20262443.443 7 -25041078.327 7 -19499702.38549  20262437.11949        52.000
  22169176.596 7  -7725280.176 7  -8890681.60248  22169170.49548        49.000
  21128631.053 7 -20472020.621 7 -15929935.68849  21128624.21049        51.000
  22011637.558 6 -15883591.275 6 -12359966.44248  22011630.06048        47.000
  23913024.257 5  -8386595.353 5  -6530569.91346  23913016.35346        41.000
  21657118.804 7 -11243294.971 7  -9428550.37248  21657110.02048        50.000
  22999438.835 6  -5087682.544 6  -4733005.03147  22999431.59547        45.000
  23225458.593 6  -9806734.215 6  -7629553.41347  23225451.86647        44.000
 08 11 15  0 42 30.0000000  0  9G 3G 6G13G16G19G21G23G25G31
  20023383.571 8 -26556068.011 8 -20682027.17549  20023377.53149        53.000
  20262032.454 7 -25043235.717 7 -19501383.46749  20262026.59649        51.000
  22166001.755 7  -7741964.747 7  -8903682.56348  22165995.40448        48.000
  21136130.720 7 -20432609.785 7 -15899225.95849  21136123.84849        51.000
  21994831.194 7 -15971909.616 7 -12428785.90048  21994823.00448        48.000
  23914778.783 5  -8377372.612 5  -6523383.37546  23914772.28546        41.000
  21663852.651 7 -11207910.336 7  -9400977.94748  21663844.08748        49.000
  22983325.835 6  -5172353.605 6  -4798982.49147  22983319.87847        45.000
  23242200.962 6  -9718752.781 6  -7560996.48747  23242194.54347        43.000
 08 11 15  0 43  0.0000000  0  9G 3G 6G13G16G19G21G23G25G31
  20016800.152 8 -26590664.366 8 -20708985.36749  20016794.19049        55.000
  20261714.589 7 -25044905.237 7 -19502684.38449  20261709.09049        51.000
  22162945.124 7  -7758029.363 7  -8916200.44848  22162938.31048        48.000
  21143662.435 7 -20393031.068 7 -15868385.40749  21143655.29249        52.000
  21978090.273 7 -16059882.151 7 -12497335.90648  21978082.95748        49.000
  23916624.882 5  -8367671.016 5  -6515823.70746  23916618.08046        42.000
  21670692.791 7 -11171961.922 7  -9372966.19848  21670685.05148        50.000
  22967245.135 6  -5256857.195 6  -4864829.41447  22967239.51447        44.000
  23258989.407 6  -9630523.619 6  -7492246.53147  23258983.53347        43.000
 08 11 15  0 43 30.0000000  0  9G 3G 6G13G16G19G21G23G25G31
  20010316.995 8 -26624733.089 8 -20735532.41549  20010311.40249        53.000
  20261489.880 7 -25046087.680 7 -19503605.77549  20261483.95949        51.000
  22160005.901 7  -7773473.881 7  -8928235.14348  22159999.70248        48.000
  21151225.615 7 -20353284.763 7 -15837414.27149  21151218.91749        52.000
  21961415.946 6 -16147506.963 6 -12565614.96348  21961408.21748        47.000
  23918562.384 5  -8357490.372 5  -6507890.72246  23918555.11246        42.000
  21677640.768 7 -11135451.506 7  -9344516.54848  21677632.01048        49.000
  22951196.977 6  -5341191.254 6  -4930544.24147  22951190.59147        44.000
  23275826.111 6  -9542048.007 6  -7423304.53247  23275820.14847        43.000
 08 11 15  0 44  0.0000000  0  9G 3G 6G13G16G19G21G23G25G31
  20003934.591 8 -26658274.578 8 -20761668.63249  20003928.59049        54.000
  20261357.198 7 -25046784.260 7 -19504148.55849  20261351.97749        51.000
  22157184.505 7  -7788298.274 7  -8939786.62548  22157178.46948        48.000
  21158820.942 7 -20313371.617 7 -15806313.12149  21158814.14349        52.000
  21944808.406 7 -16234782.497 7 -12633621.85648  21944799.79848        48.000
  23920590.537 5  -8346830.852 5  -6499584.63246  23920584.21746        41.000
  21684694.774 7 -11098381.324 7  -9315630.70348  21684686.92048        49.000
  22935181.873 6  -5425353.989 6  -4996125.59947  22935174.71447        45.000
  23292708.702 6  -9453327.360 6  -7354171.60847  23292703.47047        43.000
 08 11 15  0 44 30.0000000  0  9G 3G 6G13G16G19G21G23G25G31
  19997652.058 8 -26691288.905 8 -20787394.07649  19997646.32749        53.000
  20261317.033 7 -25046996.090 7 -19504313.62149  20261311.30249        52.000
  22154481.723 7  -7802502.561 7  -8950854.89848  22154475.71948        48.000
  21166447.855 7 -20273292.570 7 -15775082.69649  21166440.94849        52.000
  21928266.812 7 -16321707.505 7 -12701355.60648  21928259.22248        48.000
  23922710.449 5  -8335692.147 5  -6490905.11646  23922703.39846        42.000
  21691854.968 7 -11060753.556 7  -9286310.37548  21691847.46548        49.000
  22919199.065 6  -5509343.678 6  -5061572.10848  22919192.58048        46.000
  23309638.817 6  -9364363.467 6  -7284849.12847  23309632.02147        43.000
 08 11 15  0 45  0.0000000  0  9G 3G 6G13G16G19G21G23G25G31
  19991469.838 8 -26723775.402 8 -20812708.22649  19991464.17449        53.000
  20261368.493 7 -25046723.512 7 -19504101.22249  20261363.04549        51.000
  22151896.916 7  -7816085.706 7  -8961439.18248  22151890.73948        49.000
  21174106.300 7 -20233047.531 7 -15743722.93749  21174099.32849        52.000
  21911792.546 7 -16408279.549 7 -12768814.32848  21911785.27648        48.000
  23924920.925 5  -8324073.868 5  -6481851.93146  23924914.58746        40.000
  21699121.435 7 -11022569.855 7  -9256556.85248  21699113.76248        49.000
  22903249.513 6  -5593157.643 6  -5126881.69647  22903243.14747        46.000
  23326614.299 6  -9275157.001 6  -7215337.64747  23326608.11147        43.000
 08 11 15  0 45 30.0000000  0  9G 3G 6G13G16G19G21G23G25G31
  19985388.643 8 -26755734.176 8 -20837611.16149  19985382.42149        53.000
  20261512.550 7 -25045967.722 7 -19503512.29349  20261506.61749        51.000
  22149430.274 7  -7829048.339 7  -8971539.93948  22149423.67148        49.000
  21181795.609 7 -20192637.219 7 -15712234.39049  21181789.09149        49.000
  21895385.937 7 -16494497.422 7 -12835997.06648  21895378.16248        49.000
  23927223.700 5  -8311976.609 5  -6472425.51146  23927216.00046        42.000
  21706492.619 6 -10983832.297 6  -9226371.76548  21706484.72948        47.000
  22887334.198 6  -5676794.254 6  -5192053.06747  22887327.85247        46.000
  23343635.366 6  -9185709.398 6  -7145638.26247  23343629.06147        43.000
 08 11 15  0 46  0.0000000  0  9G 3G 6G13G16G19G21G23G25G31
  19979407.555 8 -26787164.615 8 -20862102.41349  19979401.74049        53.000
  20261748.390 7 -25044729.242 7 -19502547.24549  20261742.45549        51.000
  22147081.681 7  -7841389.738 7  -8981156.63048  22147075.64048        48.000
  21189517.317 7 -20152061.759 7 -15680617.16949  21189510.64149        50.000
  21879047.110 7 -16580358.906 7 -12902902.09448  21879039.31648        49.000
  23929615.832 6  -8299399.973 6  -6462625.53746  23929609.53046        43.000
  21713969.672 7 -10944542.588 7  -9195756.41948  21713960.95148        48.000
  22871453.094 6  -5760250.881 6  -5257084.18847  22871445.97347        47.000
  23360701.968 6  -9096021.622 6  -7075751.71947  23360696.13247        43.000
 08 11 15  0 46 30.0000000  0  9G 3G 6G13G16G19G21G23G25G31
  19973527.042 8 -26818067.094 8 -20886182.26449  19973520.65649        53.000
  20262075.530 7 -25043009.158 7 -19501206.92449  20262070.09749        52.000
  22144852.133 7  -7853110.106 7  -8990289.39248  22144845.46148        48.000
  21197269.644 7 -20111321.874 7 -15648871.81849  21197262.87449        52.000
  21862776.218 7 -16665862.492 7 -12969528.25448  21862768.23148        48.000
  23932101.460 6  -8286343.445 6  -6452451.63446  23932094.44346        45.000
  21721551.178 7 -10904702.845 7  -9164712.48548  21721542.55748        50.000
  22855606.991 6  -5843525.569 6  -5321973.56548  22855599.56648        47.000
  23377814.862 6  -9006095.146 6  -7005679.19147  23377809.35247        43.000
 08 11 15  0 47  0.0000000  0  9G 3G 6G13G16G19G21G23G25G31
  19967747.060 8 -26848440.528 8 -20909849.87449  19967740.95849        53.000
  20262494.552 8 -25040807.799 8 -19499491.57349  20262488.86749        53.000
  22142739.755 7  -7864208.923 7  -8998937.82148  22142732.90748        49.000
  21205053.812 7 -20070417.231 7 -15616998.07849  21205046.66449        52.000
  21846573.949 7 -16751006.182 7 -13035873.95648  21846566.26148        49.000
  23934677.121 6  -8272807.109 6  -6441903.82746  23934670.29946        44.000
  21729236.848 7 -10864314.560 7  -9133241.10948  21729228.67048        50.000
  22839795.141 6  -5926615.672 6  -5386719.10348  22839788.74548        46.000
  23394972.792 6  -8915930.711 6  -6935421.22347  23394966.19547        43.000
 08 11 15  0 47 30.0000000  0  9G 3G 6G13G16G19G21G23G25G31
  19962067.836 7 -26878284.984 7 -20933105.30049  19962061.92949        52.000
  20263004.864 8 -25038126.148 8 -19497401.98249  20262999.11849        53.000
  22140746.125 7  -7874685.546 7  -9007101.41748  22140739.49048        49.000
  21212868.570 7 -20029348.431 7 -15584996.41949  21212861.45149        51.000
  21830440.869 7 -16835787.970 7 -13101937.66748  21830432.88948        50.000
  23937344.567 6  -8258790.826 6  -6430982.04446  23937337.72646        45.000
  21737026.658 7 -10823379.987 7  -9101344.04848  21737017.93748        51.000
  22824018.866 6  -6009519.039 6  -5451319.10648  22824012.68648        46.000
  23412176.057 6  -8825529.584 6  -6864978.82247  23412169.28747        45.000
 08 11 15  0 48  0.0000000  0  9G 3G 6G13G16G19G21G23G25G31
  19956489.434 8 -26907601.084 8 -20955949.00849  19956482.76649        53.000
  20263605.998 7 -25034965.990 7 -19494939.52249  20263600.21949        51.000
  22138870.913 7  -7884540.409 7  -9014780.54748  22138863.84948        49.000
  21220714.863 7 -19988116.933 7 -15552867.99949  21220707.99049        52.000
  21814375.782 6 -16920207.227 6 -13167718.89448  21814368.66248        47.000
  23940102.739 6  -8244295.298 6  -6419686.82946  23940095.14546        44.000
  21744919.325 7 -10781901.859 7  -9069023.43248  21744910.62348        50.000
  22808278.593 6  -6092234.376 6  -5515772.60248  22808272.64748        46.000
  23429423.006 6  -8734893.854 6  -6794353.62047  23429417.30847        43.000
 08 11 15  0 48 30.0000000  0  9G 3G 6G13G16G19G21G23G25G31
  19951010.903 7 -26936388.221 7 -20978380.54549  19951005.07349        52.000
  20264298.336 7 -25031327.193 7 -19492104.10249  20264292.74049        52.000
  22137113.117 7  -7893773.521 7  -9021975.20948  22137106.98048        48.000
  21228592.273 7 -19946721.992 7 -15520612.22049  21228585.26349        52.000
  21798381.267 7 -17004261.280 7 -13233215.55848  21798373.58648        48.000
  23942952.923 6  -8229319.650 6  -6408017.48847  23942946.16147        45.000
  21752915.445 7 -10739881.155 7  -9036280.04348  21752906.99048        51.000
  22792574.671 6  -6174758.670 6  -5580077.24348  22792568.57248        47.000
  23446714.858 6  -8644023.740 6  -6723545.79347  23446707.83047        43.000
 08 11 15  0 49  0.0000000  0  9G 3G 6G13G16G19G21G23G25G31
  19945633.738 8 -26964647.071 8 -21000400.42949  19945627.78649        53.000
  20265081.975 7 -25027211.595 7 -19488897.13949  20265075.97949        52.000
  22135474.784 7  -7902385.028 7  -9028685.48648  22135468.35548        48.000
  21236500.497 7 -19905164.664 7 -15488229.90049  21236493.38649        50.000
  21782456.216 7 -17087949.182 7 -13298426.89848  21782448.24748        48.000
  23945892.873 6  -8213864.566 6  -6395974.59146  23945886.57646        43.000
  21761014.276 7 -10697320.637 7  -9003116.01448  21761006.18248        48.000
  22776907.517 6  -6257090.419 6  -5644231.84548  22776901.39748        47.000
  23464051.918 6  -8552921.347 6  -6652556.95547  23464046.11547        43.000
 08 11 15  0 49 30.0000000  0  9G 3G 6G13G16G19G21G23G25G31
  19940357.000 8 -26992376.733 8 -21022007.96149  19940351.19649        53.000
  20265955.969 7 -25022619.521 7 -19485318.90449  20265949.75049        51.000
  22133954.656 7  -7910374.195 7  -9034910.79448  22133948.35848        48.000
  21244439.368 7 -19863444.873 7 -15455720.98049  21244432.00549        50.000
  21766600.920 7 -17171268.561 7 -13363351.07348  21766592.71948        48.000
  23948925.760 6  -8197929.701 6  -6383557.82547  23948918.73147        43.000
  21769216.068 7 -10654222.187 7  -8969532.80948  21769208.31548        49.000
  22761277.162 6  -6339226.788 6  -5708234.17448  22761271.21248        47.000
  23481432.217 6  -8461587.315 6  -6581387.63447  23481426.04547        43.000
 08 11 15  0 50  0.0000000  0  9G 3G 6G13G16G19G21G23G25G31
  19935180.836 8 -27019578.118 8 -21043203.84149  19935174.60849        53.000
  20266919.966 7 -25017552.865 7 -19481370.85949  20266913.82449        52.000
  22132552.964 7  -7917742.141 7  -9040652.07648  22132545.89348        49.000
  21252408.978 7 -19821563.819 7 -15423086.41149  21252401.97149        51.000
  21750815.572 7 -17254218.714 7 -13427987.55148  21750807.80048        48.000
  23952049.501 6  -8181515.486 6  -6370767.50946  23952042.08546        44.000
  21777518.905 7 -10610588.778 7  -8935532.76048  21777510.54748        50.000
  22745684.686 6  -6421166.559 6  -5772083.33148  22745678.34448        46.000
  23498855.946 6  -8370023.909 6  -6510039.55547  23498849.33747        43.000
 08 11 15  0 50 30.0000000  0  9G 3G 6G13G16G19G21G23G25G31
  19930105.080 8 -27046251.219 8 -21063988.07149  19930098.98749        53.000
  20267974.248 7 -25012012.042 7 -19477053.33849  20267968.38849        51.000
  22131268.865 7  -7924488.377 7  -9045908.88648  22131262.45348        49.000
  21260409.627 7 -19779521.087 7 -15390325.85249  21260402.60049        50.000
  21735101.500 6 -17336797.313 6 -13492334.48748  21735093.32148        47.000
  23955263.296 6  -8164622.117 6  -6357603.84546  23955257.03846        43.000
  21785923.406 7 -10566421.844 7  -8901116.98848  21785914.86548        51.000
  22730130.442 6  -6502906.885 6  -5835777.08648  22730123.62648        46.000
  23516323.199 6  -8278231.929 6  -6438513.35147  23516316.69547        43.000
 08 11 15  0 51  0.0000000  0  9G 3G 6G13G16G19G21G23G25G31
  19925129.930 8 -27072395.067 8 -21084359.89949  19925123.94249        53.000
  20269118.701 7 -25005997.585 7 -19472366.74649  20269112.65649        51.000
  22130103.511 7  -7930612.629 7  -9050681.04748  22130096.93248        48.000
  21268440.912 7 -19737316.752 7 -15357439.36949  21268433.57149        52.000
  21719458.079 7 -17419002.458 7 -13556390.43748  21719450.68548        48.000
  23958569.520 5  -8147248.992 5  -6344066.35946  23958562.90046        42.000
  21794429.790 7 -10521723.093 7  -8866286.80748  21794421.22148        51.000
  22714613.822 6  -6584445.279 6  -5899313.48648  22714607.72448        46.000
  23533834.143 6  -8186212.132 6  -6366809.66747  23533827.63847        43.000
 08 11 15  0 51 30.0000000  0  9G 3G 6G13G16G19G21G23G25G31
  19920255.342 7 -27098010.675 7 -21104320.11549  19920249.33949        52.000
  20270353.020 7 -24999511.286 7 -19467312.48949  20270347.12149        51.000
  22129056.371 7  -7936115.438 7  -9054968.96148  22129050.21248        48.000
  21276502.423 7 -19694952.351 7 -15324428.16549  21276495.20349        52.000
  21703886.590 6 -17500833.439 6 -13620154.82948  21703878.50948        47.000
  23961966.807 6  -8129396.856 6  -6330155.61446  23961960.15846        44.000
  21803036.201 7 -10476495.326 7  -8831044.39848  21803028.13348        50.000
  22699136.540 6  -6665780.215 6  -5962691.36348  22699130.21848        47.000
  23551387.599 6  -8093966.705 6  -6294930.18147  23551381.19347        44.000
 08 11 15  0 52  0.0000000  0  9G 3G 6G13G16G19G21G23G25G31
  19915481.491 7 -27123097.448 7 -21123868.23849  19915475.58349        52.000
  20271676.879 7 -24992553.784 7 -19461891.04849  20271670.83249        51.000
  22128127.246 6  -7940996.618 6  -9058772.47848  22128120.93348        47.000
  21284594.525 7 -19652427.646 7 -15291292.02949  21284587.66449        51.000
  21688386.037 6 -17582287.964 6 -13683625.86048  21688378.26348        47.000
  23965454.851 6  -8111065.615 6  -6315871.51946  23965448.42346        43.000
  21811743.056 7 -10430740.845 7  -8795391.55648  21811734.63948        49.000
  22683698.173 6  -6746909.123 6  -6025908.69048  22683691.81548        47.000
  23568984.109 6  -8001496.460 6  -6222875.46747  23568978.32447        44.000
 08 11 15  0 52 30.0000000  0  9G 3G 6G13G16G19G21G23G25G31
  19910808.293 7 -27147655.585 7 -21143004.45049  19910802.73049        52.000
  20273090.472 7 -24985126.154 7 -19456103.29849  20273084.32949        51.000
  22127317.137 7  -7945256.602 7  -9062091.97648  22127309.87248        48.000
  21292717.160 7 -19609742.914 7 -15258031.23349  21292710.02649        50.000
  21672957.835 7 -17663364.551 7 -13746802.40748  21672949.68548        48.000
  23969035.241 6  -8092255.334 6  -6301214.16346  23969027.99346        44.000
  21820549.744 7 -10384461.737 7  -8759329.93248  21820541.51648        50.000
  22668299.370 6  -6827829.849 6  -6088963.78748  22668292.98148        45.000
  23586623.121 6  -7908802.793 6  -6150646.70447  23586617.60747        44.000
 08 11 15  0 53  0.0000000  0  9G 3G 6G13G16G19G21G23G25G31
  19906235.467 7 -27171685.930 7 -21161729.38849  19906229.35649        52.000
  20274593.178 7 -24977229.739 7 -19449950.23749  20274587.19349        51.000
  22126624.418 7  -7948895.753 7  -9064927.67848  22126618.02448        48.000
  21300870.212 7 -19566898.855 7 -15224646.25549  21300863.26649        51.000
  21657601.723 7 -17744061.863 7 -13809683.40948  21657593.20348        48.000
  23972705.536 6  -8072966.510 6  -6286183.87746  23972698.35846        44.000
  21829455.460 7 -10337660.480 7  -8722861.44948  21829447.12148        50.000
  22652940.424 6  -6908540.367 6  -6151855.10148  22652934.10948        44.000
  23604304.047 6  -7815887.343 6  -6078245.10247  23604299.05147        44.000
 08 11 15  0 53 30.0000000  0  9G 3G 6G13G16G19G21G23G25G31
  19901763.010 7 -27195188.065 7 -21180042.73949  19901757.02349        52.000
  20276184.865 7 -24968865.364 7 -19443432.54049  20276179.34549        51.000
  22126050.030 7  -7951914.041 7  -9067279.59448  22126043.74448        48.000
  21309053.438 7 -19523895.271 7 -15191136.98049  21309046.51049        52.000
  21642317.694 7 -17824378.241 7 -13872267.57248  21642309.86648        48.000
  23976467.511 6  -8053198.820 6  -6270780.49446  23976460.29846        43.000
  21838460.225 7 -10290338.891 7  -8685987.48648  21838452.45248        50.000
  22637622.199 6  -6989038.278 6  -6214580.73348  22637615.73048        45.000
  23622027.860 6  -7722751.114 6  -6005671.47047  23622021.23647        45.000
 08 11 15  0 54  0.0000000  0  9G 3G 6G13G16G19G21G23G25G31
  19897391.009 7 -27218162.983 7 -21197945.26849  19897384.96949        52.000
  20277865.316 7 -24960034.716 7 -19436551.51349  20277859.65049        51.000
  22125593.714 7  -7954312.501 7  -9069148.52848  22125587.34448        48.000
  21317266.741 7 -19480733.195 7 -15157504.20249  21317260.19049        51.000
  21627106.376 7 -17904312.595 7 -13934554.06248  21627098.56848        48.000
  23980319.990 6  -8032952.971 6  -6255004.48946  23980312.59346        44.000
  21847564.187 7 -10242500.026 7  -8648710.46448  21847555.74548        51.000
  22622344.916 6  -7069321.924 6  -6277139.40648  22622339.16448        45.000
  23639792.395 6  -7629396.026 6  -5932927.31647  23639786.72447        43.000
 08 11 15  0 54 30.0000000  0  9G 3G 6G13G16G19G21G23G25G31
  19893119.710 7 -27240609.217 7 -21215435.83849  19893113.41249        52.000
  20279634.359 7 -24950737.787 7 -19429307.15749  20279628.38749        50.000
  22125255.466 7  -7956089.906 7  -9070533.53348  22125249.30448        49.000
  21325510.838 7 -19437411.806 7 -15123747.28749  21325503.71949        52.000
  21611968.759 6 -17983862.170 6 -13996540.71848  21611960.94748        47.000
  23984263.286 5  -8012228.949 5  -6238855.89146  23984256.42546        42.000
  21856765.899 7 -10194145.051 7  -8611031.27648  21856757.65748        51.000
  22607108.592 6  -7149387.940 6  -6339528.49748  22607102.53648        45.000
  23657598.752 6  -7535822.371 6  -5860012.85947  23657593.43147        43.000
 08 11 15  0 55  0.0000000  0 10G 3G 6G 7G13G16G19G21G23G25G31
  19888948.705 8 -27262528.118 8 -21232515.49149  19888942.96949        53.000
  20281491.630 7 -24940976.899 7 -19421701.25449  20281485.88949        51.000
  24044257.499 1     90838.02111                                        32.000
  22125034.431 7  -7957247.595 7  -9071435.63648  22125028.52848        48.000
  21333784.401 7 -19393932.843 7 -15089867.58849  21333777.31649        52.000
  21596904.505 6 -18063026.754 6 -14058227.39148  21596896.94248        47.000
  23988298.224 6  -7991027.863 6  -6222335.56546  23988290.78546        44.000
  21866064.579 7 -10145277.430 7  -8572952.62848  21866057.10648        49.000
  22591914.821 6  -7229235.232 6  -6401747.16048  22591907.86148        47.000
  23675446.654 6  -7442032.471 6  -5786929.83747  23675440.23747        44.000
 08 11 15  0 55 30.0000000  0 10G 3G 6G 7G13G16G19G21G23G25G31
  19884877.447 7 -27283924.212 7 -21249187.77049  19884871.11849        52.000
  20283436.580 7 -24930757.110 7 -19413737.79349  20283430.38349        51.000
  24024870.096 1    -11051.497 1                                        31.000
  22124931.524 7  -7957789.994 7  -9071858.30348  22124925.59848        48.000
  21342087.531 7 -19350300.721 7 -15055868.54849  21342080.65349        52.000
  21581912.772 7 -18141808.764 7 -14119615.94848  21581904.72548        48.000
  23992422.359 6  -7969353.461 6  -6205446.39646  23992414.83746        44.000
  21875460.527 7 -10095903.542 7  -8534479.48248  21875452.37348        50.000
  22576761.525 6  -7308865.746 6  -6463796.91648  22576755.05448        46.000
  23693334.662 6  -7348032.184 6  -5713682.92447  23693330.03347        45.000
 08 11 15  0 56  0.0000000  0 10G 3G 6G 7G13G16G19G21G23G25G31
  19880907.044 7 -27304787.822 7 -21265445.11849  19880900.90349        52.000
  20285470.417 7 -24920069.561 7 -19405409.82449  20285464.36449        51.000
  24005495.016 1   -112860.750 1                                        32.000
  22124947.608 7  -7957707.640 7  -9071794.13548  22124941.06848        49.000
  21350421.595 7 -19306505.133 7 -15021742.13149  21350414.44849        51.000
  21566996.400 7 -18220196.648 7 -14180697.39348  21566988.24348        48.000
  23996638.360 5  -7947196.168 5  -6188180.95146  23996631.88746        42.000
  21884953.505 7 -10046015.788 7  -8495605.92548  21884945.71248        50.000
  22561651.813 6  -7388266.992 6  -6525668.02948  22561645.08848        46.000
  23711264.539 6  -7253812.560 6  -5640265.09647  23711258.92947        44.000
 08 11 15  0 56 30.0000000  0 10G 3G 6G 7G13G16G19G21G23G25G31
  19877037.570 7 -27325122.422 7 -21281290.26449  19877031.62049        52.000
  20287592.187 7 -24908919.134 7 -19396721.18549  20287586.45149        51.000
  23986136.522 1                                                        32.000
  22125081.223 7  -7957004.776 7  -9071246.45648  22125075.47248        48.000
  21358785.676 7 -19262550.463 7 -14987491.76249  21358778.53549        50.000
  21552154.003 7 -18298192.644 7 -14241473.46948  21552145.91548        48.000
  24000945.919 6  -7924560.165 6  -6170542.50846  24000938.86046        44.000
  21894543.316 7  -9995620.253 7  -8456336.70648  21894535.39048        49.000
  22546585.426 6  -7467440.623 6  -6587361.76248  22546579.63548        45.000
  23729234.491 6  -7159378.813 6  -5566680.41147  23729228.62847        44.000
 08 11 15  0 57  0.0000000  0 10G 3G 6G 7G13G16G19G21G23G25G31
  19873266.520 7 -27344936.269 7 -21296729.61749  19873261.38449        52.000
  20289800.543 7 -24897314.838 7 -19387678.87649  20289794.77949        51.000
  23966791.468 1   -316249.714 1                                        29.000
  22125331.936 7  -7955689.316 7  -9070221.43748  22125325.09448        48.000
  21367178.870 7 -19218444.952 7 -14953123.84748  21367171.55048        50.000
  21537385.093 6 -18375803.077 6 -14301949.11848  21537377.15748        47.000
  24005343.170 6  -7901453.534 6  -6152537.32246  24005335.83746        43.000
  21904228.348 7  -9944727.098 7  -8416679.69848  21904220.00548        49.000
  22531561.367 6  -7546392.218 6  -6648882.47248  22531554.97348        45.000
  23747243.067 6  -7064740.111 6  -5492936.04447  23747238.21247        43.000
 08 11 15  0 57 30.0000000  0 10G 3G 6G 7G13G16G19G21G23G25G31
  19869597.741 7 -27364217.495 7 -21311753.94449  19869591.96749        52.000
  20292097.194 7 -24885245.526 7 -19378274.22249  20292091.31049        51.000
  23947460.700 1                                                        27.000
  22125700.277 7  -7953749.334 7  -9068709.78948  22125693.63548        48.000
  21375603.160 7 -19174176.507 7 -14918628.97649  21375596.14449        50.000
  21522692.515 7 -18453014.303 7 -14362113.70448  21522684.06048        48.000
  24009831.784 6  -7877864.425 6  -6134156.16846  24009824.96646        43.000
  21914009.428 7  -9893326.529 7  -8376627.33748  21914001.21848        49.000
  22516582.373 6  -7625107.251 6  -6710218.84448  22516576.30748        46.000
  23765293.130 6  -6969885.671 6  -5419023.53947  23765288.52947        43.000
 08 11 15  0 58  0.0000000  0 10G 3G 6G 7G13G16G19G21G23G25G31
  19866028.396 7 -27382975.823 7 -21326370.81649  19866022.47649        52.000
  20294480.395 7 -24872721.963 7 -19368515.60449  20294474.44649        51.000
  23928150.442 1   -519311.604 1                                        30.000
  22126186.759 7  -7951195.000 7  -9066719.39748  22126180.63248        49.000
  21384056.134 7 -19129754.861 7 -14884014.72848  21384048.98748        50.000
  21508073.803 7 -18529834.285 7 -14421973.40448  21508065.50148        48.000
  24014410.140 5  -7853802.751 5  -6115406.81546  24014404.14246        42.000
  21923884.590 7  -9841430.473 7  -8336188.85748  21923877.04348        50.000
  22501647.346 6  -7703592.847 6  -6771376.44148  22501641.02648        47.000
  23783382.368 6  -6874826.240 6  -5344951.31447  23783377.44547        43.000
 08 11 15  0 58 30.0000000  0 10G 3G 6G 7G13G16G19G21G23G25G31
  19862558.871 7 -27401209.034 7 -21340578.51749  19862552.64749        52.000
  20296950.482 7 -24859742.516 7 -19358401.75249  20296944.50849        51.000
  23908850.709 1   -620717.595 1                                        30.000
  22126790.368 7  -7948024.495 7  -9064248.88748  22126784.03448        48.000
  21392538.949 7 -19085177.652 7 -14849279.26248  21392532.01748        49.000
  21493530.855 7 -18606258.716 7 -14481524.90448  21493523.06948        48.000
  24019080.871 6  -7829265.768 6  -6096287.09147  24019073.71047        44.000
  21933854.859 7  -9789038.766 7  -8295364.17948  21933846.38248        49.000
  22486756.733 6  -7781844.110 6  -6832351.46748  22486749.55448        47.000
  23801511.581 6  -6779560.350 6  -5270718.19647  23801505.60247        43.000
 08 11 15  0 59  0.0000000  0 10G 3G 6G 7G13G16G19G21G23G25G31
  19859188.713 7 -27418918.159 7 -21354377.82749  19859182.56049        52.000
  20299506.577 7 -24846309.388 7 -19347934.38549  20299500.42649        51.000
  23889572.326 1   -722037.475 1                                        30.000
  22127510.311 7  -7944238.603 7  -9061298.84848  22127504.13548        48.000
  21401051.128 7 -19040446.174 7 -14814423.58348  21401044.31348        49.000
  21479062.967 7 -18682287.454 7 -14540768.05848  21479055.14648        48.000
  24023839.629 5  -7804255.485 5  -6076798.52346  24023832.14846        42.000
  21943918.444 7  -9736154.595 7  -8254155.73648  21943910.22748        50.000
  22471910.612 6  -7859859.723 6  -6893142.83848  22471904.42048        46.000
  23819678.520 5  -6684090.802 5  -5196326.39147  23819673.68647        42.000
 08 11 15  0 59 30.0000000  0  9G 3G 6G13G16G19G21G23G25G31
  19855919.277 7 -27436098.876 7 -21367765.40949  19855913.59849        52.000
  20302149.547 7 -24832419.481 7 -19337111.08349  20302143.88649        51.000
  22128348.599 7  -7939833.662 7  -9057866.43348  22128342.70748        48.000
  21409592.982 7 -18995556.173 7 -14779444.39049  21409586.29549        49.000
  21464671.790 7 -18757914.200 7 -14599697.98248  21464663.34848        48.000
  24028689.158 5  -7778767.305 5  -6056937.60346  24028682.60246        41.000
  21954076.164 7  -9682776.183 7  -8212562.19348  21954068.25348        50.000
  22457110.847 6  -7937632.924 6  -6953745.34048  22457103.76848        46.000
  23837884.455 5  -6588414.290 5  -5121773.31547  23837880.52947        41.000
 08 11 15  1  0  0.0000000  0  9G 3G 6G13G16G19G21G23G25G31
  19852749.542 7 -27452756.308 7 -21380745.22149  19852743.45949        52.000
  20304878.461 7 -24818078.431 7 -19325936.23549  20304872.70849        51.000
  22129303.810 7  -7934814.948 7  -9053955.75848  22129297.12548        49.000
  21418164.500 7 -18950512.359 7 -14744345.32848  21418157.91048        49.000
  21450356.512 7 -18833142.291 7 -14658317.26448  21450348.43948        48.000
  24033630.031 6  -7752806.518 6  -6036708.42246  24033623.28146        43.000
  21964326.178 7  -9628910.545 7  -8170588.97448  21964318.46748        50.000
  22442356.793 6  -8015166.167 6  -7014160.83748  22442350.12848        45.000
  23856130.050 5  -6492536.926 5  -5047063.78247  23856124.54947        42.000
 08 11 15  1  0 30.0000000  0  9G 3G 6G13G16G19G21G23G25G31
  19849678.857 7 -27468890.557 7 -21393317.35949  19849673.31049        52.000
  20307693.230 7 -24803287.248 7 -19314410.63849  20307687.36549        51.000
  22130376.170 7  -7929182.487 7  -9049566.84048  22130369.21348        48.000
  21426765.331 7 -18905314.754 7 -14709126.43448  21426758.41548        50.000
  21436117.252 7 -18907970.014 7 -14716624.57249  21436109.56549        48.000
  24038659.694 5  -7726372.715 5  -6016110.62946  24038651.96346        41.000
  21974668.757 7  -9574559.940 7  -8128237.88848  21974660.61148        49.000
  22427648.906 6  -8092456.737 6  -7074387.26348  22427642.09948        47.000
  23874412.489 6  -6396459.396 6  -4972198.25547  23874407.78547        44.000
 08 11 15  1  1  0.0000000  0  9G 3G 6G13G16G19G21G23G25G31
  19846708.500 7 -27484500.763 7 -21405481.15049  19846702.27849        52.000
  20310593.429 7 -24788045.614 7 -19302534.03649  20310587.85049        51.000
  22131564.224 7  -7922935.320 7  -9044698.92648  22131557.68648        49.000
  21435396.152 7 -18859962.155 7 -14673786.76048  21435389.56248        50.000
  21421954.546 7 -18982394.588 7 -14774617.72449  21421946.45749        49.000
  24043779.793 5  -7699465.680 5  -5995144.11046  24043772.89246        42.000
  21985104.044 7  -9519725.307 7  -8085509.62948  21985095.65948        49.000
  22412987.947 6  -8169500.923 6  -7134421.69148  22412980.97548        46.000
  23892734.257 6  -6300182.209 6  -4897177.15447  23892729.48247        43.000
 08 11 15  1  1 30.0000000  0  9G 3G 6G13G16G19G21G23G25G31
  19843838.020 7 -27499587.978 7 -21417237.42949  19843831.75249        52.000
  20313579.388 7 -24772355.798 7 -19290308.21049  20313573.52149        51.000
  22132870.166 7  -7916075.244 7  -9039353.42748  22132863.86548        48.000
  21444055.654 7 -18814455.548 7 -14638327.08048  21444048.54748        49.000
  21407868.710 7 -19056415.449 7 -14832296.32049  21407860.63349        48.000
  24048990.223 6  -7672086.340 6  -5973809.58446  24048983.53246        43.000
  21995629.568 7  -9464410.207 7  -8042406.96748  21995622.26348        50.000
  22398374.097 6  -8246297.233 6  -7194262.97648  22398367.39648        47.000
  23911092.366 6  -6203707.529 6  -4822002.11647  23911086.79547        43.000
 08 11 15  1  2  0.0000000  0 10G 3G 6G 7G13G16G19G21G23G25G31
  19841066.427 7 -27514151.975 7 -21428585.99949  19841060.02449        52.000
  20316650.381 7 -24756218.072 7 -19277733.35849  20316644.45349        51.000
  23774262.929 2     92672.091 2                                        34.000
  22134292.154 7  -7908602.078 7  -9033530.20348  22134285.53048        48.000
  21452744.764 7 -18768794.407 7 -14602746.97648  21452737.75948        49.000
  21393860.820 7 -19130030.269 7 -14889658.49849  21393852.28549        48.000
  24054289.863 5  -7644234.739 5  -5952107.04046  24054283.18646        41.000
  22006247.097 7  -9408616.220 7  -7998931.16848  22006238.64548        49.000
  22383808.331 6  -8322842.536 6  -7253908.65848  22383801.04748        47.000
  23929487.958 5  -6107035.964 5  -4746673.64147  23929483.30347        41.000
 08 11 15  1  2 30.0000000  0 10G 3G 6G 7G13G16G19G21G23G25G31
  19838393.816 8 -27528195.187 8 -21439528.76649  19838387.95449        53.000
  20319805.651 7 -24739636.174 7 -19264812.40949  20319799.73049        51.000
  23755111.549 2     -7975.837 2                                        35.000
  22135830.300 7  -7900518.797 7  -9027231.55348  22135823.66248        48.000
  21461462.451 7 -18722981.251 7 -14567048.41548  21461455.80348        49.000
  21379928.974 7 -19203240.130 7 -14946705.12849  21379921.38549        49.000
  24059679.324 5  -7615913.110 5  -5930038.22946  24059672.03646        42.000
  22016954.520 7  -9352348.293 7  -7955086.05348  22016946.53748        50.000
  22369289.581 7  -8399136.858 7  -7313358.77848  22369283.07348        48.000
  23947921.999 5  -6010171.029 5  -4671194.59947  23947916.62247        42.000
 08 11 15  1  3  0.0000000  0 10G 3G 6G 7G13G16G19G21G23G25G31
  19835820.748 7 -27541716.236 7 -21450064.65149  19835815.02049        52.000
  20323045.583 7 -24722609.516 7 -19251544.87349  20323039.63649        51.000
  23735977.927 2   -108519.134 2                                        34.000
  22137484.870 7  -7891824.020 7  -9020456.39848  22137478.74048        48.000
  21470209.776 7 -18677014.405 7 -14531230.11348  21470202.94448        49.000
  21366075.468 7 -19276041.749 7 -15003433.64949  21366067.37749        48.000
  24065158.853 5  -7587120.292 5  -5907602.27146  24065152.36646        41.000
  22027752.178 7  -9295606.924 7  -7910872.03248  22027743.51048        49.000
  22354820.098 7  -8475176.118 7  -7372610.13848  22354813.54648        48.000
  23966391.137 6  -5913112.636 6  -4595564.74747  23966386.59747        45.000
 08 11 15  1  3 30.0000000  0 10G 3G 6G 7G13G16G19G21G23G25G31
  19833347.316 7 -27554715.222 7 -21460193.73149  19833341.37049        52.000
  20326370.161 7 -24705139.018 7 -19237931.50049  20326364.18349        51.000
  23716865.407 1   -208954.945 1                                        33.000
  22139255.826 7  -7882518.408 7  -9013205.29148  22139249.28548        48.000
  21478986.180 7 -18630893.929 7 -14495292.08648  21478979.79248        49.000
  21352299.780 7 -19348433.558 7 -15059842.83849  21352291.33849        48.000
  24070727.429 5  -7557856.082 5  -5884799.04546  24070721.27146        42.000
  22038639.143 7  -9238394.926 7  -7866291.27648  22038630.44548        50.000
  22340399.137 6  -8550957.593 6  -7431660.64148  22340392.75148        47.000
  23984898.427 6  -5815861.931 6  -4519785.05247  23984892.71947        44.000
 08 11 15  1  4  0.0000000  0 10G 3G 6G 7G13G16G19G21G23G25G31
  19830973.193 7 -27567192.564 7 -21469916.33549  19830967.14049        52.000
  20329779.014 7 -24687225.942 7 -19223973.25849  20329773.27749        51.000
  23697772.669 1   -309280.691 1                                        32.000
  22141142.547 7  -7872602.542 7  -9005478.65448  22141136.77448        48.000
  21487792.027 7 -18584619.753 7 -14459234.30048  21487785.23148        49.000
  21338602.076 7 -19420414.114 7 -15115931.56349  21338594.22049        49.000
  24076385.634 5  -7528121.511 5  -5861629.23846  24076377.82046        41.000
  22049615.047 7  -9180714.451 7  -7821345.47248  22049607.16748        48.000
  22326027.614 6  -8626479.010 6  -7490508.47848  22326021.69248        47.000
  24003440.741 6  -5718420.138 6  -4443856.49447  24003435.09747        44.000
 08 11 15  1  4 30.0000000  0 10G 3G 6G 7G13G16G19G21G23G25G31
  19828697.980 7 -27579149.216 7 -21479233.20649  19828692.21749        52.000
  20333271.725 7 -24668871.611 7 -19209671.18449  20333265.93949        51.000
  23678702.240 1   -409494.483 1                                        33.000
  22143145.334 7  -7862077.640 7  -8997277.44848  22143138.72648        48.000
  21496626.829 7 -18538192.188 7 -14423056.98348  21496620.13048        49.000
  21324983.356 7 -19491981.945 7 -15171698.68349  21324975.55049        49.000
  24082133.121 5  -7497917.686 5  -5838093.82746  24082126.95946        42.000
  22060680.193 7  -9122568.315 7  -7776036.83748  22060671.78548        49.000
  22311706.666 6  -8701738.080 6  -7549151.90648  22311699.94448        47.000
  24022019.372 6  -5620788.808 6  -4367780.23246  24022012.86546        44.000
 08 11 15  1  5  0.0000000  0 10G 3G 6G 7G13G16G19G21G23G25G31
  19826521.447 7 -27590585.876 7 -21488144.88849  19826515.52349        52.000
  20336847.844 7 -24650077.927 7 -19195026.75449  20336841.78849        51.000
  23659653.851 1   -509594.481 1  -1100144.13655  23659648.45245        33.000
  22145263.834 7  -7850944.705 7  -8988602.45148  22145257.04248        48.000
  21505490.898 7 -18491612.051 7 -14386760.78848  21505484.01548        49.000
  21311443.132 7 -19563136.575 7 -15227143.83649  21311435.31249        49.000
  24087970.168 5  -7467245.221 5  -5814193.20946  24087964.15146        41.000
  22071832.952 7  -9063959.802 7  -7730367.88248  22071824.86748        48.000
  22297435.298 6  -8776733.109 6  -7607589.58448  22297428.92448        47.000
  24040633.143 5  -5522970.007 5  -4291557.85846  24040626.88746        42.000
 08 11 15  1  5 30.0000000  0 10G 3G 6G 7G13G16G19G21G23G25G31
  19824444.044 7 -27601503.730 7 -21496652.30349  19824438.10949        52.000
  20340507.809 8 -24630847.380 8 -19180041.91049  20340502.14249        53.000
  23640625.286 1   -609578.111 1  -1178053.21945  23640619.65945        32.000
  22147497.961 7  -7839205.495 7  -8979455.01748  22147491.63148        49.000
  21514383.716 7 -18444880.268 7 -14350346.42948  21514376.24648        49.000
  21297980.894 7 -19633877.647 7 -15282266.72349  21297973.36149        49.000
  24093895.758 5  -7436105.750 5  -5789928.70246  24093889.09246        42.000
  22083073.379 7  -9004892.319 7  -7684341.28848  22083065.12848        48.000
  22283214.492 6  -8851462.658 6  -7665820.38548  22283208.60248        47.000
  24059283.389 6  -5424966.011 6  -4215191.14347  24059277.47947        45.000
 08 11 15  1  6  0.0000000  0 11G 3G 6G 7G13G16G19G21G23G25G27G31
  19822464.969 8 -27611903.062 8 -21504755.67549  19822458.46849        53.000
  20344249.860 7 -24611180.089 7 -19164716.75349  20344244.31549        52.000
  23621622.234 1                  -1255877.05445  23621615.37645        31.000
  22149847.122 7  -7826860.330 7  -8969835.41748  22149841.01748        48.000
  21523305.178 7 -18397996.519 7 -14313813.65948  21523298.50348        50.000
  21284598.609 7 -19704202.979 7 -15337065.65949  21284590.88349        50.000
  24099910.642 6  -7404498.604 6  -5765299.77646  24099903.34846        43.000
  22094401.023 7  -8945367.593 7  -7637958.40248  22094392.14948        49.000
  22269045.335 6  -8925923.536 6  -7723841.84548  22269038.69648        47.000
  25094824.196 1    136952.43011                                        33.000
  24077967.636 6  -5326777.663 6  -4138680.82347  24077962.68247        44.000
 08 11 15  1  6 30.0000000  0 10G 3G 6G13G16G19G21G23G25G27G31
  19820582.684 8 -27621791.340 8 -21512460.81949  19820576.83349        53.000
  20348074.754 7 -24591084.667 7 -19149057.98049  20348068.14049        52.000
  22152310.435 6  -7813917.103 6  -8959749.80848  22152303.55048        47.000
  21532254.433 7 -18350967.538 7 -14277167.70748  21532247.87948        50.000
  21271294.244 7 -19774118.444 7 -15391545.22649  21271286.58449        49.000
  24106012.961 6  -7372431.351 6  -5740312.30446  24106006.12346        43.000
  22105813.518 7  -8885395.619 7  -7591227.01748  22105804.80748        50.000
  22254926.247 7  -9000120.656 7  -7781657.78448  22254919.72148        48.000
  25076667.149 1     41543.955 1                                        32.000
  24096685.617 6  -5228413.451 6  -4062033.50147  24096681.29547        43.000
 08 11 15  1  7  0.0000000  0 10G 3G 6G13G16G19G21G23G25G27G31
  19818801.215 7 -27631155.722 7 -21519757.73749  19818795.22949        52.000
  20351981.966 7 -24570549.058 7 -19133056.20149  20351976.09649        51.000
  22154889.503 7  -7800363.009 7  -8949188.19347  22154882.83747        48.000
  21541233.778 7 -18303780.293 7 -14240398.44648  21541227.05248        49.000
  21258070.776 7 -19843609.072 7 -15445693.74949  21258062.54749        48.000
  24112204.651 5  -7339892.281 5  -5714957.22346  24112197.31246        42.000
  22117312.996 7  -8824965.660 7  -7544138.74648  22117303.44348        49.000
  22240860.400 6  -9074037.811 6  -7839255.56548  22240853.97048        47.000
  25058515.330 1    -53842.398 1                                        31.000
  24115439.672 6  -5129861.154 6  -3985239.60847  24115434.36047        43.000
 08 11 15  1  7 30.0000000  0 10G 3G 6G13G16G19G21G23G25G27G31
  19817117.750 7 -27640003.272 7 -21526651.92949  19817111.17749        52.000
  20355971.978 7 -24549581.266 7 -19116717.66549  20355966.02349        51.000
  22157583.283 7  -7786205.624 7  -8938156.47948  22157577.45348        48.000
  21550242.303 7 -18256441.788 7 -14203511.31448  21550235.27348        49.000
  21244926.871 7 -19912680.435 7 -15499515.58249  21244918.76349        50.000
  24118485.548 6  -7306888.142 6  -5689239.68746  24118478.22446        44.000
  22128897.121 7  -8764087.093 7  -7496700.92448  22128888.87248        49.000
  22226846.572 6  -9147679.778 6  -7896638.90348  22226839.69648        46.000
  25040368.963 1   -149211.903 1                                        31.000
  24134228.086 6  -5031129.386 6  -3908305.83847  24134222.79647        44.000
 08 11 15  1  8  0.0000000  0 11G 3G 6G 7G13G16G19G21G23G25G27G31
  19815531.974 7 -27648336.051 7 -21533145.00049  19815525.47949        52.000
  20360043.955 7 -24528183.945 7 -19100044.43349  20360037.85649        51.000
  23545841.085 1                                                        32.000
  22160391.909 6  -7771447.371 6  -8926656.56047  22160384.85247        46.000
  21559279.519 7 -18208953.155 7 -14166507.21948  21559271.97848        49.000
  21231862.794 7 -19981332.753 7 -15553010.87549  21231854.90749        49.000
  24124853.280 5  -7273420.734 5  -5663161.20946  24124846.93246        42.000
  22140566.691 7  -8702763.473 7  -7448916.30148  22140559.14148        49.000
  22212885.712 6  -9221045.278 6  -7953806.83448  22212878.84948        47.000
  25022224.897 1   -244563.725 1                                        32.000
  24153049.797 6  -4932220.545 6  -3831234.13147  24153044.14447        44.000
 08 11 15  1  8 30.0000000  0 11G 3G 6G 7G13G16G19G21G23G25G27G31
  19814044.284 7 -27656154.206 7 -21539237.06049  19814038.14849        52.000
  20364196.815 7 -24506357.898 7 -19083037.11849  20364191.06449        51.000
  23526954.964 1                                                        32.000
  22163314.209 6  -7756088.835 6  -8914688.88048  22163308.64548        46.000
  21568344.348 7 -18161313.907 7 -14129385.73248  21568337.42848        49.000
  21218878.588 7 -20049564.148 7 -15606178.17549  21218871.18449        49.000
  24131310.536 6  -7239490.054 6  -5636721.73646  24131303.71046        43.000
  22152320.487 7  -8640997.527 7  -7400787.01548  22152311.81648        49.000
  22198977.618 6  -9294131.537 6  -8010757.15248  22198970.67348        47.000
  25004085.173 1   -339895.524 1                                        31.000
  24171905.329 6  -4833135.536 6  -3754025.09747  24171898.76547        44.000
 08 11 15  1  9  0.0000000  0 11G 3G 6G 7G13G16G19G21G23G25G27G31
  19812654.166 7 -27663457.353 7 -21544927.82149  19812648.36649        52.000
  20368431.802 7 -24484103.658 7 -19065696.14649  20368425.75049        52.000
  23508094.484 1                                                        32.000
  22166351.053 6  -7740130.044 6  -8902253.47148  22166345.19748        46.000
  21577438.825 7 -18113523.861 7 -14092146.75948  21577431.80948        50.000
  21205975.162 7 -20117372.818 7 -15659016.09449  21205967.23249        49.000
  24137856.413 6  -7205096.821 6  -5609921.81946  24137847.98946        45.000
  22164157.428 7  -8578791.149 7  -7352314.51548  22164149.50348        48.000
  22185123.813 7  -9366935.305 7  -8067487.35248  22185116.95848        48.000
  24985947.345 1   -435204.377 1                                        30.000
  24190793.708 5  -4733875.334 5  -3676679.53747  24190788.08547        42.000
 08 11 15  1  9 30.0000000  0 11G 3G 6G 7G13G16G19G21G23G25G27G31
  19811364.223 7 -27670238.355 7 -21550211.71849  19811358.06049        52.000
  20372749.550 7 -24461415.316 7 -19048016.92549  20372743.55249        51.000
  23489262.811 2   -282969.895 2                                        34.000
  22169503.647 6  -7723564.754 6  -8889345.48648  22169496.96148        46.000
  21586562.953 7 -18065575.202 7 -14054784.18848  21586556.09948        50.000
  21193153.440 7 -20184749.988 7 -15711517.77049  21193145.58249        49.000
  24144489.507 5  -7170233.579 5  -5582755.67146  24144483.22246        42.000
  22176079.914 7  -8516139.468 7  -7303495.05148  22176071.83448        49.000
  22171325.252 7  -9439446.869 7  -8123989.87848  22171318.32048        49.000
  24967815.641 1                                                        25.000
  24209716.277 5  -4634433.983 5  -3599192.89846  24209711.12546        42.000
 08 11 15  1 10  0.0000000  0 10G 3G 6G 7G13G16G19G21G23G25G31
  19810169.978 7 -27676513.488 7 -21555101.43049  19810163.99549        51.000
  20377146.494 7 -24438309.419 7 -19030012.33449  20377140.53849        52.000
  23470454.126 4   -381808.392 4  -1753426.98946  23470449.81346        38.000
  22172768.110 6  -7706409.097 6  -8875977.45348  22172762.20348        46.000
  21595714.567 7 -18017483.056 7 -14017309.80948  21595707.75748        50.000
  21180411.353 7 -20251709.443 7 -15763693.94849  21180403.46149        49.000
  24151210.357 6  -7134916.664 6  -5555235.99746  24151204.27446        44.000
  22188083.431 7  -8453060.484 7  -7254342.62248  22188075.52248        49.000
  22157579.555 7  -9511679.053 7  -8180274.69248  22157573.21048        48.000
  24228671.511 6  -4534828.105 6  -3521578.04947  24228665.68647        44.000
 08 11 15  1 10 30.0000000  0 10G 3G 6G 7G13G16G19G21G23G25G31
  19809073.197 7 -27682276.861 7 -21559592.36749  19809066.69349        52.000
  20381623.760 7 -24414780.538 7 -19011678.13749  20381617.58649        51.000
  23451672.418 4   -480508.264 4  -1830335.98046  23451664.85346        39.000
  22176146.601 7  -7688657.845 7  -8862145.30147  22176140.13447        48.000
  21604894.891 7 -17969241.357 7 -13979718.89048  21604888.35648        51.000
  21167750.737 7 -20318243.424 7 -15815538.60649  21167742.87649        49.000
  24158018.625 6  -7099139.610 6  -5527357.77846  24158011.18846        43.000
  22200169.378 7  -8389550.112 7  -7204854.05348  22200161.33348        49.000
  22143889.250 7  -9583622.791 7  -8236334.72748  22143882.70148        49.000
  24247657.828 6  -4435052.268 6  -3443830.74246  24247651.39846        44.000
 08 11 15  1 11  0.0000000  0 10G 3G 6G 7G13G16G19G21G23G25G31
  19808074.086 7 -27687527.980 7 -21563684.15549  19808067.87349        52.000
  20386181.393 7 -24390829.137 7 -18993014.71549  20386175.19549        51.000
  23432916.486 5   -579066.319 5  -1907134.47246  23432909.85046        40.000
  22179638.211 7  -7670310.674 7  -8847848.83647  22179631.66247        48.000
  21614103.858 7 -17920848.912 7 -13942010.51848  21614097.04848        51.000
  21155171.338 7 -20384349.700 7 -15867049.98649  21155162.84749        49.000
  24164914.321 6  -7062902.655 6  -5499121.21746  24164907.79646        44.000
  22212336.666 7  -8325610.233 7  -7155030.78848  22212328.86248        49.000
  22130254.086 7  -9655274.654 7  -8292167.36048  22130247.74448        50.000
  24266676.075 5  -4335107.339 5  -3365951.64046  24266671.24246        41.000
 08 11 15  1 11 30.0000000  0 10G 3G 6G 7G13G16G19G21G23G25G31
  19807171.942 7 -27692269.038 7 -21567378.48649  19807165.69649        52.000
  20390819.024 7 -24366458.002 7 -18974024.21849  20390812.87349        51.000
  23414189.030 5   -677480.984 5  -1983821.19246  23414182.14646        40.000
  22183241.920 6  -7651369.859 6  -8833089.77848  22183235.74648        47.000
  21623340.539 7 -17872307.070 7 -13904185.71848  21623333.87548        51.000
  21142673.133 7 -20450028.341 7 -15918228.13749  21142664.74349        49.000
  24171897.070 5  -7026207.016 5  -5470527.22446  24171890.59246        42.000
  22224584.503 7  -8261244.703 7  -7104875.84348  22224576.76548        49.000
  22116674.926 7  -9726633.652 7  -8347771.77348  22116668.75248        49.000
  24285727.639 6  -4234995.871 6  -3287942.80047  24285721.93147        44.000
 08 11 15  1 12  0.0000000  0 10G 3G 6G 7G13G16G19G21G23G25G31
  19806366.640 7 -27696499.436 7 -21570674.90549  19806360.70249        51.000
  20395536.733 7 -24341667.860 7 -18954707.22649  20395530.73649        52.000
  23395489.352 5   -775749.422 5  -2060393.97646  23395482.86646        41.000
  22186959.022 6  -7631835.956 6  -8817868.55147  22186952.73947        46.000
  21632606.318 7 -17823615.640 7 -13866244.35948  21632599.55248        49.000
  21130256.059 7 -20515277.853 7 -15969071.90049  21130248.28749        49.000
  24178967.432 5  -6989054.408 5  -5441577.16446  24178959.51546        42.000
  22236913.792 7  -8196456.158 7  -7054391.28648  22236905.64948        49.000
  22103152.566 7  -9797696.664 7  -8403145.55348  22103145.87648        48.000
  24304810.151 6  -4134719.002 6  -3209805.07247  24304804.26647        43.000
 08 11 15  1 12 30.0000000  0 10G 3G 6G 7G13G16G19G21G23G25G31
  19805658.509 7 -27700220.725 7 -21573574.60349  19805652.59049        52.000
  20400333.382 7 -24316460.469 7 -18935065.09749  20400327.76849        51.000
  23376817.185 5   -873869.456 5  -2136851.14846  23376810.91646        40.000
  22190789.561 6  -7611710.607 6  -8802186.48447  22190782.43447        47.000
  21641900.769 7 -17774774.439 7 -13828186.30048  21641894.08848        50.000
  21117921.714 7 -20580097.314 7 -16019580.56249  21117913.76949        49.000
  24186124.529 6  -6951444.933 6  -5412271.09146  24186117.71546        44.000
  22249322.420 7  -8131247.441 7  -7003579.31848  22249314.99248        49.000
  22089685.798 6  -9868461.796 6  -8458287.19648  22089679.76948        47.000
  24323922.513 5  -4034278.005 5  -3131539.52546  24323917.21146        42.000
 08 11 15  1 13  0.0000000  0 10G 3G 6G 7G13G16G19G21G23G25G31
  19805047.185 7 -27703433.200 7 -21576077.84649  19805041.52849        52.000
  20405209.465 7 -24290836.829 7 -18915098.63149  20405203.51249        51.000
  23358174.651 5   -971838.244 5  -2213190.46046  23358167.94346        40.000
  22194731.167 6  -7590994.703 6  -8786044.24547  22194724.52047        46.000
  21651222.957 7 -17725783.656 7 -13790011.68248  21651216.15748        50.000
  21105669.057 7 -20644485.276 7 -16069752.99449  21105661.25349        49.000
  24193367.175 5  -6913379.112 5  -5382609.42746  24193360.68846        41.000
  22261810.749 7  -8065621.228 7  -6952442.01148  22261802.89248        49.000
  22076277.559 7  -9938926.269 7  -8513194.58848  22076271.00648        48.000
  24343067.756 5  -3933674.683 5  -3053147.46047  24343061.50047        42.000
 08 11 15  1 13 30.0000000  0 10G 3G 6G 7G13G16G19G21G23G25G31
  19804532.182 7 -27706139.436 7 -21578186.59949  19804526.06849        52.000
  20410163.868 7 -24264800.446 7 -18894810.54249  20410157.99649        51.000
  23339561.118 5  -1069655.334 5  -2289411.55247  23339554.45647        41.000
  22198784.753 6  -7569691.372 6  -8769444.25748  22198778.41248        47.000
  21660573.816 7 -17676645.077 7 -13751721.90248  21660567.40548        50.000
  21093498.496 7 -20708442.535 7 -16119589.80349  21093490.60549        49.000
  24200698.249 5  -6874859.529 5  -5352594.19546  24200690.56646        42.000
  22274377.796 7  -7999581.926 7  -6900982.85148  22274369.15548        49.000
  22062925.678 7 -10009089.714 7  -8567867.39548  22062919.23548        48.000
  24362242.047 6  -3832912.210 6  -2974631.32447  24362237.51147        44.000
 08 11 15  1 14  0.0000000  0 10G 3G 6G 7G13G16G19G21G23G25G31
  19804113.767 7 -27708338.611 7 -21579900.24849  19804107.97049        52.000
  20415197.272 7 -24238351.031 7 -18874200.61049  20415191.80449        51.000
  23320976.483 5  -1167316.434 5  -2365511.07947  23320970.44447        42.000
  22202950.765 6  -7547800.329 6  -8752386.32947  22202944.23147        46.000
  21669953.445 7 -17627357.097 7 -13713315.69748  21669946.22248        49.000
  21081410.024 7 -20771966.243 7 -16169088.79949  21081402.22149        49.000
  24208114.018 5  -6835885.801 5  -5322225.09446  24208107.72246        42.000
  22287022.563 7  -7933131.046 7  -6849202.94748  22287014.95948        48.000
  22049631.921 7 -10078948.082 7  -8622302.49548  22049625.93748        48.000
  24381445.519 5  -3731990.220 5  -2895990.96047  24381442.31247        42.000
 08 11 15  1 14 30.0000000  0 10G 3G 6G 7G13G16G19G21G23G25G31
  19803791.389 7 -27710031.373 7 -21581219.28549  19803785.61449        52.000
  20420308.581 7 -24211490.198 7 -18853270.09049  20420302.48449        51.000
  23302422.384 5  -1264819.498 5  -2441487.47947  23302415.94847        42.000
  22207227.850 6  -7525322.948 6  -8734871.50448  22207222.45548        47.000
  21679360.823 7 -17577919.956 7 -13674793.26848  21679353.75748        50.000
  21069404.699 7 -20835055.533 7 -16218249.27049  21069396.81749        49.000
  24215616.464 6  -6796458.991 6  -5291502.91046  24215609.84446        43.000
  22299745.631 7  -7866271.741 7  -6797104.79348  22299737.55648        49.000
  22036396.812 7 -10148499.069 7  -8676498.05548  22036390.22448        48.000
  24400682.356 6  -3630910.992 6  -2817228.02046  24400676.10746        43.000
 08 11 15  1 15  0.0000000  0 10G 3G 6G 7G13G16G19G21G23G25G31
  19803565.561 7 -27711220.158 7 -21582145.61849  19803559.45749        52.000
  20425497.864 7 -24184220.528 7 -18832020.99349  20425492.03649        52.000
  23283898.718 5  -1362162.816 5  -2517339.41247  23283891.59147        42.000
  22211616.192 6  -7502261.603 6  -8716901.63248  22211610.15748        47.000
  21688796.769 7 -17528334.598 7 -13636155.34648  21688789.68348        48.000
  21057481.838 7 -20897710.538 7 -16267071.35049  21057473.49749        50.000
  24223205.609 5  -6756580.569 5  -5260428.83846  24223199.02046        42.000
  22312545.584 7  -7799007.493 7  -6744691.12148  22312537.82848        49.000
  22023220.943 7 -10217741.315 7  -8730453.05748  22023214.16248        48.000
  24419946.241 6  -3529676.862 6  -2738344.35446  24419940.60046        43.000
 08 11 15  1 15 30.0000000  0 10G 3G 6G 7G13G16G19G21G23G25G31
  19803435.145 7 -27711904.569 7 -21582678.92649  19803429.38049        51.000
  20430764.544 7 -24156542.332 7 -18810453.56849  20430758.97949        51.000
  23265405.516 5  -1459342.776 5  -2593064.03747  23265398.72247        42.000
  22216116.460 6  -7478616.559 6  -8698476.95848  22216109.21648        47.000
  21698260.900 7 -17478600.182 7 -13597401.26648  21698253.74648        50.000
  21045641.829 7 -20959929.130 7 -16315553.36749  21045633.87049        50.000
  24230879.588 5  -6716250.629 5  -5229002.93446  24230873.39746        41.000
  22325422.195 7  -7731340.198 7  -6691963.38447  22325414.11147        48.000
  22010103.527 7 -10286671.600 7  -8784164.97448  22010096.80348        49.000
  24439239.054 4  -3428288.149 4  -2659340.32246  24439234.56346        39.000
 08 11 15  1 16  0.0000000  0 10G 3G 6G 7G13G16G19G21G23G25G31
  19803400.787 7 -27712086.169 7 -21582820.43049  19803394.61949        52.000
  20436108.953 7 -24128458.101 7 -18788569.74849  20436103.28549        51.000
  23246944.035 6  -1556357.678 6  -2668660.03547  23246937.95347        43.000
  22220726.288 6  -7454390.052 6  -8679599.16047  22220719.39847        47.000
  21707753.181 7 -17428717.447 7 -13558531.62848  21707746.44048        49.000
  21033885.681 7 -21021711.281 7 -16363695.29549  21033877.11649        49.000
  24238641.042 6  -6675471.237 6  -5197226.81146  24238632.99846        43.000
  22338374.916 7  -7663273.534 7  -6638924.47648  22338366.71248        48.000
  21997046.240 7 -10355288.267 7  -8837632.50948  21997039.43048        48.000
  24458563.312 6  -3326747.457 6  -2580217.85247  24458558.06647        44.000
 08 11 15  1 16 30.0000000  0 10G 3G 6G 7G13G16G19G21G23G25G31
  19803461.692 7 -27711765.778 7 -21582570.77749  19803455.53549        51.000
  20441530.433 7 -24099969.527 7 -18766370.85549  20441524.27149        51.000
  23228514.978 6  -1653205.332 6  -2744125.72648  23228508.11748        43.000
  22225446.946 6  -7429583.303 6  -8660269.25248  22225440.23248        46.000
  21717273.880 7 -17378686.659 7 -13519546.61748  21717266.78948        51.000
  21022211.610 7 -21083055.724 7 -16411496.15849  21022203.78349        49.000
  24246485.342 5  -6634243.341 5  -5165101.21446  24246478.87046        42.000
  22351402.509 7  -7594811.028 7  -6585577.09548  22351395.47148        48.000
  21984048.885 7 -10423589.248 7  -8890854.04248  21984042.67248        48.000
  24477913.991 6  -3225056.548 6  -2500978.30346  24477908.13846        44.000
 08 11 15  1 17  0.0000000  0 10G 3G 6G 7G13G16G19G21G23G25G31
  19803618.149 7 -27710944.260 7 -21581930.63449  19803612.28749        52.000
  20447028.125 7 -24071077.597 7 -18743857.66949  20447021.94449        51.000
  23210117.597 6  -1749882.953 6  -2819458.92647  23210111.24047        45.000
  22230277.286 6  -7404197.782 6  -8640488.36847  22230271.18347        47.000
  21726822.241 7 -17328507.861 7 -13480446.28848  21726816.02748        50.000
  21010621.454 7 -21143961.471 7 -16458955.16549  21010613.93549        49.000
  24254415.979 6  -6592567.391 6  -5132626.46246  24254410.01846        43.000
  22364505.784 7  -7525955.016 7  -6531923.08448  22364498.61448        48.000
  21971112.113 7 -10491571.727 7  -8943827.40848  21971106.04248        49.000
  24497293.353 5  -3123216.512 5  -2421622.49546  24497287.16646        42.000
 08 11 15  1 17 30.0000000  0 10G 3G 6G 7G13G16G19G21G23G25G31
  19803869.647 7 -27709622.577 7 -21580900.75049  19803863.65549        52.000
  20452602.398 7 -24041784.266 7 -18721031.68849  20452596.68649        51.000
  23191753.661 6  -1846388.060 6  -2894657.69848  23191747.43948        44.000
  22235218.054 6  -7378234.927 6  -8620257.56647  22235212.00247        47.000
  21736399.463 7 -17278180.935 7 -13441230.50948  21736392.46048        50.000
  20999114.894 7 -21204427.796 7 -16506071.77749  20999107.28249        49.000
  24262432.864 6  -6550444.900 6  -5099803.78446  24262424.93746        44.000
  22377683.851 7  -7456708.289 7  -6477964.61448  22377675.58148        49.000
  21958236.567 7 -10559233.632 7  -8996550.96248  21958230.41748        49.000
  24516700.524 5  -3021228.945 5  -2342151.84846  24516695.92346        42.000
 08 11 15  1 18  0.0000000  0 10G 3G 6G 7G13G16G19G21G23G25G31
  19804215.945 7 -27707801.861 7 -21579482.00949  19804210.10349        52.000
  20458253.069 7 -24012091.350 7 -18697894.35549  20458247.03049        51.000
  23173422.356 6  -1942718.821 6  -2969720.61647  23173416.04347        44.000
  22240268.119 6  -7351696.685 6  -8599578.43548  22240261.26048        47.000
  21746004.595 7 -17227706.291 7 -13401899.63148  21745997.43648        51.000
  20987692.674 7 -21264454.196 7 -16552845.58849  20987685.36549        49.000
  24270532.601 6  -6507876.918 6  -5066633.91446  24270525.45946        43.000
  22390934.236 7  -7387074.752 7  -6423704.75548  22390926.39248        49.000
  21945422.386 7 -10626573.099 7  -9049023.26848  21945415.45348        50.000
  24536135.819 5  -2919096.150 5  -2262568.01747  24536130.88547        42.000
 08 11 15  1 18 30.0000000  0 10G 3G 6G 7G13G16G19G21G23G25G31
  19804657.181 7 -27705483.097 7 -21577675.17449  19804651.02749        52.000
  20463979.018 7 -23981999.755 7 -18674446.35949  20463974.01049        51.000
  23155124.883 6  -2038871.811 6  -3044644.98847  23155119.00047        43.000
  22245427.483 6  -7324584.210 6  -8578451.84847  22245421.40447        47.000
  21755637.363 7 -17177083.642 7 -13362453.42248  21755630.43148        51.000
  20976354.055 7 -21324039.079 7 -16599275.35349  20976345.97049        49.000
  24278717.755 5  -6464864.057 5  -5033117.45146  24278711.38246        42.000
  22404258.127 7  -7317056.453 7  -6369145.05948  22404250.42548        48.000
  21932670.014 7 -10693587.162 7  -9101242.02748  21932663.76348        50.000
  24555598.662 5  -2816819.014 5  -2182871.70546  24555593.19946        40.000
 08 11 15  1 19  0.0000000  0 10G 3G 6G 7G13G16G19G21G23G25G31
  19805193.027 7 -27702667.468 7 -21575481.17249  19805187.09449        52.000
  20469780.843 7 -23951512.017 7 -18650689.67949  20469774.61649        51.000
  23136861.801 6  -2134845.335 6  -3119429.53648  23136855.64448        46.000
  22250695.810 6  -7296899.636 6  -8556879.47847  22250689.48847        46.000
  21765298.816 7 -17126313.742 7 -13322892.47948  21765291.54848        51.000
  20965099.712 7 -21383182.393 7 -16645361.05349  20965091.34749        49.000
  24286987.495 6  -6421408.170 6  -4999255.73146  24286980.16546        45.000
  22417654.987 7  -7246657.353 7  -6314288.64448  22417647.18148        49.000
  21919980.263 7 -10760274.306 7  -9153206.03448  21919973.78748        51.000
  24575088.584 5  -2714400.227 5  -2103064.96546  24575082.81646        40.000
 08 11 15  1 19 30.0000000  0 10G 3G 6G 7G13G16G19G21G23G25G31
  19805823.033 7 -27699356.280 7 -21572901.01449  19805817.16749        52.000
  20475657.711 7 -23920629.702 7 -18626625.53149  20475651.57949        51.000
  23118633.388 6  -2230637.164 6  -3194072.51748  23118626.80848        45.000
  22256072.415 6  -7268644.710 6  -8534862.68247  22256065.67647        46.000
  21774987.837 7 -17075396.580 7 -13283216.79248  21774981.12648        50.000
  20953929.445 7 -21441883.121 7 -16691101.87549  20953921.13949        49.000
  24295340.403 6  -6377510.663 6  -4965049.86646  24295333.20046        44.000
  22431123.700 7  -7175880.585 7  -6259137.94048  22431115.04548        48.000
  21907352.076 7 -10826632.390 7  -9204913.64148  21907345.96548        49.000
  24594605.384 5  -2611841.225 5  -2023148.99847  24594600.98447        42.000
 08 11 15  1 20  0.0000000  0 10G 3G 6G 7G13G16G19G21G23G25G31
  19806547.492 8 -27695549.521 8 -21569934.71249  19806540.96849        53.000
  20481608.883 7 -23889353.606 7 -18602254.54849  20481603.06049        51.000
  23100439.740 6  -2326243.913 6  -3268571.27047  23100433.13647        44.000
  22261557.243 6  -7239820.013 6  -8512401.90648  22261551.48248        46.000
  21784705.619 7 -17024331.476 7 -13243425.84248  21784699.19848        51.000
  20942843.007 7 -21500139.836 7 -16736496.70549  20942835.04149        49.000
  24303777.443 6  -6333171.526 6  -4930499.91546  24303770.93546        43.000
  22444663.295 7  -7104728.149 7  -6203694.52947  22444654.14247        48.000
  21894788.109 7 -10892658.229 7  -9256362.33548  21894781.79748        50.000
  24614147.882 5  -2509142.999 5  -1943124.63946  24614143.41146        41.000
 08 11 15  1 20 30.0000000  0 10G 3G 6G 7G13G16G19G21G23G25G31
  19807365.997 7 -27691248.742 7 -21566583.44749  19807360.06849        52.000
  20487635.277 7 -23857685.905 7 -18577578.40949  20487629.37349        51.000
  23082281.430 6  -2421663.465 6  -3342924.15047  23082274.80747        44.000
  22267150.424 6  -7210428.135 6  -8489499.16047  22267143.92547        46.000
  21794450.787 7 -16973119.166 7 -13203520.15548  21794444.10048        51.000
  20931841.964 7 -21557952.149 7 -16781545.25749  20931833.87149        49.000
  24312298.953 6  -6288392.257 6  -4895607.02946  24312292.63346        43.000
  22458273.315 7  -7033203.855 7  -6147961.33747  22458265.23147        49.000
  21882287.400 7 -10958350.068 7  -9307550.78348  21882281.33348        50.000
  24633716.763 5  -2406307.539 5  -1862993.27246  24633711.76446        41.000
 08 11 15  1 21  0.0000000  0 10G 3G 6G 7G13G16G19G21G23G25G31
  19808278.131 8 -27686455.515 8 -21562848.45849  19808272.04349        53.000
  20493735.610 7 -23825628.820 7 -18552598.86349  20493729.81449        52.000
  23064160.263 6  -2516893.838 6  -3417129.61847  23064153.06647        45.000
  22272851.124 6  -7180471.130 6  -8466156.05048  22272845.33848        46.000
  21804224.041 7 -16921760.294 7 -13163500.29248  21804217.51448        51.000
  20920925.287 7 -21615320.122 7 -16826247.56549  20920917.19549        49.000
  24320903.795 6  -6243174.997 6  -4860372.82146  24320896.97846        44.000
  22471954.481 7  -6961311.245 7  -6091941.14448  22471946.68948        48.000
  21869850.646 7 -11023706.317 7  -9358477.72848  21869844.00548        51.000
  24653312.136 5  -2303337.366 5  -1782756.83846  24653306.58646        42.000
 08 11 15  1 21 30.0000000  0 10G 3G 6G 7G13G16G19G21G23G25G31
  19809283.931 7 -27681170.833 7 -21558730.52149  19809277.77249        52.000
  20499909.664 7 -23793183.445 7 -18527316.75349  20499903.67049        51.000
  23046075.397 6  -2611932.176 6  -3491185.45747  23046068.34247        45.000
  22278659.162 6  -7149950.250 6  -8442373.56947  22278652.85947        46.000
  21814025.417 7 -16870254.530 7 -13123365.95648  21814018.81148        51.000
  20910093.268 7 -21672242.318 7 -16870602.51149  20910084.85549        49.000
  24329591.613 6  -6197520.247 6  -4824797.71846  24329584.53446        43.000
  22485704.828 7  -6889052.944 7  -6035635.99647  22485696.66147        48.000
  21857478.104 7 -11088724.225 7  -9409141.02648  21857471.33948        50.000
  24672932.142 5  -2200233.679 5  -1702416.47246  24672928.34846        41.000
 08 11 15  1 22  0.0000000  0 10G 3G 6G 7G13G16G19G21G23G25G31
  19810382.672 8 -27675395.148 8 -21554229.98749  19810376.92249        53.000
  20506157.218 7 -23760351.152 7 -18501733.14749  20506151.41949        52.000
  23028027.264 6  -2706775.941 6  -3565089.67847  23028020.46947        45.000
  22284574.619 6  -7118866.738 6  -8418152.68048  22284568.54448        46.000
  21823854.652 7 -16818601.411 7 -13083116.79848  21823848.13748        51.000
  20899346.156 7 -21728717.692 7 -16914609.29049  20899337.88349        49.000
  24338362.322 6  -6151429.054 6  -4788882.51546  24338355.73646        43.000
  22499524.120 7  -6816431.564 7  -5979047.93747  22499515.88447        48.000
  21845170.419 7 -11153401.061 7  -9459538.57948  21845164.09248        50.000
  24692578.194 5  -2096997.683 5  -1621973.07046  24692573.37446        41.000
 08 11 15  1 22 30.0000000  0 10G 3G 6G 7G13G16G19G21G23G25G31
  19811575.233 8 -27669129.898 8 -21549347.97249  19811569.36449        53.000
  20512478.589 7 -23727133.846 7 -18475849.53349  20512472.36249        52.000
  23010016.112 6  -2801422.490 6  -3638840.21547  23010009.13447        43.000
  22290595.947 6  -7087222.583 6  -8393494.93447  22290589.53047        46.000
  21833711.897 7 -16766800.956 7 -13042752.83248  21833705.47848        51.000
  20888684.592 7 -21784745.539 7 -16958267.34749  20888676.46349        50.000
  24347216.287 6  -6104902.783 6  -4752628.31046  24347209.26246        43.000
  22513411.493 6  -6743450.604 6  -5922179.66847  22513403.78847        47.000
  21832928.221 7 -11217734.830 7  -9509668.76948  21832922.17248        50.000
  24712247.281 4  -1993631.106 4  -1541427.84446  24712244.12846        38.000
 08 11 15  1 23  0.0000000  0 10G 3G 6G 7G13G16G19G21G23G25G31
  19812860.247 8 -27662376.128 8 -21544085.29449  19812854.39749        53.000
  20518872.299 7 -23693533.239 7 -18449667.24049  20518865.99249        51.000
  22992043.472 6  -2895869.251 6  -3712435.08647  22992036.91347        43.000
  22296723.723 6  -7055019.835 6  -8368401.89148  22296718.05748        45.000
  21843597.202 7 -16714853.744 7 -13002274.50448  21843590.21048        51.000
  20878108.196 7 -21840325.552 7 -17001576.44549  20878099.96649        50.000
  24356151.466 5  -6057942.750 5  -4716036.08946  24356145.41946        41.000
  22527367.538 7  -6670113.230 7  -5865033.72047  22527358.97647        48.000
  21820751.496 7 -11281723.474 7  -9559530.06748  21820744.37948        50.000
  24731942.116 5  -1890136.182 5  -1460782.51246  24731938.23346        41.000
 08 11 15  1 23 30.0000000  0 10G 3G 6G 7G13G16G19G21G23G25G31
  19814237.827 7 -27655134.726 7 -21538442.64449  19814232.37749        51.000
  20525339.255 7 -23659550.770 7 -18423187.39749  20525333.11449        51.000
  22974109.700 6  -2990113.562 6  -3785872.19447  22974103.57747        44.000
  22302957.868 6  -7022260.010 6  -8342874.79447  22302951.81447        46.000
  21853510.420 7 -16662759.426 7 -12961681.54648  21853503.70748        50.000
  20867617.140 7 -21895456.441 7 -17044535.57149  20867609.12549        50.000
  24365170.242 5  -6010549.818 5  -4679106.58546  24365163.16646        42.000
  22541390.230 7  -6596422.117 7  -5807612.08648  22541382.34048        48.000
  21808640.897 7 -11345364.404 7  -9609120.40248  21808634.66648        50.000
  24751660.089 4  -1786514.078 4  -1380038.21146  24751656.78846        39.000
 08 11 15  1 24  0.0000000  0 10G 3G 6G 7G13G16G19G21G23G25G31
  19815708.484 8 -27647407.777 8 -21532421.64849  19815702.30849        53.000
  20531877.697 7 -23625188.731 7 -18396411.78549  20531872.17949        51.000
  22956214.233 6  -3084153.618 6  -3859150.15347  22956207.66447        43.000
  22309297.021 6  -6988945.376 6  -8316915.35247  22309290.45547        45.000
  21863451.604 7 -16610518.641 7 -12920974.45348  21863444.84148        51.000
  20857211.259 7 -21950138.308 7 -17087144.80449  20857203.12149        50.000
  24374271.469 5  -5962725.842 5  -4641841.15946  24374264.86746        42.000
  22555480.050 6  -6522381.065 6  -5749917.79847  22555471.78747        47.000
  21796596.612 7 -11408656.147 7  -9658438.63548  21796590.72648        49.000
  24771402.352 5  -1682767.236 5  -1299196.70846  24771398.33046        40.000
 08 11 15  1 24 30.0000000  0 10G 3G 6G 7G13G16G19G21G23G25G31
  19817271.145 7 -27639196.747 7 -21526023.44849  19817265.17349        52.000
  20538488.454 7 -23590449.200 7 -18369342.02649  20538482.92349        51.000
  22938358.376 6  -3177987.287 6  -3932267.31247  22938351.77347        44.000
  22315742.408 6  -6955078.456 6  -8290525.56747  22315735.93047        47.000
  21873420.354 7 -16558132.083 7 -12880153.76148  21873413.24148        50.000
  20846891.348 7 -22004370.890 7 -17129403.95649  20846883.12349        50.000
  24383453.761 5  -5914472.514 5  -4604241.18346  24383447.20646        41.000
  22569635.512 6  -6447993.775 6  -5691953.69247  22569627.40147        47.000
  21784619.837 7 -11471596.741 7  -9707483.24748  21784613.52748        50.000
  24791169.773 5  -1578897.544 5  -1218259.38646  24791163.03446        41.000
 08 11 15  1 25  0.0000000  0 10G 3G 6G 7G13G16G19G21G23G25G31
  19818925.731 8 -27630501.762 8 -21519248.14449  19818919.74549        53.000
  20545171.138 7 -23555333.220 7 -18341978.92849  20545165.52349        51.000
  22920542.549 6  -3271611.432 6  -4005221.19248  22920535.64248        44.000
  22322291.732 6  -6920660.263 6  -8263706.21047  22322285.67847        46.000
  21883416.971 7 -16505598.864 7 -12839218.80848  21883410.57848        50.000
  20836657.118 7 -22058153.005 7 -17171312.08749  20836648.92449        49.000
  24392718.099 6  -5865790.399 6  -4566307.10446  24392710.89846        43.000
  22583856.604 7  -6373262.526 7  -5633721.57748  22583848.37648        48.000
  21772709.951 7 -11534183.228 7  -9756251.94448  21772703.71048        48.000
  24810956.814 3  -1474905.757 3  -1137226.94546  24810952.32246        36.000
 08 11 15  1 25 30.0000000  0 10G 3G 6G 7G13G16G19G21G23G25G31
  19820672.202 7 -27621324.293 7 -21512096.87749  19820665.96749        52.000
  20551924.844 7 -23519842.342 7 -18314323.71049  20551918.62849        51.000
  22902766.633 6  -3365023.069 6  -4078009.47248  22902759.71948        44.000
  22328945.636 6  -6885692.844 6  -8236458.89947  22328940.13147        46.000
  21893441.688 7 -16452919.134 7 -12798169.67648  21893434.67848        50.000
  20826508.060 7 -22111483.741 7 -17212868.49349  20826500.08749        49.000
  24402062.834 5  -5816681.066 5  -4528040.13046  24402056.30746        40.000
  22598142.122 6  -6298190.768 6  -5575224.12547  22598134.32047        47.000
  21760867.657 7 -11596413.570 7  -9804743.12148  21760861.05148        49.000
  24830770.578 4  -1370794.648 4  -1056101.54546  24830765.78646        39.000
 08 11 15  1 26  0.0000000  0 10G 3G 6G 7G13G16G19G21G23G25G31
  19822510.195 8 -27611665.519 8 -21504570.57049  19822503.75249        53.000
  20558749.526 7 -23483978.607 7 -18286377.95249  20558743.29149        51.000
  22885031.486 6  -3458220.028 6  -4150630.46947  22885025.25847        44.000
  22335704.223 6  -6850178.109 6  -8208785.10447  22335697.20747        45.000
  21903494.198 7 -16400093.102 7 -12757006.55148  21903487.58448        50.000
  20816445.660 7 -22164362.540 7 -17254072.74749  20816437.36649        50.000
  24411489.009 5  -5767145.851 5  -4489441.27746  24411482.24546        41.000
  22612492.367 7  -6222781.708 7  -5516463.84247  22612483.86947        48.000
  21749094.301 7 -11658285.476 7  -9852954.98148  21749088.37048        49.000
  24850604.991 6  -1266565.617 6   -974884.23347  24850600.59647        43.000
 08 11 15  1 26 30.0000000  0 10G 3G 6G 7G13G16G19G21G23G25G31
  19824439.364 8 -27601527.291 8 -21496670.65449  19824433.56149        53.000
  20565644.661 7 -23447743.810 7 -18258143.04649  20565638.96549        51.000
  22867337.985 6  -3551200.067 6  -4223082.43947  22867331.21847        43.000
  22342566.078 6  -6814118.227 6  -8180686.49647  22342560.19047        45.000
  21913574.190 7 -16347120.966 7 -12715729.57048  21913567.93848        50.000
  20806469.232 7 -22216789.219 7 -17294924.69649  20806460.79949        50.000
  24420996.933 6  -5717186.212 6  -4450511.71946  24420990.09746        43.000
  22626905.797 6  -6147038.282 6  -5457443.02247  22626897.38747        47.000
  21737388.917 7 -11719797.018 7  -9900886.05048  21737382.63048        48.000
  24870460.478 4  -1162220.262 4   -893576.29146  24870456.92846        39.000
 08 11 15  1 27  0.0000000  0 10G 3G 6G 7G13G16G19G21G23G25G31
  19826459.772 8 -27590910.169 8 -21488397.58449  19826454.05749        53.000
  20572610.255 7 -23411139.355 7 -18229620.09949  20572603.90549        51.000
  22849686.001 5  -3643960.307 5  -4295363.13448  22849680.20748        42.000
  22349531.293 6  -6777514.931 6  -8152164.47147  22349525.17247        45.000
  21923682.362 7 -16294002.437 7 -12674338.51948  21923676.13148        51.000
  20796578.868 7 -22268763.062 7 -17335423.78049  20796571.02449        50.000
  24430584.223 6  -5666803.275 6  -4411252.32046  24430577.29146        43.000
  22641381.698 6  -6070963.728 6  -5398164.16747  22641373.42347        47.000
  21725752.849 7 -11780945.746 7  -9948534.41148  21725746.09548        50.000
  24890338.815 5  -1057760.014 5   -812178.85746  24890333.62546        42.000
 08 11 15  1 27 30.0000000  0 10G 3G 6G 7G13G16G19G21G23G25G31
  19828571.047 8 -27579814.952 8 -21479751.96249  19828565.04249        53.000
  20579646.047 7 -23374166.628 7 -18200810.18349  20579640.23049        50.000
  22832077.080 6  -3736497.994 6  -4367470.38248  22832070.82148        45.000
  22356599.576 6  -6740370.080 6  -8123220.46247  22356593.66847        45.000
  21933818.776 7 -16240737.432 7 -12632833.32448  21933811.64948        50.000
  20786775.263 7 -22320282.941 7 -17375569.13349  20786767.31549        49.000
  24440251.765 5  -5615998.104 5  -4371663.89646  24440244.43446        40.000
  22655921.211 6  -5994560.830 6  -5338629.46247  22655913.70347        47.000
  21714186.380 7 -11841729.056 7  -9995898.04448  21714179.63348        50.000
  24910238.650 6   -953186.520 6   -730693.08246  24910230.98446        43.000
 08 11 15  1 28  0.0000000  0 10G 3G 6G 7G13G16G19G21G23G25G31
  19830773.015 8 -27568243.604 8 -21470735.33649  19830766.86749        53.000
  20586751.195 7 -23336827.965 7 -18171715.12349  20586744.91849        51.000
  22814510.460 6  -3828810.866 6  -4439402.47348  22814504.40448        45.000
  22363771.462 6  -6702685.899 6  -8093856.20447  22363764.32747        46.000
  21943982.343 7 -16187326.244 7 -12591214.24248  21943975.12848        50.000
  20777057.577 7 -22371348.879 7 -17415360.77249  20777049.97149        50.000
  24449999.556 5  -5564772.217 5  -4331747.64246  24449992.88446        42.000
  22670521.621 6  -5917833.324 6  -5278841.81347  22670514.07847        46.000
  21702688.933 7 -11902145.318 7 -10042975.64148  21702682.74948        51.000
  24930158.982 5   -848502.413 5   -649121.18246  24930153.71746        40.000
 08 11 15  1 28 30.0000000  0 11G 3G 6G 7G13G16G19G21G23G25G27G31
  19833064.940 8 -27556199.812 8 -21461350.57649  19833059.02849        53.000
  20593925.431 7 -23299127.300 7 -18142337.98849  20593919.17849        51.000
  22796986.303 6  -3920898.341 6  -4511158.89748  22796981.06948        45.000
  22371044.195 6  -6664466.624 6  -8064074.96247  22371037.31347        46.000
  21954173.695 7 -16133771.249 7 -12549483.09648  21954167.13548        51.000
  20767426.351 7 -22421962.570 7 -17454800.01049  20767417.93549        49.000
  24459827.172 5  -5513129.622 5  -4291506.70446  24459820.83746        41.000
  22685182.944 6  -5840786.556 6  -5218805.38247  22685176.07647        46.000
  21691262.170 7 -11962194.629 7 -10089767.30048  21691256.36748        49.000
  24285735.430 1   -559108.972 1                                        33.000
  24950099.485 5   -743711.192 5   -567465.85546  24950096.78946        40.000
 08 11 15  1 29  0.0000000  0 11G 3G 6G 7G13G16G19G21G23G25G27G31
  19835447.498 8 -27543679.175 8 -21451594.24749  19835441.47449        54.000
  20601169.482 7 -23261061.138 7 -18112676.05749  20601163.15949        52.000
  22779507.550 6  -4012752.912 6  -4582733.86148  22779502.02748        45.000
  22378419.100 6  -6625709.125 6  -8033874.34447  22378412.56347        45.000
  21964393.344 7 -16080067.292 7 -12507635.86348  21964386.52448        51.000
  20757881.553 7 -22472118.469 7 -17493882.51749  20757873.26549        49.000
  24469734.303 5  -5461066.520 5  -4250938.08046  24469726.85146        42.000
  22699905.654 6  -5763418.623 6  -5158518.72147  22699897.57147        46.000
  21679906.320 7 -12021869.345 7 -10136267.08548  21679900.05348        50.000
  24268067.019 1   -651964.579 1                                        33.000
  24970062.743 5   -638809.472 5   -485724.41046  24970059.40846        40.000
 08 11 15  1 29 30.0000000  0 11G 3G 6G 7G13G16G19G21G23G25G27G31
  19837919.907 8 -27530687.070 8 -21441470.53549  19837914.02949        53.000
  20608481.416 7 -23222634.977 7 -18082733.60349  20608475.43749        52.000
  22762072.234 6  -4104376.026 6  -4654128.48248  22762066.13848        45.000
  22385895.656 6  -6586419.572 6  -8003259.11847  22385889.61447        47.000
  21974640.442 7 -16026218.139 7 -12465675.50848  21974633.77048        51.000
  20748423.943 7 -22521819.540 7 -17532610.61549  20748415.81749        49.000
  24479720.289 6  -5408588.186 6  -4210045.91146  24479713.58046        43.000
  22714688.279 6  -5685736.423 6  -5097987.17547  22714680.38347        47.000
  21668621.705 7 -12081171.351 7 -10182476.44848  21668615.20448        50.000
  24250415.449 1   -744718.670 1                                        32.000
  24990045.087 5   -533802.985 5   -403901.23746  24990042.13646        40.000
 08 11 15  1 30  0.0000000  0 11G 3G 6G 7G13G16G19G21G23G25G27G31
  19840481.782 8 -27517224.260 8 -21430980.04949  19840475.70949        53.000
  20615862.033 7 -23183850.146 7 -18052511.67049  20615856.19649        52.000
  22744681.691 6  -4195764.393 6  -4725340.20347  22744674.77847        45.000
  22393473.395 6  -6546599.350 6  -7972230.40147  22393467.56047        47.000
  21984915.181 7 -15972223.536 7 -12423601.79748  21984908.32348        50.000
  20739053.131 7 -22571065.075 7 -17570983.76349  20739044.38949        50.000
  24489785.758 6  -5355695.489 6  -4168830.84646  24489779.56446        44.000
  22729530.070 6  -5607742.755 6  -5037212.89447  22729522.56047        46.000
  21657408.126 7 -12140097.910 7 -10228393.24348  21657401.89648        50.000
  24232787.146 1   -837368.737 1                                        30.000
  25010046.190 3   -428692.748 3   -321997.32646  25010043.23246        37.000
 08 11 15  1 30 30.0000000  0 11G 3G 6G 7G13G16G19G21G23G25G27G31
  19843132.833 8 -27503291.922 8 -21420123.69349  19843127.28249        53.000
  20623310.666 7 -23144708.419 7 -18022011.62449  20623304.61149        51.000
  22727336.410 6  -4286915.487 6  -4796367.02248  22727330.04548        46.000
  22401151.296 6  -6506250.716 6  -7940789.93247  22401145.35547        45.000
  21995217.949 7 -15918083.161 7 -12381414.50348  21995211.02348        50.000
  20729768.566 7 -22619854.340 7 -17609001.36549  20729760.40049        50.000
  24499929.882 6  -5302389.774 6  -4127293.95046  24499922.63046        43.000
  22744430.996 6  -5529440.759 6  -4976198.37747  22744422.90247        47.000
  21646267.104 7 -12198646.808 7 -10274015.75748  21646260.55048        51.000
  24215176.383 1   -929912.548 1                                        33.000
  25030067.184 3   -323480.550 3   -240013.95346  25030063.69946        37.000
 08 11 15  1 31  0.0000000  0 11G 3G 6G 7G13G16G19G21G23G25G27G31
  19845873.030 8 -27488892.029 8 -21408903.00049  19845867.38649        53.000
  20630826.457 8 -23105211.435 8 -17991234.76249  20630820.65649        53.000
  22710036.635 6  -4377826.635 6  -4867206.86448  22710029.83848        46.000
  22408929.701 6  -6465375.730 6  -7908939.31747  22408923.94147        46.000
  22005548.119 7 -15863797.299 7 -12339113.86548  22005541.31248        51.000
  20720571.187 7 -22668187.137 7 -17646663.28049  20720562.79349        51.000
  24510151.527 6  -5248672.771 6  -4085436.56346  24510144.28646        43.000
  22759389.472 7  -5450833.812 7  -4914946.25647  22759381.31447        48.000
  21635197.692 7 -12256815.869 7 -10319342.30748  21635190.72748        51.000
  24197586.043 1  -1022348.095 1                                        32.000
  25050108.046 3   -218168.394 3   -157952.67546  25050104.58446        36.000
 08 11 15  1 31 30.0000000  0 11G 3G 6G 7G13G16G19G21G23G25G27G31
  19848702.652 8 -27474024.556 8 -21397317.96249  19848696.55349        54.000
  20638410.018 7 -23065360.181 7 -17960181.83749  20638403.77949        52.000
  22692782.816 6  -4468494.286 6  -4937856.99047  22692776.11447        47.000
  22416808.238 6  -6423975.824 6  -7876679.68247  22416802.30047        47.000
  22015906.103 7 -15809365.004 7 -12296699.11048  22015899.03548        50.000
  20711461.048 7 -22716062.228 7 -17683968.54949  20711452.64149        51.000
  24520452.177 6  -5194544.624 6  -4043258.84746  24520445.04946        44.000
  22774404.836 6  -5371924.030 6  -4853458.13647  22774397.05047        47.000
  21624201.382 7 -12314602.181 7 -10364370.60348  21624194.85048        51.000
  24180015.473 1  -1114672.344 1                                        32.000
  25070167.772 3   -112757.205 3    -75814.18546  25070163.40346        37.000
 08 11 15  1 32  0.0000000  0 11G 3G 6G 7G13G16G19G21G23G25G27G31
  19851620.140 8 -27458691.444 8 -21385370.08949  19851614.32449        54.000
  20646060.488 8 -23025157.247 8 -17928854.89149  20646054.93249        54.000
  22675575.800 6  -4558916.879 6  -5008316.15448  22675569.05248        46.000
  22424784.622 6  -6382054.009 6  -7844013.35547  22424778.92647        46.000
  22026292.114 7 -15754787.107 7 -12254170.90448  22026285.63348        50.000
  20702437.575 7 -22763479.747 7 -17720917.26449  20702429.45149        51.000
  24530829.466 6  -5140007.690 6  -4000762.58946  24530823.76146        43.000
  22789477.953 6  -5292715.653 6  -4791737.34747  22789468.98247        47.000
  21613277.703 7 -12372004.336 7 -10409099.54948  21613271.92548        51.000
  24162470.476 1  -1206883.951 1                                        32.000
  25090244.947 4     -7249.231 4      6399.68646  25090241.16946        38.000
 08 11 15  1 32 30.0000000  0 11G 3G 6G 7G13G16G19G21G23G25G27G31
  19854626.276 8 -27442894.386 8 -21373060.69949  19854620.32849        54.000
  20653777.297 7 -22984604.248 7 -17897255.15649  20653771.14449        52.000
  22658415.970 6  -4649091.592 6  -5078582.15048  22658409.70848        46.000
  22432861.694 6  -6339612.330 6  -7810941.93947  22432855.15647        45.000
  22036705.508 7 -15700063.716 7 -12211529.34448  22036698.51048        50.000
  20693501.429 7 -22810439.530 7 -17757509.29649  20693493.02049        50.000
  24541285.555 6  -5085064.322 6  -3957949.61246  24541278.61246        44.000
  22804606.483 6  -5213212.076 6  -4729786.52647  22804599.71347        46.000
  21602428.313 7 -12429020.126 7 -10453527.44648  21602421.83348        50.000
  24144945.299 1  -1298980.693 1                                        31.000
  25110341.695 4     98353.243 4     88687.15546  25110337.21946        39.000
 08 11 15  1 33  0.0000000  0 11G 3G 6G 7G13G16G19G21G23G25G27G31
  19857720.543 8 -27426634.374 8 -21360390.55649  19857714.48649        54.000
  20661560.614 8 -22943702.787 8 -17865383.89249  20661554.35349        53.000
  22641304.589 6  -4739015.719 6  -5148652.88648  22641297.57348        46.000
  22441036.349 6  -6296652.555 6  -7777466.81947  22441030.77947        47.000
  22047147.014 7 -15645194.662 7 -12168774.26548  22047140.39148        50.000
  20684652.458 7 -22856940.660 7 -17793743.93749  20684644.02949        52.000
  24551817.708 6  -5029715.005 6  -3914820.31746  24551811.01646        43.000
  22819791.794 6  -5133415.935 6  -4667607.77447  22819784.04047        46.000
  21591652.245 7 -12485647.230 7 -10497652.46348  21591646.01748        52.000
  24127441.489 1  -1390960.063 1                                        32.000
  25130453.376 2    204049.069 2    171047.34946  25130450.44846        34.000
 08 11 15  1 33 30.0000000  0 11G 3G 6G 7G13G16G19G21G23G25G27G31
  19860902.509 8 -27409911.974 8 -21347360.11849  19860896.53049        53.000
  20669409.877 8 -22902453.788 8 -17833241.81449  20669403.83849        54.000
  22624240.485 6  -4828685.660 6  -5218525.60448  22624233.73948        47.000
  22449310.238 6  -6253176.430 6  -7743589.34847  22449303.43347        46.000
  22057616.058 7 -15590178.936 7 -12125904.89648  22057609.68248        51.000
  20675891.079 7 -22902982.069 7 -17829620.35949  20675882.76749        51.000
  24562427.355 6  -4973960.568 6  -3871375.35046  24562420.46546        43.000
  22835031.410 6  -5053329.892 6  -4605203.07847  22835023.58347        46.000
  21580951.165 7 -12541882.682 7 -10541472.30548  21580944.53248        51.000
  24109959.182 1  -1482819.097 1                                        31.000
  25150584.559 2    309837.164 2    253479.45745  25150581.09245        34.000
 08 11 15  1 34  0.0000000  0 11G 3G 6G 7G13G16G19G21G23G25G27G31
  19864172.427 8 -27392730.569 8 -21333972.00849  19864166.29949        54.000
  20677324.829 8 -22860860.673 8 -17800831.59949  20677319.03749        53.000
  22607225.468 6  -4918100.705 6  -5288199.64948  22607218.89648        47.000
  22457680.739 6  -6209187.863 6  -7709312.56247  22457675.14947        46.000
  22068112.622 7 -15535018.104 7 -12082922.45748  22068105.94348        49.000
  20667216.870 7 -22948565.107 7 -17865139.60949  20667208.69349        51.000
  24573114.130 5  -4917804.064 5  -3827617.07046  24573107.87846        42.000
  22850325.046 6  -4972958.674 6  -4542576.21247  22850317.90047        47.000
  21570324.421 7 -12597725.930 7 -10584986.52448  21570318.04748        51.000
  24092503.968 1  -1574557.452 1                                        33.000
  25170732.643 2    415714.366 2    335980.89745  25170727.03345        35.000
 08 11 15  1 34 30.0000000  0 11G 3G 6G 7G13G16G19G21G23G25G27G31
  19867528.959 8 -27375090.614 8 -21320226.58249  19867522.94949        53.000
  20685305.160 7 -22818924.814 7 -17768154.30349  20685298.94049        52.000
  22590259.425 6  -5007257.711 6  -5357672.62348  22590253.12748        45.000
  22466148.458 6  -6164688.854 6  -7674638.04647  22466141.86847        45.000
  22078637.235 7 -15479711.779 7 -12039826.65348  22078630.32348        49.000
  20658630.245 7 -22993689.153 7 -17900301.19649  20658621.35149        52.000
  24583876.585 6  -4861246.707 6  -3783546.45846  24583870.00146        43.000
  22865673.484 6  -4892305.140 6  -4479729.31147  22865666.07947        46.000
  21559772.959 7 -12653174.530 7 -10628193.23448  21559766.35048        51.000
  24075069.359 1  -1666172.594 1  -1311011.98655  24075065.59745        33.000
  25190897.526 2    521678.758 2    418550.36745  25190890.60145        35.000
 08 11 15  1 35  0.0000000  0 10G 3G 6G 7G13G16G19G21G23G25G27
  19870972.592 8 -27356994.281 8 -21306125.54349  19870966.51849        54.000
  20693350.014 8 -22776648.744 8 -17735211.90349  20693343.78349        53.000
  22573343.126 6  -5096154.335 6  -5426942.73048  22573335.83148        47.000
  22474712.971 6  -6119682.007 6  -7639567.81547  22474707.00147        45.000
  22089189.369 7 -15424260.644 7 -11996618.01148  22089182.81648        50.000
  20650130.556 7 -23038354.274 7 -17935105.18349  20650122.30249        51.000
  24594715.249 6  -4804290.632 6  -3739165.11946  24594708.80446        43.000
  22881074.833 6  -4811373.246 6  -4416665.52547  22881066.40147        46.000
  21549297.021 7 -12708227.069 7 -10671091.31848  21549290.29048        52.000
  24057659.292 3  -1757663.206 3  -1382303.39445  24057653.65845        36.000
 08 11 15  1 35 30.0000000  0 10G 3G 6G 7G13G16G19G21G23G25G27
  19874504.028 8 -27338437.235 8 -21291665.50349  19874498.02049        54.000
  20701460.285 8 -22734028.060 8 -17702000.98649  20701454.31549        53.000
  22556477.203 6  -5184782.313 6  -5496003.48348  22556472.01548        46.000
  22483375.139 6  -6074163.834 6  -7604099.12447  22483369.45947        45.000
  22099769.822 7 -15368658.916 7 -11953292.02448  22099763.14548        49.000
  20641719.452 7 -23082554.228 7 -17969546.70349  20641711.39349        51.000
  24605629.802 5  -4746931.793 5  -3694469.97346  24605623.20846        40.000
  22896529.058 6  -4730160.236 6  -4353382.70447  22896520.68347        46.000
  21538897.572 7 -12762875.322 7 -10713674.36048  21538890.72748        51.000
  24040274.542 3  -1849020.582 3  -1453490.95446  24040268.99846        37.000
 08 11 15  1 36  0.0000000  0 10G 3G 6G 7G13G16G19G21G23G25G27
  19878120.655 8 -27319429.617 8 -21276854.37049  19878114.66249        54.000
  20709634.287 8 -22691073.888 8 -17668530.19049  20709628.53649        53.000
  22539662.030 6  -5273148.316 6  -5564860.07148  22539656.43348        46.000
  22492132.290 6  -6028146.003 6  -7568241.12347  22492126.18547        46.000
  22110377.425 7 -15312915.711 7 -11909855.78648  22110370.78148        50.000
  20633395.353 7 -23126298.074 7 -18003632.81249  20633386.94749        52.000
  24616620.114 5  -4689180.835 5  -3649469.25046  24616613.03546        42.000
  22912034.100 6  -4648678.596 6  -4289890.54947  22912026.48047        46.000
  21528574.072 7 -12817126.498 7 -10755948.01948  21528567.46148        52.000
  24022913.658 3  -1940252.040 3  -1524580.37146  24022908.38746        36.000
 08 11 15  1 36 30.0000000  0 10G 3G 6G 7G13G16G19G21G23G25G27
  19881824.183 8 -27299968.806 8 -21261690.10549  19881818.12749        54.000
  20717872.106 7 -22647783.648 7 -17634797.55049  20717866.01349        52.000
  22522897.777 6  -5361245.326 6  -5633507.05548  22522891.69748        47.000
  22500984.569 6  -5981626.469 6  -7531992.16747  22500978.15947        46.000
  22121012.700 7 -15257026.698 7 -11866305.94248  22121005.89448        48.000
  20625158.849 7 -23169581.441 7 -18037360.11149  20625150.94449        51.000
  24627683.374 4  -4631035.195 4  -3604160.96646  24627677.47746        39.000
  22927591.370 6  -4566927.573 6  -4226188.45847  22927582.37147        46.000
  21518326.950 7 -12870974.145 7 -10797907.22548  21518320.56448        51.000
  24005578.413 3  -2031350.921 3  -1595566.48746  24005573.68846        37.000
 08 11 15  1 37  0.0000000  0 10G 3G 6G 7G13G16G19G21G23G25G27
  19885613.256 8 -27280057.237 8 -21246174.59349  19885607.02449        54.000
  20726173.362 8 -22604159.779 8 -17600804.92149  20726167.74549        53.000
  22506185.400 7  -5449071.237 7  -5701942.83948  22506177.85048        49.000
  22509932.042 6  -5934608.169 6  -7495354.57747  22509925.48147        46.000
  22131676.111 7 -15200992.355 7 -11822642.83548  22131668.95048        49.000
  20617009.807 7 -23212404.275 7 -18070728.54349  20617001.59549        51.000
  24638824.010 5  -4572496.770 5  -3558546.64946  24638817.09946        41.000
  22943198.745 6  -4484910.620 6  -4162279.17647  22943190.29247        45.000
  21508157.711 7 -12924416.704 7 -10839550.77948  21508151.19048        51.000
  23988267.879 5  -2122315.717 5  -1666448.13146  23988263.26046        40.000
 08 11 15  1 37 30.0000000  0 10G 3G 6G 7G13G16G19G21G23G25G27
  19889487.814 8 -27259696.226 8 -21230308.87749  19889481.80049        54.000
  20734538.032 8 -22560204.158 8 -17566553.79549  20734531.94149        54.000
  22489524.792 7  -5536623.856 7  -5770165.68948  22489517.55848        48.000
  22518973.121 6  -5887093.647 6  -7458330.29347  22518967.26547        46.000
  22142366.453 7 -15144812.789 7 -11778866.58048  22142359.67948        49.000
  20608948.594 7 -23254766.625 7 -18103738.16449  20608940.42449        52.000
  24650038.474 6  -4513567.573 6  -3512627.82746  24650030.69846        43.000
  22958855.673 6  -4402631.117 6  -4098165.30147  22958847.48347        44.000
  21498065.193 7 -12977452.348 7 -10880877.25248  21498058.75448        50.000
  23970985.015 5  -2213144.471 5  -1737223.78546  23970979.19646        41.000
 08 11 15  1 38  0.0000000  0 10G 3G 6G 7G13G16G19G21G23G25G27
  19893447.574 8 -27238886.692 8 -21214093.65549  19893441.68449        54.000
  20742965.505 7 -22515917.768 7 -17532044.92349  20742959.33249        52.000
  22472916.332 6  -5623899.335 6  -5838172.52848  22472910.01948        46.000
  22528109.302 6  -5839084.577 6  -7420920.67047  22528102.97647        45.000
  22153084.935 7 -15088487.039 7 -11734976.42048  22153078.53148        50.000
  20600975.122 7 -23296667.322 7 -18136388.05349  20600966.81249        50.000
  24661326.009 5  -4454248.329 5  -3466405.06446  24661319.59646        41.000
  22974562.653 6  -4320091.916 6  -4033849.07047  22974554.84547        45.000
  21488050.964 7 -13030078.195 7 -10921884.41249  21488044.83549        52.000
  23953727.288 5  -2303834.100 5  -1807891.01046  23953721.08846        41.000
 08 11 15  1 38 30.0000000  0 10G 3G 6G 7G13G16G19G21G23G25G27
  19897492.266 8 -27217631.580 8 -21197531.23549  19897486.67249        53.000
  20751455.072 7 -22471303.658 7 -17497280.68749  20751449.23249        51.000
  22456361.834 7  -5710896.279 7  -5905962.35548  22456354.55848        48.000
  22537338.318 6  -5790584.493 6  -7383128.42947  22537332.44547        45.000
  22163831.004 7 -15032016.351 7 -11690973.31048  22163824.15848        49.000
  20593089.372 7 -23338107.442 7 -18168679.05149  20593081.36649        52.000
  24672688.370 5  -4394541.838 5  -3419880.54746  24672681.87346        42.000
  22990317.742 6  -4237297.203 6  -3969333.74647  22990309.91047        43.000
  21478114.782 7 -13082293.355 7 -10962571.54248  21478107.62648        51.000
  23936495.727 5  -2394383.600 5  -1878449.08546  23936489.70146        41.000
 08 11 15  1 39  0.0000000  0 10G 3G 6G 7G13G16G19G21G23G25G27
  19901622.131 7 -27195929.638 7 -21180620.63249  19901616.05449        52.000
  20760007.102 7 -22426361.729 7 -17462261.01149  20760001.51049        52.000
  22439860.334 7  -5797610.400 7  -5973531.80348  22439853.83048        48.000
  22546661.530 6  -5741594.128 6  -7344954.14147  22546655.88647        45.000
  22174604.847 7 -14975399.397 7 -11646856.22348  22174598.49348        49.000
  20585291.918 7 -23379085.030 7 -18200609.63549  20585283.37249        51.000
  24684123.442 5  -4334447.969 5  -3373054.20746  24684117.05146        41.000
  23006120.978 5  -4154248.550 5  -3904620.53647  23006112.45047        42.000
  21468257.137 7 -13134094.010 7 -11002935.69748  21468250.84248        51.000
  23919291.438 5  -2484788.945 5  -1948894.80146  23919286.04646        41.000
 08 11 15  1 39 30.0000000  0 10G 3G 6G 7G13G16G19G21G23G25G27
  19905836.388 8 -27173784.419 8 -21163364.63049  19905830.13849        53.000
  20768621.370 7 -22381095.369 7 -17426988.53849  20768615.28749        52.000
  22423413.257 6  -5884040.509 6  -6040879.93348  22423407.04548        47.000
  22556076.235 6  -5692117.503 6  -7306400.97647  22556070.38847        45.000
  22185406.411 7 -14918637.287 7 -11602626.03348  22185399.92448        49.000
  20577581.516 7 -23419601.404 7 -18232180.83549  20577572.87249        52.000
  24695632.432 5  -4273969.986 5  -3325928.53046  24695625.46246        41.000
  23021971.901 6  -4070950.900 6  -3839713.31847  23021964.72047        44.000
  21458478.985 7 -13185479.569 7 -11042976.39549  21458472.03049        51.000
  23902116.927 5  -2575049.274 5  -2019227.54346  23902110.50446        42.000
 08 11 15  1 40  0.0000000  0 10G 3G 6G 7G13G16G19G21G23G25G27
  19910134.433 7 -27151197.457 7 -21145764.40049  19910128.62349        52.000
  20777296.483 7 -22335506.234 7 -17391464.54249  20777290.56449        52.000
  22407020.735 6  -5970183.983 6  -6108004.69748  22407014.30648        47.000
  22565582.876 6  -5642157.103 6  -7267470.82047  22565577.10947        45.000
  22196235.270 7 -14861729.820 7 -11558282.57548  22196228.63948        48.000
  20569959.623 7 -23459656.195 7 -18263392.35049  20569950.98749        51.000
  24707213.534 4  -4213109.262 4  -3278504.66046  24707206.97146        39.000
  23037870.559 6  -3987407.041 6  -3774614.24447  23037862.43147        44.000
  21448779.748 7 -13236447.836 7 -11082691.92748  21448773.67548        51.000
  23884969.108 5  -2665162.348 5  -2089445.50647  23884963.05447        42.000
 08 11 15  1 40 30.0000000  0 10G 3G 6G 7G13G16G19G21G23G25G27
  19914516.806 8 -27128168.734 8 -21127819.95549  19914510.83449        54.000
  20786033.217 7 -22289595.232 7 -17355689.75349  20786027.21649        52.000
  22390683.215 6  -6056037.100 6  -6174903.19248  22390676.81048        47.000
  22575182.568 6  -5591714.293 6  -7228164.78147  22575176.00747        46.000
  22207092.078 7 -14804676.223 7 -11513825.25748  22207085.70248        49.000
  20562425.361 7 -23499248.541 7 -18294243.53449  20562417.52749        51.000
  24718866.414 4  -4151866.810 4  -3230783.33046  24718860.49746        38.000
  23053814.015 5  -3903619.548 5  -3709325.34947  23053807.31247        42.000
  21439160.872 7 -13286995.971 7 -11122080.08948  21439154.18148        52.000
  23867848.518 5  -2755124.931 5  -2159546.21146  23867843.44046        42.000
 08 11 15  1 41  0.0000000  0 10G 3G 6G 7G13G16G19G21G23G25G27
  19918982.202 7 -27104701.730 7 -21109533.98349  19918976.55549        52.000
  20794830.268 7 -22243365.369 7 -17319666.49149  20794824.25249        51.000
  22374401.183 6  -6141598.373 6  -6241574.29948  22374394.89048        47.000
  22584872.489 6  -5540792.971 6  -7188485.85647  22584865.61347        45.000
  22217977.114 7 -14747477.663 7 -11469254.95548  22217970.52648        49.000
  20554978.954 7 -23538379.635 7 -18324735.28449  20554970.70649        51.000
  24730593.691 5  -4090245.691 5  -3182766.88946  24730586.70246        41.000
  23069804.135 6  -3819593.038 6  -3643850.17247  23069796.36347        43.000
  21429622.017 7 -13337123.275 7 -11161140.32748  21429615.36048        52.000
  23850758.965 6  -2844936.153 6  -2229528.97247  23850752.77647        44.000
 08 11 15  1 41 30.0000000  0 10G 3G 6G 7G13G16G19G21G23G25G27
  19923531.316 8 -27080796.823 8 -21090906.80349  19923525.34249        53.000
  20803688.114 7 -22196817.554 7 -17283395.47649  20803682.57149        52.000
  22358175.524 6  -6226864.220 6  -6308015.20248  22358169.52648        47.000
  22594653.202 6  -5489394.692 6  -7148435.27347  22594646.69247        45.000
  22228889.652 7 -14690133.178 7 -11424570.96948  22228882.39548        49.000
  20547620.553 7 -23577048.247 7 -18354866.66749  20547612.71549        51.000
  24742391.435 5  -4028246.466 5  -3134455.84746  24742384.65346        40.000
  23085839.652 6  -3735330.042 6  -3578190.75747  23085831.29647        44.000
  21420163.748 7 -13386826.681 7 -11199870.25649  21420157.44249        52.000
  23833697.632 6  -2934592.776 6  -2299391.27847  23833691.23847        44.000
 08 11 15  1 42  0.0000000  0 10G 3G 6G 7G13G16G19G21G23G25G27
  19928162.989 7 -27056456.054 7 -21071939.97249  19928156.79949        52.000
  20812606.160 8 -22149953.936 8 -17246878.37849  20812600.38549        53.000
  22342007.199 7  -6311832.506 7  -6374224.24848  22341999.94348        48.000
  22604523.816 6  -5437522.389 6  -7108015.30447  22604517.77647        44.000
  22239829.477 7 -14632643.076 7 -11379773.51548  22239823.33748        49.000
  20540350.114 7 -23615254.707 7 -18384637.92549  20540342.01249        50.000
  24754260.584 5  -3965871.453 5  -3085852.05246  24754254.78446        40.000
  23101918.059 6  -3650833.998 6  -3512349.70847  23101909.82447        43.000
  21410786.794 7 -13436104.625 7 -11238268.65848  21410779.90948        52.000
  23816665.844 6  -3024093.013 6  -2369131.71947  23816659.92747        43.000
 08 11 15  1 42 30.0000000  0 10G 3G 6G 7G13G16G19G21G23G25G27
  19932877.796 8 -27031680.623 8 -21052634.46449  19932871.69749        53.000
  20821583.787 8 -22102776.275 8 -17210116.58049  20821577.72149        53.000
  22325895.475 7  -6396500.544 7  -6440199.36348  22325888.24048        48.000
  22614484.937 6  -5385178.465 6  -7067227.86247  22614479.15247        44.000
  22250797.058 7 -14575007.197 7 -11334862.46048  22250790.34048        48.000
  20533167.607 7 -23652998.812 7 -18414048.91649  20533159.19849        52.000
  24766201.978 5  -3903121.973 5  -3036956.40146  24766195.42546        40.000
  23118041.136 6  -3566108.003 6  -3446329.53047  23118033.50847        43.000
  21401490.571 8 -13484954.910 8 -11276333.82349  21401484.08749        53.000
  23799664.532 6  -3113434.582 6  -2438748.51747  23799659.05247        43.000
 08 11 15  1 43  0.0000000  0 10G 3G 6G 7G13G16G19G21G23G25G27
  19937674.647 7 -27006472.664 7 -21032991.90749  19937668.62449        52.000
  20830620.654 7 -22055286.865 7 -17173111.85549  20830614.59249        51.000
  22309841.208 7  -6480866.041 7  -6505938.71048  22309834.16248        48.000
  22624534.659 6  -5332366.409 6  -7026075.65447  22624528.97747        44.000
  22261792.305 7 -14517226.194 7 -11289838.30748  22261786.11148        48.000
  20526073.202 7 -23690281.069 7 -18443100.02449  20526064.81749        51.000
  24778213.465 4  -3840000.464 4  -2987770.86646  24778206.40546        39.000
  23134207.388 6  -3481155.467 6  -3380132.75147  23134199.31047        44.000
  21392276.117 7 -13533376.250 7 -11314064.74649  21392269.93849        51.000
  23782694.188 6  -3202615.595 6  -2508240.18647  23782688.69947        43.000
 08 11 15  1 43 30.0000000  0 10G 3G 6G 7G13G16G19G21G23G25G27
  19942553.597 7 -26980833.538 7 -21013013.38749  19942547.62249        52.000
  20839716.788 8 -22007487.129 8 -17135865.32849  20839710.76849        53.000
  22293845.334 7  -6564926.140 7  -6571440.08748  22293838.45248        48.000
  22634673.260 6  -5279088.221 6  -6984560.21047  22634667.78847        44.000
  22272815.657 6 -14459299.476 6 -11244700.63448  22272809.46248        47.000
  20519066.466 7 -23727100.933 7 -18471790.82049  20519058.37749        51.000
  24790296.222 4  -3776508.234 4  -2938296.43845  24790289.71645        39.000
  23150415.515 6  -3395980.045 6  -3313762.35647  23150408.08647        43.000
  21383143.947 7 -13581366.231 7 -11351459.53549  21383137.26449        52.000
  23765755.638 6  -3291633.378 6  -2577604.69347  23765748.62847        43.000
 08 11 15  1 44  0.0000000  0 10G 3G 6G 7G13G16G19G21G23G25G27
  19947514.546 7 -26954764.434 7 -20992699.80949  19947507.95449        52.000
  20848871.333 7 -21959378.583 7 -17098378.14849  20848865.60749        51.000
  22277907.248 6  -6648677.924 6  -6636701.20048  22277900.69748        47.000
  22644900.047 6  -5225345.957 6  -6942683.14047  22644894.55947        44.000
  22283866.215 6 -14401226.574 6 -11199449.04748  22283859.88548        46.000
  20512147.844 7 -23763458.346 7 -18500121.26249  20512139.81749        51.000
  24802448.270 4  -3712646.832 4  -2888534.35645  24802441.84145        38.000
  23166665.642 6  -3310584.843 6  -3247220.66647  23166658.87947        43.000
  21374094.248 7 -13628922.566 7 -11388516.41748  21374088.13648        51.000
  23748847.183 6  -3380485.335 6  -2646839.95847  23748841.06647        43.000
 08 11 15  1 44 30.0000000  0 11G 3G 6G 7G11G13G16G19G21G23G25G27
  19952556.484 7 -26928267.990 7 -20972053.25049  19952550.78249        52.000
  20858084.263 7 -21910963.708 7 -17060652.28849  20858078.49749        52.000
  22262029.461 7  -6732119.045 7  -6701720.24848  22262022.94948        49.000
  25138429.956 4    114181.81214     96604.63156  25138425.46046        39.000
  22655214.481 6  -5171143.172 6  -6900447.23047  22655208.07747        44.000
  22294945.000 6 -14343008.303 6 -11154084.18848  22294938.54848        47.000
  20505317.330 7 -23799353.538 7 -18528091.55049  20505309.20649        52.000
  24814670.489 3  -3648418.555 3  -2838486.35345  24814662.92345        36.000
  23182957.116 6  -3224973.527 6  -3180510.58547  23182949.24847        43.000
  21365127.135 7 -13676044.030 7 -11425234.44949  21365121.16249        52.000
  23731971.031 6  -3469169.890 6  -2715944.80047  23731964.78447        44.000
 08 11 15  1 45  0.0000000  0 11G 3G 6G 7G11G13G16G19G21G23G25G27
  19957679.465 7 -26901346.654 7 -20951075.58249  19957673.92949        52.000
  20867354.953 7 -21862245.740 7 -17022690.23349  20867349.06849        52.000
  22246210.684 7  -6815248.764 7  -6766496.63648  22246203.80748        49.000
  25116786.361 5       444.000 5      7977.96245  25116781.09145        40.000
  22665615.198 6  -5116484.091 6  -6857855.77147  22665610.07647        44.000
  22306051.292 6 -14284646.074 6 -11108607.13748  22306044.55348        47.000
  20498574.379 7 -23834788.262 7 -18555703.01049  20498566.32749        51.000
  24826962.329 4  -3583826.869 4  -2788155.21245  24826955.14745        38.000
  23199288.774 6  -3139150.900 6  -3113635.86347  23199280.45447        43.000
  21356243.427 7 -13722730.147 7 -11461613.23248  21356237.02448        51.000
  23715126.599 6  -3557686.360 6  -2784918.65447  23715120.02247        44.000
 08 11 15  1 45 30.0000000  0 11G 3G 6G 7G11G13G16G19G21G23G25G27
  19962883.686 7 -26873999.027 7 -20929765.75949  19962877.53449        52.000
  20876683.845 8 -21813223.339 8 -16984490.97349  20876677.98049        53.000
  22230451.400 7  -6898060.946 7  -6831025.59948  22230444.89448        49.000
  25095131.708 5   -113352.921 5    -80694.77846  25095126.48846        40.000
  22676104.875 6  -5061367.927 6  -6814908.12647  22676097.95247        44.000
  22317185.199 6 -14226136.529 6 -11063015.32448  22317178.61748        46.000
  20491919.418 7 -23869759.387 7 -18582953.24249  20491911.32149        51.000
  24839323.225 4  -3518870.510 4  -2737539.95645  24839316.37745        39.000
  23215660.330 6  -3053116.835 6  -3046596.38347  23215652.29247        43.000
  21347443.023 8 -13768975.743 8 -11497648.77249  21347436.74149        53.000
  23698315.588 6  -3646029.021 6  -2853757.09847  23698309.44647        43.000
 08 11 15  1 46  0.0000000  0 11G 3G 6G 7G11G13G16G19G21G23G25G27
  19968168.142 7 -26846228.011 7 -20908126.01149  19968162.13749        52.000
  20886069.699 7 -21763899.421 7 -16946056.76649  20886063.84549        52.000
  22214754.047 7  -6980554.095 7  -6895305.98048  22214747.59748        49.000
  25073465.360 5   -227208.053 5   -169412.92946  25073460.62646        40.000
  22686677.894 6  -5005798.922 6  -6771607.62747  22686671.95047        43.000
  22328346.586 6 -14167481.060 6 -11017309.78448  22328340.45748        46.000
  20485352.726 7 -23904268.051 7 -18609843.10549  20485345.11249        51.000
  24851752.965 3  -3453552.257 3  -2686642.60745  24851745.70245        37.000
  23232072.009 6  -2966875.770 6  -2979395.55547  23232063.08147        44.000
  21338726.877 7 -13814780.092 7 -11533340.48249  21338720.22949        51.000
  23681537.712 6  -3734197.095 6  -2922459.46447  23681531.91747        43.000
 08 11 15  1 46 30.0000000  0 11G 3G 6G 7G11G13G16G19G21G23G25G27
  19973533.148 7 -26818035.033 7 -20886157.46649  19973527.23049        51.000
  20895512.779 8 -21714275.854 8 -16907389.06149  20895506.94749        53.000
  22199117.168 7  -7062725.552 7  -6959335.67748  22199110.76948        49.000
  25051788.770 4   -341118.882 4   -258174.49046  25051784.02646        39.000
  22697338.332 6  -4949779.523 6  -6727956.16347  22697332.99247        44.000
  22339536.691 6 -14108679.413 6 -10971490.34648  22339530.16948        46.000
  20478873.898 7 -23938314.328 7 -18636372.67449  20478865.75549        51.000
  24864250.800 3  -3387873.887 3  -2635464.68445  24864243.85445        36.000
  23248520.604 5  -2880431.393 5  -2912036.38647  23248512.90447        42.000
  21330094.742 7 -13860141.304 7 -11568686.88549  21330088.74749        52.000
  23664793.372 6  -3822188.236 6  -2991023.95447  23664787.98147        45.000
 08 11 15  1 47  0.0000000  0 11G 3G 6G 7G11G13G16G19G21G23G25G27
  19978978.168 7 -26789422.074 7 -20863861.65949  19978972.05049        52.000
  20905012.692 7 -21664354.741 7 -16868489.50349  20905007.25349        52.000
  22183541.582 7  -7144573.116 7  -7023113.00548  22183535.60948        48.000
  25030100.870 4   -455083.547 4   -346978.03245  25030096.15845        38.000
  22708083.789 6  -4893312.884 6  -6683956.20847  22708078.03747        44.000
  22350754.048 6 -14049731.808 6 -10925557.16848  22350747.34048        47.000
  20472483.094 7 -23971898.578 7 -18662542.21149  20472474.98149        50.000
  24876817.648 3  -3321837.997 3  -2584008.27545  24876810.09545        37.000
  23265009.051 5  -2793787.227 5  -2844521.46447  23265000.96647        42.000
  21321547.364 7 -13905057.772 7 -11603686.72849  21321541.22049        50.000
  23648083.682 6  -3910000.300 6  -3059448.92547  23648077.40847        44.000
 08 11 15  1 47 30.0000000  0 11G 3G 6G 7G11G13G16G19G21G23G25G27
  19984502.278 7 -26760390.882 7 -20841239.95449  19984496.91249        52.000
  20914568.323 7 -21614137.717 7 -16829359.36349  20914562.80549        52.000
  22168028.844 7  -7226094.175 7  -7086635.91448  22168022.42848        49.000
  25008405.089 5   -569099.759 5   -435821.78445  25008399.57545        40.000
  22718914.382 6  -4836401.484 6  -6639609.69847  22718907.79247        44.000
  22361999.111 6 -13990638.159 6 -10879510.21348  22361992.43848        47.000
  20466180.075 7 -24005020.982 7 -18688351.88249  20466171.88149        51.000
  24889450.913 4  -3255445.762 4  -2532274.03545  24889443.97345        38.000
  23281534.515 5  -2706946.256 5  -2776853.21246  23281526.65146        42.000
  21313085.675 7 -13949527.447 7 -11638338.42649  21313078.75149        52.000
  23631407.747 6  -3997631.050 6  -3127732.62247  23631401.54147        44.000
 08 11 15  1 48  0.0000000  0 11G 3G 6G 7G11G13G16G19G21G23G25G27
  19990105.831 7 -26730943.615 7 -20818294.02949  19990100.02649        51.000
  20924179.976 7 -21563627.467 7 -16790000.73349  20924174.49049        52.000
  22152578.616 7  -7307286.509 7  -7149902.66248  22152572.30448        49.000
  24986698.844 5   -683165.473 5   -524704.13746  24986693.63746        40.000
  22729827.459 6  -4779048.659 6  -6594919.22147  22729822.28947        44.000
  22373272.465 6 -13931399.165 6 -10833349.97348  22373265.46748        46.000
  20459965.015 7 -24037682.058 7 -18713802.06649  20459956.87449        50.000
  24902152.913 4  -3188699.642 4  -2480264.06045  24902145.31345        39.000
  23298096.415 5  -2619912.536 5  -2709034.76446  23298088.79246        42.000
  21304708.505 7 -13993549.202 7 -11672641.10249  21304701.75949        52.000
  23614767.493 6  -4085078.794 6  -3195873.72247  23614761.27147        44.000
 08 11 15  1 48 30.0000000  0 11G 3G 6G 7G11G13G16G19G21G23G25G27
  19995788.578 7 -26701081.327 7 -20795024.71549  19995782.96449        52.000
  20933847.460 7 -21512824.944 7 -16750414.36349  20933841.76549        52.000
  22137191.388 7  -7388146.766 7  -7212910.64448  22137184.98748        49.000
  24964984.349 4   -797277.933 4   -613622.96746  24964978.58546        39.000
  22740825.406 6  -4721256.919 6  -6549886.72547  22740819.49647        43.000
  22384572.033 6 -13872014.222 6 -10787076.02848  22384565.82448        46.000
  20453837.592 7 -24069881.168 7 -18738892.28149  20453829.30049        50.000
  24914921.560 3  -3121601.216 3  -2427979.65645  24914914.85845        36.000
  23314695.272 5  -2532688.480 5  -2641067.99747  23314686.46447        42.000
  21296416.651 7 -14037120.617 7 -11706592.85649  21296410.46949        52.000
  23598162.088 6  -4172340.500 6  -3263869.85647  23598156.51247        44.000
 08 11 15  1 49  0.0000000  0 11G 3G 6G 7G11G13G16G19G21G23G25G27
  20001549.956 8 -26670805.187 8 -20771432.91549  20001544.44349        53.000
  20943570.068 7 -21461731.868 7 -16710601.58449  20943564.45649        52.000
  22121867.763 7  -7468672.319 7  -7275657.82848  22121860.67848        49.000
  24943260.413 5   -911434.624 5   -702576.20546  24943256.38146        40.000
  22751905.380 6  -4663028.624 6  -6504514.05147  22751899.81147        43.000
  22395900.658 6 -13812483.069 6 -10740688.12348  22395894.41448        47.000
  20447798.260 7 -24101618.453 7 -18763622.63249  20447789.79149        51.000
  24927755.581 3  -3054152.144 3  -2375422.04145  24927749.94145        36.000
  23331327.485 5  -2445277.726 5  -2572955.74847  23331321.00347        40.000
  21288211.554 8 -14080239.617 8 -11740192.07149  21288204.96849        53.000
  23581592.030 5  -4259413.883 5  -3331719.22647  23581586.79347        42.000
 08 11 15  1 49 30.0000000  0 11G 3G 6G 7G11G13G16G19G21G23G25G27
  20007389.756 7 -26640117.733 7 -20747520.61249  20007383.95549        52.000
  20953347.740 7 -21410350.776 7 -16670564.38349  20953341.81749        52.000
  22106608.513 7  -7548861.233 7  -7338142.67148  22106602.14148        49.000
  24921530.017 5  -1025634.028 5   -791562.81446  24921523.78046        40.000
  22763068.421 6  -4604367.278 6  -6458803.93947  22763062.94047        44.000
  22407257.097 6 -13752805.732 6 -10694186.34448  22407251.07048        46.000
  20441846.220 7 -24132894.749 7 -18787993.77049  20441837.90049        50.000
  24940658.677 3  -2986354.977 3  -2322593.09845  24940651.34545        36.000
  23347997.210 5  -2357684.221 5  -2504701.12447  23347989.74147        42.000
  21280093.013 7 -14122904.983 7 -11773437.81049  21280086.42649        52.000
  23565058.585 6  -4346297.146 6  -3399420.46447  23565052.57647        43.000
 08 11 15  1 50  0.0000000  0 11G 3G 6G 7G11G13G16G19G21G23G25G27
  20013307.269 7 -26609021.244 7 -20723289.58749  20013301.32149        51.000
  20963180.061 8 -21358683.779 8 -16630304.38749  20963174.02149        53.000
  22091413.619 7  -7628711.012 7  -7400363.29348  22091406.67248        50.000
  24899790.131 4  -1139874.070 4   -880580.99446  24899785.31646        39.000
  22774313.401 6  -4545275.831 6  -6412758.66947  22774307.29847        44.000
  22418640.787 6 -13692983.373 6 -10647571.52848  22418634.35748        46.000
  20435982.257 7 -24163710.645 7 -18812006.15149  20435974.09549        50.000
  24953624.906 3  -2918211.945 3  -2269494.67745  24953617.17645        36.000
  23364699.737 6  -2269911.114 6  -2436306.54447  23364692.35347        43.000
  21272060.270 7 -14165115.227 7 -11806328.91749  21272053.96249        52.000
  23548561.505 6  -4432988.399 6  -3466972.07647  23548555.69747        43.000
 08 11 15  1 50 30.0000000  0 11G 3G 6G 7G11G13G16G19G21G23G25G27
  20019302.319 7 -26577516.000 7 -20698740.04349  20019296.39249        51.000
  20973065.850 7 -21306731.350 7 -16589821.98349  20973059.97849        52.000
  22076283.653 7  -7708217.643 7  -7462316.53248  22076276.92848        49.000
  24878043.990 3  -1254151.000 3   -969627.91846  24878038.77446        37.000
  22785639.892 6  -4485756.002 6  -6366379.61847  22785633.41147        43.000
  22430052.709 6 -13633014.301 6 -10600842.42748  22430045.83748        47.000
  20430206.122 7 -24194064.815 7 -18835658.75549  20430198.05849        50.000
  24966657.423 3  -2849723.331 3  -2216126.98145  24966650.02445        36.000
  23381434.901 5  -2181960.706 5  -2367773.79447  23381428.86847        40.000
  21264115.102 7 -14206867.203 7 -11838862.92149  21264109.21249        52.000
  23532102.721 6  -4519483.998 6  -3534371.23247  23532096.63447        44.000
 08 11 15  1 51  0.0000000  0 11G 3G 6G 7G11G13G16G19G21G23G25G27
  20025375.179 7 -26545604.653 7 -20673874.05149  20025368.97049        52.000
  20983005.940 7 -21254496.383 7 -16549119.41849  20983000.30849        52.000
  22061220.111 7  -7787379.780 7  -7524001.30548  22061213.24848        50.000
  24856291.212 3  -1368463.741 3  -1058702.68646  24856286.11046        36.000
  22797046.964 6  -4425811.688 6  -6319669.81947  22797040.74947        44.000
  22441492.226 6 -13572899.506 6 -10553999.74748  22441485.80448        46.000
  20424517.462 7 -24223958.927 7 -18858952.86849  20424508.99049        50.000
  24979754.321 1  -2780892.257 1  -2162492.45045  24979748.09245        33.000
  23398205.392 6  -2093837.247 6  -2299106.21447  23398197.49047        43.000
  21256257.085 7 -14248160.374 7 -11871039.42949  21256251.35949        52.000
  23515680.528 6  -4605782.630 6  -3601616.90247  23515674.60847        43.000
 08 11 15  1 51 30.0000000  0 11G 3G 6G 7G11G13G16G19G21G23G25G27
  20031524.425 7 -26513288.578 7 -20648692.70149  20031518.78449        51.000
  20992999.791 7 -21201980.166 7 -16508197.69849  20992993.81349        52.000
  22046221.847 7  -7866194.263 7  -7585415.16248  22046215.26548        50.000
  24834531.231 3  -1482809.640 3  -1147803.26045  24834526.63045        37.000
  22808534.183 6  -4365445.516 6  -6272631.24047  22808528.51247        44.000
  22452959.514 6 -13512638.450 6 -10507043.11448  22452952.91148        46.000
  20418916.546 7 -24253392.417 7 -18881888.05249  20418908.61149        50.000
  24992918.664 2  -2711720.462 2  -2108592.41045  24992911.49445        34.000
  23415007.310 6  -2005543.858 6  -2230306.20547  23414999.61547        43.000
  21248487.206 8 -14288992.519 8 -11902856.68049  21248480.38149        53.000
  23499295.519 5  -4691881.626 5  -3668707.01547  23499290.26647        42.000
 08 11 15  1 52  0.0000000  0 11G 3G 6G 7G11G13G16G19G21G23G25G27
  20037751.132 7 -26480569.273 7 -20623197.13849  20037745.01749        51.000
  21003046.229 7 -21149184.470 7 -16467058.20849  21003040.71849        52.000
  22031290.582 7  -7944658.273 7  -7646555.95848  22031283.71348        49.000
  24812766.247 3  -1597185.923 3  -1236927.51546  24812761.58846        37.000
  22820101.453 6  -4304659.985 6  -6225265.91647  22820095.60147        44.000
  22464454.933 6 -13452230.947 6 -10459972.35448  22464448.16648        46.000
  20413403.188 7 -24282365.191 7 -18904464.23349  20413395.03749        51.000
  25006146.914 2  -2642209.439 2  -2054428.04545  25006139.38445        34.000
  23431840.528 6  -1917083.545 6  -2161376.12647  23431833.19547        43.000
  21240805.374 8 -14329361.467 8 -11934313.00049  21240799.33849        53.000
  23482950.740 6  -4777778.300 6  -3735639.49747  23482945.50747        43.000
 08 11 15  1 52 30.0000000  0 11G 3G 6G 7G11G13G16G19G21G23G25G27
  20044053.245 7 -26447449.198 7 -20597389.29649  20044047.34249        51.000
  21013145.811 7 -21096112.055 7 -16425703.08949  21013139.87949        52.000
  22016426.559 7  -8022770.134 7  -7707422.32448  22016420.02148        49.000
  24790995.431 4  -1711591.253 4  -1326074.33245  24790990.23545        38.000
  22831747.548 6  -4243458.740 6  -6177576.66747  22831741.59547        43.000
  22475977.727 6 -13391677.771 6 -10412788.08548  22475971.17148        46.000
  20407977.358 7 -24310878.896 7 -18926682.70349  20407968.97849        50.000
  25019438.913 1  -2572361.747 1  -2000001.38845  25019432.05945        33.000
  23448704.488 6  -1828460.603 6  -2092319.30747  23448697.68947        43.000
  21233211.542 7 -14369266.586 7 -11965407.90949  21233205.18749        51.000
  23466644.097 6  -4863471.408 6  -3802413.35847  23466638.57647        43.000
 08 11 15  1 53  0.0000000  0 11G 3G 6G 7G11G13G16G19G21G23G25G27
  20050431.702 7 -26413930.079 7 -20571270.50249  20050426.08949        52.000
  21023297.081 7 -21042764.328 7 -16384133.42849  21023291.58749        52.000
  22001629.784 7  -8100526.740 7  -7768011.87748  22001623.28948        49.000
  24769220.206 3  -1826022.961 3  -1415241.74645  24769213.28945        37.000
  22843472.630 6  -4181844.549 6  -6129565.63947  22843466.23547        43.000
  22487528.547 6 -13330978.566 6 -10365490.03348  22487521.67948        46.000
  20402638.511 7 -24338933.101 7 -18948543.11449  20402630.44249        50.000
  25032793.183 2  -2502179.782 2                                        34.000
  23465600.098 6  -1739677.690 6  -2023137.86747  23465591.56947        43.000
  21225706.327 7 -14408705.642 7 -11996139.64549  21225700.43449        52.000
  23450376.321 5  -4948958.374 5  -3869026.57647  23450371.48547        42.000
 08 11 15  1 53 30.0000000  0 11G 3G 6G 7G11G13G16G19G21G23G25G27
  20056886.171 7 -26380012.214 7 -20544841.00749  20056880.25949        51.000
  21033501.351 7 -20989142.254 7 -16342350.01649  21033495.19849        52.000
  21986902.029 7  -8177925.024 7  -7828322.21848  21986895.07748        50.000
  24747439.959 4  -1940477.947 4  -1504427.33145  24747434.35245        38.000
  22855275.155 6  -4119819.393 6  -6081234.39247  22855269.56947        43.000
  22499107.090 6 -13270132.381 6 -10318077.44548  22499099.96548        46.000
  20397387.946 7 -24366527.074 7 -18970044.91049  20397379.35949        51.000
  25046212.731 2  -2431664.479 2                                        35.000
  23482524.662 5  -1650737.503 5  -1953833.88647  23482517.64347        42.000
  21218290.839 8 -14447676.251 8 -12026506.35749  21218284.49949        53.000
  23434148.257 5  -5034236.015 5  -3935476.66047  23434142.93647        41.000
 08 11 15  1 54  0.0000000  0 11G 3G 6G 7G11G13G16G19G21G23G25G27
  20063416.138 7 -26345698.057 7 -20518102.71149  20063409.89049        51.000
  21043757.152 7 -20935248.185 7 -16300354.64449  21043750.80449        52.000
  21972241.927 7  -8254962.592 7  -7888351.51648  21972235.48348        50.000
  24725655.936 3  -2054954.333 3  -1593629.55246  24725650.35346        37.000
  22867155.929 6  -4057386.622 6  -6032585.50647  22867150.05347        43.000
  22510713.732 6 -13209140.035 6 -10270550.97248  22510706.99948        47.000
  20392224.108 7 -24393662.145 7 -18991189.12149  20392215.73849        50.000
  25059694.324 2  -2360818.133 2                                        35.000
  23499478.039 5  -1561643.852 5  -1884410.27647  23499470.34347        42.000
  21210964.444 8 -14486177.148 8 -12056507.04949  21210958.10249        53.000
  23417961.488 5  -5119302.425 5  -4001762.14847  23417955.21847        42.000
 08 11 15  1 54 30.0000000  0 11G 3G 6G 7G11G13G16G19G21G23G25G27
  20070020.485 7 -26310989.838 7 -20491057.34949  20070014.46849        51.000
  21054063.996 7 -20881084.276 7 -16258149.01549  21054058.18649        51.000
  21957650.764 7  -8331636.910 7  -7948097.72848  21957644.64648        50.000
  24703867.496 3  -2169450.131 3  -1682846.88246  24703862.33246        36.000
  22879113.155 5  -3994549.858 5  -5983621.83247  22879107.10347        42.000
  22522347.986 6 -13148001.672 6 -10222910.72048  22522340.93648        47.000
  20387147.553 7 -24420338.785 7 -19011976.10749  20387139.34949        50.000
  25073238.189 3  -2289642.972 3                                        36.000
  23516461.011 5  -1472400.323 5  -1814869.93447  23516452.88447        42.000
  21203727.296 7 -14524206.840 7 -12086140.58349  21203721.27049        51.000
  23401813.500 6  -5204155.801 6  -4067881.65647  23401808.14147        43.000
 08 11 15  1 55  0.0000000  0 11G 3G 6G 7G11G13G16G19G21G23G25G27
  20076700.124 7 -26275889.386 7 -20463706.35449  20076694.13749        51.000
  21064422.006 7 -20826652.019 7 -16215734.27449  21064415.87249        50.000
  21943130.443 7  -8407945.636 7  -8007559.07548  21943123.51948        50.000
  24682076.130 4  -2283963.025 4  -1772077.57046  24682071.39946        38.000
  22891147.350 5  -3931311.684 5  -5934345.35047  22891141.03647        42.000
  22534009.863 6 -13086716.855 6 -10175156.33448  22534003.14048        47.000
  20382158.482 7 -24446557.043 7 -19032405.91649  20382150.76449        50.000
  25086844.942 3  -2218140.976 3                                        37.000
  23533470.957 5  -1383009.881 5  -1745215.11346  23533464.02446        41.000
  21196580.794 7 -14561763.527 7 -12115405.53649  21196574.47949        51.000
  23385708.004 5  -5288793.539 5  -4133833.12447  23385701.65347        42.000
 08 11 15  1 55 30.0000000  0 11G 3G 6G 7G11G13G16G19G21G23G25G27
  20083453.960 7 -26240397.607 7 -20436050.43249  20083448.18149        51.000
  21074831.289 7 -20771953.161 7 -16173111.80049  21074825.22249        50.000
  21928679.131 7  -8483885.695 7  -8066733.13848  21928672.62148        50.000
  24660282.740 3  -2398490.182 3  -1861319.38446  24660277.63346        37.000
  22903257.021 6  -3867674.840 6  -5884758.23547  22903250.62447        43.000
  22545699.731 6 -13025285.392 6 -10127287.70448  22545693.63048        47.000
  20377256.574 7 -24472317.108 7 -19052478.69249  20377248.34849        51.000
  25100513.278 3  -2146313.965 3                                        36.000
  23550509.810 5  -1293475.800 5  -1675448.30146  23550501.55846        42.000
  21189524.348 7 -14598845.467 7 -12144300.55349  21189517.62549        51.000
  23369642.088 6  -5373212.903 6  -4199614.43647  23369637.42247        43.000
 08 11 15  1 56  0.0000000  0 11G 3G 6G 7G11G13G16G19G21G23G25G27
  20090281.901 7 -26204516.617 7 -20408091.23049  20090275.67049        51.000
  21085290.149 7 -20716989.418 7 -16130282.92249  21085284.40949        50.000
  21914298.955 7  -8559454.721 7  -8125618.08648  21914292.48848        49.000
  24638486.456 3  -2513029.160 3  -1950570.38146  24638480.80746        37.000
  22915442.080 6  -3803642.149 6  -5834862.65647  22915436.13147        43.000
  22557417.873 7 -12963707.354 7 -10079304.83448  22557411.08348        48.000
  20372441.639 7 -24497619.251 7 -19072194.64749  20372433.19349        51.000
  25114243.795 2  -2074163.417 2                                        35.000
  23567573.794 5  -1203801.439 5  -1605572.22346  23567564.95646        42.000
  21182558.695 7 -14635450.921 7 -12172824.28849  21182551.58849        50.000
  23353620.947 6  -5457411.688 6  -4265223.87147  23353615.31247        43.000
 08 11 15  1 56 30.0000000  0 11G 3G 6G 7G11G13G16G19G21G23G25G27
  20097183.355 7 -26168248.757 7 -20379830.57349  20097177.60949        51.000
  21095799.380 7 -20661763.393 7 -16087249.67449  21095793.65249        50.000
  21899989.612 7  -8634650.664 7  -8184212.32048  21899983.09048        50.000
  24616689.036 3  -2627578.594 3  -2039829.57646  24616682.98646        36.000
  22927701.093 6  -3739217.340 6  -5784661.53847  22927695.79647        43.000
  22569163.316 6 -12901983.084 6 -10031208.03148  22569157.48748        47.000
  20367713.804 7 -24522464.672 7 -19091554.71649  20367705.20049        50.000
  25128034.071 2  -2001692.510 2                                        35.000
  23584664.747 5  -1113990.688 5  -1535589.86946  23584655.50246        42.000
  21175683.756 7 -14671578.995 7 -12200976.03649  21175677.22549        50.000
  23337640.497 6  -5541388.409 6  -4330660.29347  23337634.57547        43.000
 08 11 15  1 57  0.0000000  0 11G 3G 6G 7G11G13G16G19G21G23G25G27
  20104158.638 7 -26131594.846 7 -20351269.09649  20104152.46149        51.000
  21106358.183 7 -20606275.789 7 -16044012.59949  21106352.73849        50.000
  21885751.873 7  -8709469.801 7  -8242512.94948  21885745.61148        50.000
  24594886.964 3  -2742134.520 3  -2129093.78946  24594880.85646        36.000
  22940035.139 6  -3674402.430 6  -5734156.45347  22940030.32547        43.000
  22580937.368 7 -12840111.937 7  -9982996.76548  22580931.06048        48.000
  20363073.111 7 -24546852.515 7 -19110558.23349  20363064.65949        51.000
  25141885.613 2  -1928901.992 2                                        35.000
  23601779.387 5  -1024045.948 5  -1465503.08546  23601772.91246        42.000
  21168899.882 7 -14707226.898 7 -12228753.62549  21168893.70349        51.000
  23321703.063 6  -5625139.438 6  -4395920.83547  23321698.01947        43.000
 08 11 15  1 57 30.0000000  0 11G 3G 6G 7G11G13G16G19G21G23G25G27
  20111206.493 7 -26094556.902 7 -20322408.37449  20111200.33149        51.000
  21116966.562 7 -20550528.614 7 -16000573.25949  21116960.76549        49.000
  21871586.300 7  -8783909.675 7  -8300518.04048  21871579.83348        51.000
  24573089.305 4  -2856695.340 4  -2218361.86546  24573083.03746        38.000
  22952442.951 5  -3609200.629 5  -5683349.89647  22952437.56247        42.000
  22592738.495 6 -12778094.118 6  -9934671.23047  22592731.84247        47.000
  20358518.919 7 -24570783.699 7 -19129205.90549  20358510.76749        51.000
  25155793.853 1  -1855794.205 1                                        31.000
  23618921.519 6   -933970.561 6  -1395314.49846  23618912.98846        44.000
  21162207.947 7 -14742393.401 7 -12256156.10249  21162201.29249        50.000
  23305809.232 6  -5708662.911 6  -4461004.04947  23305803.82947        44.000
 08 11 15  1 58  0.0000000  0 11G 3G 6G 7G11G13G16G19G21G23G25G27
  20118328.260 7 -26057131.711 7 -20293245.90049  20118322.50349        52.000
  21127625.298 7 -20494518.939 7 -15956929.36849  21127619.36249        50.000
  21857494.581 7  -8857963.249 7  -8358222.13048  21857488.12248        51.000
  24551289.317 4  -2971253.871 4  -2307628.16346  24551284.27146        39.000
  22964924.342 6  -3543610.356 6  -5632240.61447  22964917.98047        43.000
  22604569.363 7 -12715924.385 7  -9886227.29648  22604562.91748        48.000
  20354052.628 7 -24594253.781 7 -19147494.27949  20354044.49249        51.000
  25169767.526 1  -1782366.453 1                                        30.000
  23636087.971 6   -843762.962 6  -1325022.93146  23636079.07446        43.000
  21155608.757 7 -14777071.976 7 -12283178.37249  21155602.56649        50.000
  23289959.813 6  -5791951.600 6  -4525904.33647  23289953.95947        43.000
 08 11 15  1 58 30.0000000  0 11G 3G 6G 7G11G13G16G19G21G23G25G27
  20125520.484 7 -26019336.140 7 -20263794.80849  20125514.87049        51.000
  21138330.073 7 -20438263.504 7 -15913093.97749  21138324.08449        51.000
  21843473.871 7  -8931642.701 7  -8415634.67148  21843467.31448        50.000
  24529486.956 4  -3085822.653 4  -2396902.46346  24529482.70946        39.000
  22977476.796 6  -3477649.369 6  -5580842.47447  22977471.01547        44.000
  22616425.952 6 -12653617.784 6  -9837676.72547  22616419.91547        47.000
  20349671.311 7 -24617278.336 7 -19165435.49649  20349663.04649        51.000
  25183800.650 1  -1708635.768 1                                        33.000
  23653274.866 6   -753441.482 6  -1254642.60346  23653266.45046        44.000
  21149100.046 7 -14811276.133 7 -12309830.96649  21149093.28349        51.000
  23274153.011 6  -5875018.176 6  -4590631.55147  23274146.67347        43.000
 08 11 15  1 59  0.0000000  0 11G 3G 6G 7G11G13G16G19G21G23G25G27
  20132785.464 7 -25981158.458 7 -20234045.98449  20132779.36249        52.000
  21149084.131 7 -20381750.532 7 -15869057.92049  21149078.16249        51.000
  21829527.099 7  -9004932.037 7  -8472743.24748  21829521.02748        50.000
  24507686.995 4  -3200385.670 4  -2486172.28646  24507681.66746        39.000
  22990100.947 6  -3411307.200 6  -5529147.31247  22990094.77247        43.000
  22628311.186 6 -12591160.636 6  -9789008.85447  22628304.23047        47.000
  20345377.154 7 -24639844.049 7 -19183019.16349  20345368.89149        51.000
  25197890.862 1  -1634590.376 1                                        33.000
  23670486.382 6   -662995.788 6  -1184165.47747  23670478.54047        43.000
  21142684.256 7 -14844990.747 7 -12336102.10349  21142678.10149        52.000
  23258390.739 6  -5957846.594 6  -4655173.17647  23258385.56147        43.000
 08 11 15  1 59 30.0000000  0 11G 3G 6G 7G11G13G16G19G21G23G25G27
  20140122.511 7 -25942603.199 7 -20204002.94049  20140116.00349        52.000
  21159886.922 7 -20324984.692 7 -15824824.81149  21159880.60449        52.000
  21815654.925 7  -9077831.537 7  -8529548.04048  21815648.55348        50.000
  24485887.344 5  -3314943.583 5  -2575438.26046  24485879.98746        40.000
  23002797.141 6  -3344589.879 6  -5477159.80147  23002791.31947        43.000
  22640224.333 7 -12528555.987 7  -9740226.03247  22640217.78347        48.000
  20341169.619 7 -24661954.526 7 -19200248.10549  20341161.45149        51.000
  25212039.689 1  -1560235.538 1                                        32.000
  23687718.693 5   -572432.112 5  -1113596.42947  23687712.16047        42.000
  21136361.298 7 -14878217.067 7 -12361992.74049  21136355.07849        52.000
  23242674.551 6  -6040437.564 6  -4719529.75447  23242669.46147        43.000
 08 11 15  2  0  0.0000000  0 11G 3G 6G 7G11G13G16G19G21G23G25G27
  20147530.658 7 -25903672.588 7 -20173667.40549  20147524.62749        51.000
  21170736.288 7 -20267968.549 7 -15780396.67149  21170730.01949        51.000
  21801856.929 7  -9150339.320 7  -8586047.59948  21801850.93548        50.000
  24464088.305 4  -3429494.460 4  -2664698.68646  24464082.61746        39.000
  23015563.116 5  -3277501.013 5  -5424882.78147  23015557.79747        42.000
  22652166.105 6 -12465804.595 6  -9691328.85047  22652159.26647        47.000
  20337048.730 7 -24683610.388 7 -19217122.80949  20337040.41349        51.000
  25226247.008 1  -1485574.197 1                                        31.000
  23704975.368 5   -481754.310 5  -1042938.44447  23704968.39347        42.000
  21130131.747 7 -14910954.432 7 -12387502.38949  21130125.45349        51.000
  23227003.111 6  -6122789.532 6  -4783700.10647  23226997.52847        44.000
 08 11 15  2  0 30.0000000  0 11G 3G 6G 7G11G13G16G19G21G23G25G27
  20155009.717 7 -25864369.323 7 -20143041.49549  20155003.68649        52.000
  21181633.349 7 -20210704.248 7 -15735775.15949  21181627.10349        50.000
  21788134.267 7  -9222453.193 7  -8642240.22148  21788127.59448        50.000
  24442292.745 5  -3544036.439 5  -2753952.19046  24442285.90746        40.000
  23028399.774 5  -3210044.381 5  -5372319.21047  23028393.67847        42.000
  22664134.961 6 -12402906.608 6  -9642317.48247  22664128.65947        47.000
  20333013.773 7 -24704812.887 7 -19233644.22649  20333005.58049        52.000
  25240514.116 1  -1410608.627 1                                        30.000
  23722251.021 5   -390966.340 5   -972194.61747  23722243.87947        42.000
  21123995.615 7 -14943201.621 7 -12412630.07349  21123988.76149        51.000
  23211378.540 6  -6204900.297 6  -4847682.53947  23211372.35447        44.000
 08 11 15  2  1  0.0000000  0 10G 3G 6G 7G11G13G16G19G23G25G27
  20162560.911 7 -25824688.824 7 -20112121.63549  20162554.78149        52.000
  21192578.699 7 -20153187.437 7 -15690956.87849  21192572.80549        49.000
  21774488.156 7  -9294164.380 7  -8698119.07348  21774481.35648        51.000
  24420498.590 4  -3658560.754 4  -2843191.86646  24420493.24146        39.000
  23041307.243 5  -3142216.533 5  -5319466.37147  23041301.56147        42.000
  22676132.683 6 -12339855.929 6  -9593187.09247  22676126.64847        46.000
  20329066.937 7 -24725556.470 7 -19249808.06049  20329058.60549        52.000
  23739550.002 5   -300064.867 5   -901362.37046  23739542.34846        42.000
  21117953.630 7 -14974950.989 7 -12437369.84949  21117947.52449        50.000
  23195800.587 6  -6286761.346 6  -4911470.36147  23195795.01747        43.000
 08 11 15  2  1 30.0000000  0 10G 3G 6G 7G11G13G16G19G23G25G27
  20170181.038 8 -25784644.167 8 -20080918.01449  20170174.83449        53.000
  21203569.083 7 -20095430.889 7 -15645951.79749  21203563.21349        49.000
  21760916.964 7  -9365481.546 7  -8753690.89448  21760909.92048        50.000
  24398707.302 5  -3773076.202 5  -2932424.65646  24398701.14246        40.000
  23054282.028 5  -3074031.725 5  -5266335.36647  23054276.39847        42.000
  22688158.055 6 -12276663.485 6  -9543946.27847  22688151.35547        47.000
  20325204.327 7 -24745852.897 7 -19265623.46249  20325196.24249        52.000
  23756865.924 5   -209064.546 5   -830453.07446  23756859.23546        40.000
  21112004.879 7 -15006212.124 7 -12461729.17949  21111998.61049        50.000
  23180269.015 6  -6368381.537 6  -4975070.50647  23180262.86347        43.000
 08 11 15  2  2  0.0000000  0 10G 3G 6G 7G11G13G16G19G23G25G27
  20177871.616 7 -25744230.838 7 -20049427.11749  20177865.50049        52.000
  21214606.056 7 -20037430.517 7 -15600756.72849  21214600.30049        49.000
  21747422.493 7  -9436396.197 7  -8808949.06248  21747416.17948        50.000
  24376918.159 4  -3887574.430 4  -3021643.95946  24376912.03446        39.000
  23067325.690 5  -3005487.274 5  -5212924.14747  23067319.88447        41.000
  22700211.242 6 -12213323.496 6  -9494590.45547  22700204.57147        47.000
  20321428.342 7 -24765696.242 7 -19281085.81149  20321419.95649        52.000
  23774202.157 5   -117962.748 5   -759464.71146  23774195.57746        40.000
  21106150.074 7 -15036977.605 7 -12485702.28449  21106144.60949        50.000
  23164784.224 6  -6449752.689 6  -5038476.60647  23164778.78347        44.000
 08 11 15  2  2 30.0000000  0 10G 3G 6G 7G11G13G16G19G23G25G27
  20185631.356 7 -25703452.305 7 -20017651.63849  20185625.25549        52.000
  21225689.211 7 -19979189.783 7 -15555374.34748  21225683.17948        50.000
  21734004.121 7  -9506907.185 7  -8863892.67748  21733997.36448        49.000
  24355135.165 6  -4002054.316 6  -3110848.97746  24355125.54846        43.000
  23080437.292 5  -2936587.586 5  -5159236.08947  23080431.99247        42.000
  22712293.000 6 -12149836.883 6  -9445120.40847  22712286.30347        47.000
  20317737.995 8 -24785088.801 8 -19296196.89849  20317729.58249        53.000
  23791556.973 4    -26763.946 4   -688400.81846  23791550.09346        38.000
  21100390.217 7 -15067247.435 7 -12509289.17149  21100384.03949        50.000
  23149347.593 6  -6530873.642 6  -5101687.70447  23149342.24047        43.000
 08 11 15  2  3  0.0000000  0 10G 3G 6G 7G11G13G16G19G23G25G27
  20193460.666 8 -25662308.795 8 -19985591.77249  20193454.95949        53.000
  21236817.752 7 -19920708.785 7 -15509804.75849  21236811.93949        49.000
  21720664.548 7  -9577010.784 7  -8918518.85748  21720657.49948        51.000
  24333353.522 5  -4116512.422 5  -3200036.96346  24333346.52846        41.000
  23093615.695 6  -2867334.657 6  -5105272.80947  23093610.07147        43.000
  22724401.824 6 -12086202.800 6  -9395535.44147  22724395.27147        46.000
  20314133.540 8 -24804029.885 8 -19310956.19549  20314125.19449        53.000
  23808929.198 5     64529.554 5   -617263.06746  23808922.66446        40.000
  21094725.067 7 -15097018.960 7 -12532487.77749  21094718.91449        50.000
  23133959.306 6  -6611740.923 6  -5164701.15348  23133953.50348        46.000
 08 11 15  2  3 30.0000000  0 10G 3G 6G 7G11G13G16G19G23G25G27
  20201359.003 7 -25620803.509 7 -19953249.99249  20201353.27349        51.000
  21247991.369 7 -19861990.644 7 -15464050.37848  21247985.17048        48.000
  21707401.541 7  -9646705.726 7  -8972826.60348  21707394.85948        48.000
  24311577.720 5  -4230947.576 5  -3289206.99846  24311570.35446        42.000
  23106860.531 5  -2797732.781 5  -5051037.61547  23106855.16747        42.000
  22736538.052 6 -12022422.335 6  -9345836.41247  22736532.00747        45.000
  20310614.605 7 -24822521.652 7 -19325365.36749  20310606.82849        51.000
  23826319.378 4    155913.551 4   -546054.82346  23826312.22846        39.000
  21089154.742 7 -15126292.039 7 -12555297.95949  21089148.37649        50.000
  23118619.531 6  -6692353.568 6  -5227516.19648  23118613.41048        45.000
 08 11 15  2  4  0.0000000  0 10G 3G 6G 7G11G13G16G19G23G25G27
  20209325.617 8 -25578937.557 8 -19920627.17849  20209319.65949        53.000
  21259209.904 7 -19803036.145 7 -15418111.82248  21259204.26348        51.000
  21694217.677 7  -9715988.045 7  -9026812.82848  21694210.52648        51.000
  24289805.187 5  -4345355.941 5  -3378356.20446  24289799.03346        42.000
  23120171.514 6  -2727783.931 6  -4996532.06247  23120164.85747        43.000
  22748703.334 6 -11958494.231 6  -9296022.33747  22748697.45547        46.000
  20307181.787 8 -24840563.059 8 -19339423.61149  20307173.81749        53.000
  23843725.585 5    247385.864 5   -474777.73346  23843718.43546        40.000
  21083679.485 7 -15155063.953 7 -12577717.64949  21083673.64949        51.000
  23103328.277 6  -6772708.004 6  -5290130.04448  23103322.69748        46.000
 08 11 15  2  4 30.0000000  0 10G 3G 6G 7G11G13G16G19G23G25G27
  20217360.977 7 -25536712.866 7 -19887724.82349  20217355.12049        51.000
  21270473.140 7 -19743847.458 7 -15371990.77849  21270467.32449        49.000
  21681112.634 7  -9784856.403 7  -9080476.48548  21681106.06248        49.000
  24268040.052 6  -4459735.997 6  -3467483.30346  24268033.46546        43.000
  23133547.580 6  -2657491.777 6  -4941758.97447  23133541.83547        44.000
  22760897.329 6 -11894419.096 6  -9246093.70447  22760890.80147        45.000
  20303833.844 7 -24858155.427 7 -19353131.95249  20303825.90349        52.000
  23861149.862 5    338942.854 5   -403434.67946  23861141.27346        41.000
  21078299.645 7 -15183333.941 7 -12599746.20249  21078293.83849        50.000
  23088086.661 6  -6852802.354 6  -5352541.21548  23088081.22048        44.000
 08 11 15  2  5  0.0000000  0 10G 3G 6G 7G11G13G16G19G23G25G27
  20225463.702 7 -25494131.482 7 -19854544.53749  20225458.03149        52.000
  21281780.369 7 -19684426.662 7 -15325688.88848  21281774.72148        51.000
  21668086.982 7  -9853307.880 7  -9133815.29348  21668080.16948        51.000
  24246279.291 5  -4574085.423 5  -3556586.60146  24246272.28746        42.000
  23146988.434 6  -2586859.720 6  -4886721.03547  23146982.52247        44.000
  22773117.721 6 -11830196.904 6  -9196050.47447  22773111.42347        46.000
  20300571.678 7 -24875299.886 7 -19366491.27149  20300563.27049        52.000
  23878587.326 5    430580.856 5   -332028.48246  23878579.14546        41.000
  21073015.951 7 -15211100.884 7 -12621382.80349  21073009.40049        51.000
  23072895.139 6  -6932634.494 6  -5414748.05448  23072889.89048        45.000
 08 11 15  2  5 30.0000000  0 10G 3G 6G 7G11G13G16G19G23G25G27
  20233634.285 7 -25451194.321 7 -19821087.01249  20233628.73149        52.000
  21293132.375 7 -19624774.253 7 -15279206.49848  21293126.59548        50.000
  21655140.820 7  -9921338.870 7  -9186826.45748  21655134.40648        49.000
  24224525.310 5  -4688400.438 5  -3645663.05046  24224519.20046        42.000
  23160493.645 6  -2515889.916 6  -4831419.89347  23160487.42347        43.000
  22785367.135 6 -11765826.642 6  -9145891.86447  22785360.71547        45.000
  20297394.387 7 -24891995.251 7 -19379500.64949  20297385.96249        51.000
  23896039.958 5    522297.670 5   -260560.86446  23896032.05846        41.000
  21067828.087 7 -15238362.275 7 -12642625.43949  21067821.72449        51.000
  23057753.977 6  -7012201.042 6  -5476747.95447  23057747.89747        45.000
 08 11 15  2  6  0.0000000  0 10G 3G 6G 7G11G13G16G19G23G25G27
  20241872.475 7 -25407903.940 7 -19787354.25849  20241866.54749        52.000
  21304527.308 7 -19564893.017 7 -15232545.81048  21304521.29748        51.000
  21642274.988 7  -9988948.184 7  -9239509.04048  21642268.34748        50.000
  24202778.833 4  -4802679.893 4  -3734711.84546  24202771.95646        39.000
  23174061.846 6  -2444586.043 6  -4775858.48347  23174056.38447        43.000
  22797644.698 6 -11701309.209 6  -9095618.55947  22797638.13947        46.000
  20294302.710 7 -24908243.534 7 -19392161.65349  20294294.15249        51.000
  23913507.902 5    614089.429 5   -189034.89246  23913500.86946        41.000
  21062736.860 7 -15265117.711 7 -12663473.83949  21062730.55449        52.000
  23042663.897 7  -7091500.501 7  -5538539.74648  23042658.28348        48.000
 08 11 15  2  6 30.0000000  0 10G 3G 6G 7G11G13G16G19G23G25G27
  20250177.233 7 -25364262.019 7 -19753347.57649  20250171.02849        51.000
  21315965.953 7 -19504784.567 7 -15185708.07248  21315959.75748        49.000
  21629490.394 7 -10056132.960 7  -9291860.80748  21629483.67848        50.000
  24181040.057 5  -4916921.155 5  -3823730.90846  24181032.75146        40.000
  23187694.298 6  -2372951.577 6  -4720039.45347  23187687.67247        44.000
  22809949.947 6 -11636644.395 6  -9045230.42047  22809943.26647        44.000
  20291295.657 7 -24924045.383 7 -19404474.76849  20291287.17749        52.000
  23930989.244 5    705953.002 5   -117452.92346  23930981.26246        41.000
  21057742.304 7 -15291365.823 7 -12683926.91349  21057735.38649        51.000
  23027625.000 6  -7170530.459 6  -5600121.51748  23027618.99648        46.000
 08 11 15  2  7  0.0000000  0 10G 3G 6G 7G11G13G16G19G23G25G27
  20258548.747 7 -25320270.160 7 -19719068.21749  20258542.70049        51.000
  21327446.656 7 -19444450.356 7 -15138694.41448  21327440.63448        52.000
  21616786.887 7 -10122890.550 7  -9343879.71048  21616780.50548        50.000
  24159307.829 4  -5031121.484 4  -3912717.99346  24159301.81246        39.000
  23201387.779 6  -2300989.309 6  -4663964.99647  23201381.81147        45.000
  22822283.335 6 -11571831.944 6  -8994727.24847  22822277.11447        46.000
  20288373.259 7 -24939401.108 7 -19416440.27249  20288365.01849        51.000
  23948482.761 5    797885.163 5    -45817.53046  23948475.57346        40.000
  21052844.271 7 -15317104.905 7 -12703983.34549  21052837.69549        52.000
  23012637.950 6  -7249288.346 6  -5661491.32347  23012631.63547        46.000
 08 11 15  2  7 30.0000000  0 10G 3G 6G 7G11G13G16G19G23G25G27
  20266986.130 7 -25275930.332 7 -19684517.70649  20266980.48349        51.000
  21338970.574 7 -19383892.297 7 -15091506.32848  21338964.84648        49.000
  21604165.096 7 -10189218.805 7  -9395564.06748  21604158.41948        49.000
  24137584.208 5  -5145278.646 5  -4001671.56846  24137577.82246        40.000
  23215142.984 6  -2228702.550 6  -4607637.67047  23215137.51347        44.000
  22834645.002 6 -11506872.039 6  -8944109.18047  22834638.13747        45.000
  20285536.048 7 -24954311.511 7 -19428058.76249  20285527.57349        51.000
  23965990.040 5    889882.787 5     25868.89746  23965982.23946        41.000
  21048043.017 7 -15342334.089 7 -12723642.45049  21048036.37949        50.000
  22997702.745 6  -7327772.083 6  -5722647.45547  22997697.61547        46.000
 08 11 15  2  8  0.0000000  0 10G 3G 6G 7G11G13G16G19G23G25G27
  20275489.652 7 -25231244.231 7 -19649697.37649  20275483.27649        51.000
  21350536.838 7 -19323112.037 7 -15044145.11248  21350531.15548        51.000
  21591625.273 7 -10255114.940 7  -9446911.70048  21591618.52248        50.000
  24115869.474 4  -5259389.948 4  -4090589.32946  24115863.68546        39.000
  23228960.608 6  -2156094.521 6  -4551060.03447  23228954.26647        45.000
  22847034.193 6 -11441764.129 6  -8893375.76447  22847028.12047        45.000
  20282783.363 7 -24968777.231 7 -19439330.74849  20282775.31749        52.000
  23983507.631 4    981942.781 4     97603.89346  23983501.60346        39.000
  21043339.553 7 -15367051.761 7 -12742902.97749  21043333.29949        51.000
  22982820.365 6  -7405979.016 6  -5783587.90448  22982814.57448        46.000
 08 11 15  2  8 30.0000000  0 10G 3G 6G 7G11G13G16G19G23G25G27
  20284058.634 7 -25186213.341 7 -19614608.37149  20284052.75349        51.000
  21362144.621 7 -19262111.180 7 -14996611.97448  21362138.96248        50.000
  21579168.461 7 -10320576.324 7  -9497920.57548  21579162.61948        50.000
  24094164.734 5  -5373452.745 5  -4179469.33946  24094157.32346        40.000
  23242837.772 6  -2083167.959 6  -4494234.17947  23242831.80747        44.000
  22859451.807 6 -11376508.619 6  -8842527.35147  22859445.66047        44.000
  20280115.091 7 -24982798.895 7 -19450256.71349  20280107.22649        52.000
  24001037.357 5   1074062.077 5    169385.09846  24001030.05146        41.000
  21038733.491 7 -15391256.486 7 -12761763.80449  21038726.91749        51.000
  22967991.522 6  -7483906.431 6  -5844310.55148  22967985.51248        45.000
 08 11 15  2  9  0.0000000  0 10G 3G 6G 7G11G13G16G19G23G25G27
  20292692.641 7 -25140841.435 7 -19579253.65349  20292686.77749        51.000
  21373793.879 7 -19200892.771 7 -14948909.33348  21373788.43148        50.000
  21566794.443 7 -10385601.940 7  -9548589.87648  21566788.25448        50.000
  24072468.502 5  -5487466.085 5  -4268310.83246  24072461.74246        40.000
  23256774.705 6  -2009927.581 6  -4437163.79747  23256769.83047        43.000
  22871898.330 6 -11311106.637 6  -8791564.81547  22871891.83247        46.000
  20277531.095 7 -24996378.748 7 -19460838.41949  20277522.27049        51.000
  24018577.958 5   1166236.045 5    241208.89446  24018570.19346        41.000
  21034225.167 7 -15414948.595 7 -12780225.19849  21034218.55049        52.000
  22953215.605 6  -7561553.538 6  -5904814.78948  22953210.46448        46.000
 08 11 15  2  9 30.0000000  0 10G 3G 6G 7G11G13G16G19G23G25G27
  20301391.669 7 -25095128.438 7 -19543633.13349  20301385.93949        51.000
  21385484.860 7 -19139457.073 7 -14901037.36548  21385479.18548        50.000
  21554504.352 7 -10450187.799 7  -9598916.52748  21554497.75348        50.000
  24050782.288 5  -5601426.024 5  -4357110.67546  24050776.45046        40.000
  23270771.783 6  -1936375.276 6  -4379850.35447  23270765.54947        44.000
  22884371.651 6 -11245556.425 6  -8740486.73747  22884365.41947        45.000
  20275031.240 7 -25009515.749 7 -19471075.03849  20275022.83749        51.000
  24036128.700 5   1258463.073 5    313074.09146  24036120.28546        41.000
  21029814.617 7 -15438125.282 7 -12798284.96149  21029808.48349        51.000
  22938494.190 6  -7638916.438 6  -5965097.55048  22938488.42748        46.000
 08 11 15  2 10  0.0000000  0 10G 3G 6G 7G11G13G16G19G23G25G27
  20310155.024 7 -25049076.995 7 -19507748.90249  20310149.31749        51.000
  21397216.737 7 -19077806.341 7 -14852997.85248  21397210.97948        50.000
  21542297.987 7 -10514332.161 7  -9648899.15348  21542291.34248        51.000
  24029107.049 5  -5715330.652 5  -4445867.42346  24029101.12046        41.000
  23284826.947 6  -1862514.591 6  -4322296.61647  23284820.91047        43.000
  22896873.657 6 -11179858.566 6  -8689293.63647  22896867.48547        45.000
  20272615.334 7 -25022211.212 7 -19480967.60449  20272607.12449        51.000
  24053688.467 5   1350739.497 5    384977.72746  24053681.33946        40.000
  21025502.375 7 -15460785.860 7 -12815942.56149  21025496.02449        52.000
  22923826.622 6  -7715993.491 6  -6025157.60048  22923821.20248        46.000
 08 11 15  2 10 30.0000000  0 10G 3G 6G 7G11G13G16G19G23G25G27
  20318982.520 7 -25002688.114 7 -19471601.72849  20318976.78749        51.000
  21408989.347 7 -19015941.969 7 -14804791.85348  21408983.16848        50.000
  21530176.192 7 -10578032.337 7  -9698535.65248  21530169.65548        50.000
  24007442.351 6  -5829177.366 6  -4534579.05246  24007435.70946        43.000
  23298940.199 6  -1788348.739 6  -4264505.08646  23298934.50146        43.000
  22909403.585 6 -11114012.926 6  -8637985.38047  22909397.81947        46.000
  20270283.223 7 -25034465.853 7 -19490516.67349  20270274.74049        52.000
  24071256.957 5   1443062.156 5    456917.39946  24071249.87846        40.000
  21021288.923 7 -15482929.010 7 -12833196.96549  21021282.39049        51.000
  22909214.556 6  -7792782.170 6  -6084992.92848  22909208.62748        46.000
 08 11 15  2 11  0.0000000  0 10G 3G 6G 7G11G13G16G19G23G25G27
  20327873.958 7 -24955963.815 7 -19435193.20049  20327867.47649        51.000
  21420801.707 7 -18953865.712 7 -14756420.76448  21420796.14148        51.000
  21518139.597 7 -10641285.816 7  -9747824.09248  21518132.71348        51.000
  23985788.652 5  -5942963.377 5  -4623243.42346  23985782.19646        41.000
  23313111.051 5  -1713880.560 5  -4206477.99847  23313106.19647        42.000
  22921961.778 6 -11048019.329 6  -8586561.84647  22921956.09347        46.000
  20268034.871 7 -25046280.249 7 -19499722.69949  20268026.61449        51.000
  24088832.770 4   1535428.188 4    528890.89346  24088825.57246        39.000
  21017173.911 7 -15504553.386 7 -12850047.13649  21017167.97949        52.000
  22894656.903 6  -7869280.098 6  -6144601.69348  22894651.86548        46.000
 08 11 15  2 11 30.0000000  0 10G 3G 6G 7G11G13G16G19G23G25G27
  20336828.655 7 -24908906.353 7 -19398525.05349  20336822.46349        52.000
  21432655.038 7 -18891579.430 7 -14707886.01148  21432648.78548        51.000
  21506188.032 7 -10704090.432 7  -9796762.74948  21506181.70648        50.000
  23964148.944 6  -6056686.404 6  -4711858.65846  23964142.68846        43.000
  23327337.841 5  -1639113.701 5  -4148218.12447  23327333.00847        42.000
  22934547.818 6 -10981878.029 6  -8535023.20447  22934542.09147        46.000
  20265870.424 7 -25057655.666 7 -19508586.66049  20265862.18449        52.000
  24106417.061 5   1627834.250 5    600895.54246  24106410.23046        40.000
  21013157.798 7 -15525658.094 7 -12866492.36449  21013151.50049        52.000
  22880155.662 6  -7945485.064 6  -6203982.17248  22880150.74048        47.000
 08 11 15  2 12  0.0000000  0 10G 3G 6G 7G11G13G16G19G23G25G27
  20345846.300 7 -24861517.578 7 -19361598.74849  20345840.57949        52.000
  21444546.807 7 -18829084.956 7 -14659189.03548  21444541.11948        50.000
  21494322.522 7 -10766443.795 7  -9845349.78448  21494315.94348        51.000
  23942519.817 5  -6170344.384 5  -4800423.21646  23942513.60246        42.000
  23341623.029 6  -1564051.443 6  -4089728.11647  23341616.51847        43.000
  22947162.275 6 -10915589.126 6  -8483369.54047  22947156.09447        46.000
  20263789.283 7 -25068592.860 7 -19517109.15049  20263780.79449        51.000
  24124009.042 5   1720276.644 5    672928.53046  24124002.15946        40.000
  21009240.799 7 -15546242.271 7 -12882531.99049  21009234.00149        52.000
  22865711.416 6  -8021394.795 6  -6263132.61248  22865705.95548        47.000
 08 11 15  2 12 30.0000000  0 10G 3G 6G 7G11G13G16G19G23G25G27
  20354926.808 7 -24813799.646 7 -19324415.95149  20354921.07849        51.000
  21456478.504 7 -18766384.604 7 -14610331.63248  21456472.79248        50.000
  21482543.507 7 -10828344.011 7  -9893583.71948  21482537.24448        49.000
  23920904.227 6  -6283935.112 6  -4888935.37746  23920897.61246        43.000
  23355961.646 5  -1488697.619 5  -4031010.88746  23355956.15546        41.000
  22959804.867 6 -10849152.947 6  -8431601.10047  22959799.02647        47.000
  20261791.031 7 -25079093.260 7 -19525291.28149  20261782.84149        52.000
  24141606.517 5   1812752.227 5    744987.35246  24141598.69046        41.000
  21005422.865 7 -15566305.167 7 -12898165.42149  21005416.71649        52.000
  22851322.450 6  -8097007.257 6  -6322051.41748  22851316.84448        47.000
 08 11 15  2 13  0.0000000  0 10G 3G 6G 7G11G13G16G19G23G25G27
  20364070.058 7 -24765751.776 7 -19286976.06749  20364063.76149        51.000
  21468448.827 7 -18703477.090 7 -14561312.80848  21468443.50948        50.000
  21470850.971 7 -10889786.153 7  -9941460.70748  21470844.88348        50.000
  23899302.799 5  -6397453.642 5  -4977391.25146  23899296.45546        42.000
  23370357.405 6  -1413052.771 6  -3972066.91047  23370351.65247        43.000
  22972476.043 6 -10782566.877 6  -8379715.88647  22972469.41647        46.000
  20259876.228 7 -25089154.760 7 -19533131.41749  20259868.04549        51.000
  24159209.497 5   1905260.139 5    817071.40146  24159202.65946        40.000
  21001704.797 7 -15585843.031 7 -12913389.74449  21001698.66149        52.000
  22836990.966 6  -8172317.803 6  -6380734.97148  22836985.44948        46.000
 08 11 15  2 13 30.0000000  0 11G 3G 6G 7G 8G11G13G16G19G23G25G27
  20373274.743 7 -24717379.869 7 -19249283.68349  20373269.03449        52.000
  21480458.499 7 -18640368.482 7 -14512137.29948  21480452.59148        50.000
  21459246.327 7 -10950771.739 7  -9988981.93548  21459240.16148        50.000
  24662624.100 1    -72623.01011                                        33.000
  23877714.620 5  -6510901.373 5  -5065791.95346  23877708.53146        42.000
  23384804.446 5  -1337124.034 5  -3912901.68146  23384800.55546        42.000
  22985174.885 6 -10715834.671 6  -8327716.79447  22985168.41047        46.000
  20258044.013 7 -25098782.539 7 -19540633.58349  20258035.59549        52.000
  24176818.854 5   1997793.606 5    889175.34746  24176810.83946        41.000
  20998086.360 7 -15604858.814 7 -12928207.23549  20998079.97649        52.000
  22822717.307 7  -8247327.930 7  -6439184.40748  22822711.88448        48.000
 08 11 15  2 14  0.0000000  0 11G 3G 6G 7G 8G11G13G16G19G23G25G27
  20382541.410 8 -24668684.203 8 -19211339.02149  20382535.33049        53.000
  21492505.900 7 -18577058.740 7 -14462805.05548  21492500.00848        50.000
  21447728.316 7 -11011297.008 7 -10036144.49048  21447722.24948        50.000
  24641471.884 2   -183775.529 2                                        34.000
  23856140.484 6  -6624274.223 6  -5154134.33746  23856133.56446        44.000
  23399308.247 5  -1260913.308 5  -3853516.74947  23399302.28147        42.000
  22997900.859 6 -10648954.857 6  -8275602.68347  22997895.25547        44.000
  20256294.885 8 -25107975.469 8 -19547796.91149  20256286.65049        53.000
  24194432.090 4   2090350.702 4    961297.69946  24194423.60746        39.000
  20994567.626 8 -15623349.947 8 -12942615.91749  20994561.26749        53.000
  22808501.579 6  -8322033.727 6  -6497396.70348  22808496.54748        47.000
 08 11 15  2 14 30.0000000  0 11G 3G 6G 7G 8G11G13G16G19G23G25G27
  20391869.552 8 -24619665.200 8 -19173142.41549  20391863.20149        53.000
  21504591.895 7 -18513548.245 7 -14413316.37948  21504585.78148        50.000
  21436299.543 7 -11071358.690 7 -10082945.78848  21436292.84248        50.000
  24620342.278 3   -294818.000 3                                        36.000
  23834580.963 6  -6737568.320 6  -5242415.32046  23834574.77146        43.000
  23413863.691 6  -1184422.369 6  -3793913.47946  23413858.25046        43.000
  23010656.439 6 -10581926.552 6  -8223372.84247  23010649.79247        47.000
  20254628.322 8 -25116733.377 8 -19554621.25749  20254619.89549        53.000
  24212048.388 5   2182929.779 5   1033437.19946  24212042.23046        40.000
  20991149.052 7 -15641314.124 7 -12956613.97749  20991143.11149        52.000
  22794343.601 6  -8396431.452 6  -6555368.95948  22794338.00548        47.000
 08 11 15  2 15  0.0000000  0 11G 3G 6G 7G 8G11G13G16G19G23G25G27
  20401258.349 8 -24570326.099 8 -19134696.37349  20401252.11949        53.000
  21516715.155 7 -18449839.993 7 -14363673.61148  21516709.17948        52.000
  21424958.774 7 -11130955.112 7 -10129384.55849  21424951.99749        50.000
  24599232.073 3   -405749.309 3                                        37.000
  23813036.610 6  -6850782.816 6  -5330634.31246  23813029.66546        43.000
  23428471.824 5  -1107655.989 5  -3734095.55447  23428466.73747        42.000
  23023439.548 6 -10514750.647 6  -8171027.99147  23023433.41447        46.000
  20253043.878 8 -25125058.476 8 -19561108.34849  20253035.97849        55.000
  24229669.605 5   2275526.545 5   1105590.43546  24229661.38846        40.000
  20987830.966 7 -15658751.523 7 -12970201.57549  20987824.59949        52.000
  22780244.977 7  -8470520.214 7  -6613100.44948  22780240.26448        48.000
 08 11 15  2 15 30.0000000  0 11G 3G 6G 7G 8G11G13G16G19G23G25G27
  20410707.748 7 -24520667.961 7 -19096001.73249  20410701.88049        52.000
  21528875.506 7 -18385934.935 7 -14313877.47848  21528870.24948        50.000
  21413707.145 7 -11190083.532 7 -10175458.65348  21413700.24048        50.000
  24578145.037 2   -516566.251 2                                        35.000
  23791509.224 6  -6963914.419 6  -5418788.70246  23791502.02346        44.000
  23443132.174 6  -1030616.694 6  -3674064.98646  23443126.11046        43.000
  23036251.646 6 -10447426.446 6  -8118567.62347  23036244.69147        46.000
  20251542.204 8 -25132951.072 8 -19567258.43249  20251533.99549        53.000
  24247292.132 4   2368138.231 4   1177755.35646  24247285.51146        39.000
  20984613.302 8 -15675660.695 8 -12983377.55649  20984607.13949        53.000
  22766205.760 6  -8544297.118 6  -6670588.94148  22766199.77848        46.000
 08 11 15  2 16  0.0000000  0 11G 3G 6G 7G 8G11G13G16G19G23G25G27
  20420217.770 8 -24470692.650 8 -19057059.94649  20420212.07649        53.000
  21541073.582 7 -18321834.800 7 -14263929.34048  21541067.85948        50.000
  21402544.237 7 -11248741.232 7 -10221165.95448  21402538.05448        50.000
  24557079.767 2   -627266.084 2                                        34.000
  23769996.572 6  -7076960.627 6  -5506876.57646  23769988.99546        43.000
  23457842.956 6   -953307.633 6  -3613824.17647  23457838.12647        43.000
  23049090.891 6 -10379954.004 6  -8065991.72447  23049084.81647        45.000
  20250122.206 8 -25140411.968 8 -19573072.12149  20250113.59049        53.000
  24264917.811 4   2460762.008 4   1249929.66146  24264911.81746        38.000
  20981496.392 8 -15692040.519 8 -12996141.06549  20981490.34749        53.000
  22752226.368 6  -8617759.908 6  -6727832.68248  22752220.86348        47.000
 08 11 15  2 16 30.0000000  0 11G 3G 6G 7G 8G11G13G16G19G23G25G27
  20429787.858 8 -24420401.965 8 -19017872.41849  20429781.94349        53.000
  21553307.903 7 -18257540.893 7 -14213830.20848  21553302.53848        50.000
  21391472.398 7 -11306926.189 7 -10266504.87448  21391465.86448        51.000
  24536035.763 1   -737845.948 1                                        32.000
  23748500.393 5  -7189918.724 5  -5594895.75546  23748494.11546        42.000
  23472605.786 6   -875731.962 6  -3553375.62947  23472600.63147        44.000
  23061958.288 6 -10312332.941 6  -8013300.02647  23061952.43047        45.000
  20248784.712 8 -25147441.725 8 -19578549.85549  20248776.26549        53.000
  24282546.521 4   2553394.736 4   1322110.92846  24282538.08146        39.000
  20978480.226 8 -15707889.831 8 -13008491.19349  20978474.33749        53.000
  22738306.771 6  -8690905.692 6  -6784829.35748  22738302.14548        47.000
 08 11 15  2 17  0.0000000  0 11G 3G 6G 7G 8G11G13G16G19G23G25G27
  20439417.862 8 -24369798.031 8 -18978440.79249  20439411.68949        53.000
  21565579.378 7 -18193055.624 7 -14163581.95548  21565573.34948        50.000
  21380490.554 7 -11364636.724 7 -10311474.12449  21380483.77849        50.000
  24515015.264 1   -848303.612 1                                        32.000
  23727022.052 5  -7302787.044 5  -5682845.02346  23727015.98546        41.000
  23487418.152 6   -797893.829 6  -3492722.60647  23487412.08847        44.000
  23074854.484 6 -10244564.068 6  -7960493.13547  23074848.50347        47.000
  20247528.594 8 -25154042.253 8 -19583693.13249  20247520.34349        54.000
  24300174.786 4   2646032.761 4   1394296.33946  24300166.42446        39.000
  20975565.119 7 -15723208.395 7 -13020427.73549  20975558.84249        52.000
  22724448.962 6  -8763732.911 6  -6841577.84748  22724442.87448        47.000
 08 11 15  2 17 30.0000000  0 11G 3G 6G 7G 8G11G13G16G19G23G25G27
  20449106.471 7 -24318883.251 7 -18938766.95249  20449100.62649        52.000
  21577886.801 7 -18128380.889 7 -14113186.08548  21577881.19248        50.000
  21369598.688 7 -11421870.753 7 -10356072.07248  21369592.55448        49.000
  24494021.172 1   -958636.725 1                                        33.000
  23705561.816 5  -7415563.091 5  -5770722.37246  23705555.17546        41.000
  23502279.553 6   -719796.546 6  -3431867.59846  23502274.03146        43.000
  23087778.890 6 -10176647.908 6  -7907571.47447  23087771.70647        46.000
  20246354.100 8 -25160214.682 8 -19588502.81949  20246345.59049        54.000
  24317803.349 4   2738672.897 4   1466483.40246  24317796.48246        39.000
  20972751.524 8 -15737995.641 8 -13031950.27049  20972745.34449        53.000
  22710650.966 6  -8836239.862 6  -6898076.78548  22710645.24748        46.000
 08 11 15  2 18  0.0000000  0 11G 3G 6G 7G 8G11G13G16G19G23G25G27
  20458853.831 8 -24267659.087 8 -18898852.03549  20458848.13949        53.000
  21590229.453 7 -18063518.237 7 -14062643.76248  21590223.79948        49.000
  21358799.100 7 -11478625.894 7 -10400296.85548  21358792.94648        49.000
  24473050.453 2  -1068842.606 2                                        34.000
  23684119.264 5  -7528244.342 5  -5858525.82946  23684112.08246        42.000
  23517189.675 6   -641443.094 6  -3370813.04446  23517184.22346        43.000
  23100730.749 6 -10108583.596 6  -7854534.38147  23100724.64447        45.000
  20245260.651 8 -25165959.533 8 -19592979.33049  20245252.49549        54.000
  24335432.746 5   2831312.472 5   1538670.02246  24335424.53346        40.000
  20970039.011 7 -15752250.309 7 -13043057.81449  20970032.50549        52.000
  22696914.640 6  -8908423.715 6  -6954323.92048  22696909.59648        47.000
 08 11 15  2 18 30.0000000  0 11G 3G 6G 7G 8G11G13G16G19G23G25G27
  20468660.027 7 -24216127.193 7 -18858697.31049  20468654.13149        52.000
  21602608.329 7 -17998468.878 7 -14011955.96548  21602602.72848        49.000
  21348090.394 7 -11534899.631 7 -10444146.52449  21348084.28949        49.000
  24452103.357 1  -1178918.327 1                                        33.000
  23662694.651 5  -7640827.999 5  -5946253.30246  23662687.91546        41.000
  23532147.745 6   -562836.622 6  -3309561.24746  23532141.84346        43.000
  23113710.900 6 -10040371.432 6  -7801382.05847  23113704.77947        47.000
  20244248.700 8 -25171277.532 8 -19597123.23049  20244240.24149        54.000
  24353060.224 4   2923948.125 4   1610853.58246  24353052.73046        39.000
  20967427.851 7 -15765971.319 7 -13053749.51849  20967421.17049        51.000
  22683240.724 6  -8980282.034 6  -7010317.40948  22683234.49548        46.000
 08 11 15  2 19  0.0000000  0 11G 3G 6G 7G 8G11G13G16G19G23G25G27
  20478524.728 8 -24164288.633 8 -18818303.62649  20478519.05649        53.000
  21615021.837 7 -17933234.127 7 -13961123.69948  21615016.88048        49.000
  21337474.140 7 -11590689.072 7 -10487618.80949  21337467.40749        50.000
  24431181.811 1  -1288860.571 1                                        33.000
  23641291.371 6  -7753311.213 6  -6033902.49446  23641284.29946        43.000
  23547153.809 6   -483980.201 6  -3248114.72746  23547147.98046        43.000
  23126719.974 6  -9972010.574 6  -7748113.88947  23126713.67247        45.000
  20243317.795 8 -25176169.572 8 -19600935.20649  20243309.37749        54.000
  24370687.265 5   3016577.269 5   1683032.09846  24370679.14846        40.000
  20964918.515 7 -15779157.499 7 -13064024.46949  20964912.67349        51.000
  22669629.027 6  -9051811.959 6  -7066055.00248  22669623.15548        46.000
 08 11 15  2 19 30.0000000  0 11G 3G 6G 7G 8G11G13G16G19G23G25G27
  20488447.079 7 -24112145.945 7 -18777672.97749  20488440.98049        52.000
  21627470.417 7 -17867815.806 7 -13910148.39948  21627465.27448        48.000
  21326950.205 7 -11645992.504 7 -10530712.40149  21326943.35149        50.000
  24410285.777 1  -1398666.903 1                                        32.000
  23619905.826 6  -7865691.653 6  -6121471.60747  23619899.46647        43.000
  23562206.641 5   -404877.237 5  -3186476.09146  23562200.44446        41.000
  23139756.922 6  -9903501.516 6  -7694730.24747  23139750.54247        45.000
  20242467.882 8 -25180636.738 8 -19604416.11849  20242459.75149        54.000
  24388311.650 4   3109196.806 4   1755203.11246  24388305.10446        39.000
  20962511.163 7 -15791808.242 7 -13073882.20549  20962504.72349        51.000
  22656079.499 6  -9123011.521 6  -7121535.18448  22656073.74848        45.000
 08 11 15  2 20  0.0000000  0 11G 3G 6G 7G 8G11G13G16G19G23G25G27
  20498427.168 8 -24059702.082 8 -18736807.63249  20498420.91349        53.000
  21639953.656 7 -17802216.705 7 -13859032.22848  21639948.05648        50.000
  21316518.985 7 -11700808.811 7 -10573426.40849  21316512.94749        50.000
  24389415.839 1                                                        29.000
  23598540.063 6  -7977967.909 6  -6208959.57047  23598533.81047        43.000
  23577305.585 5   -325532.225 5  -3124648.84846  23577299.52546        42.000
  23152821.594 6  -9834845.413 6  -7641231.98847  23152815.86247        45.000
  20241698.246 8 -25184681.164 8 -19607567.62149  20241690.03249        54.000
  24405934.216 5   3201802.419 5   1827363.23646  24405927.76646        40.000
  20960205.625 7 -15803923.895 7 -13083322.98249  20960198.94949        52.000
  22642594.269 6  -9193879.698 6  -7176757.13448  22642588.34048        47.000
 08 11 15  2 20 30.0000000  0 11G 3G 6G 7G 8G11G13G16G19G23G25G27
  20508464.114 8 -24006956.901 8 -18695707.50449  20508457.77449        53.000
  21652471.105 7 -17736436.997 7 -13807775.31848  21652465.30248        50.000
  21306181.544 7 -11755134.046 7 -10615757.76649  21306175.12949        50.000
  24368572.733 1                                                        27.000
  23577195.148 6  -8090136.088 6  -6296363.31647  23577188.70547        43.000
  23592449.258 5   -245946.685 5  -3062634.17046  23592444.39746        41.000
  23165915.039 6  -9766040.649 6  -7587617.93847  23165909.10347        46.000
  20241009.089 8 -25188302.223 8 -19610389.22949  20241000.97149        53.000
  24423553.006 5   3294392.919 5   1899511.60846  24423546.50046        42.000
  20958002.414 7 -15815501.981 7 -13092344.86649  20957996.22649        51.000
  22629172.019 6  -9264412.634 6  -7231717.85048  22629166.28048        46.000
 08 11 15  2 21  0.0000000  0 11G 3G 6G 7G 8G11G13G16G19G23G25G27
  20518558.565 8 -23953910.634 8 -18654372.76549  20518552.17149        53.000
  21665022.697 7 -17670476.364 7 -13756377.43148  21665017.56248        49.000
  21295937.508 7 -11808964.532 7 -10657703.58349  21295931.55449        50.000
  24347759.332 1  -1727242.958 1                                        30.000
  23555871.800 5  -8202192.067 5  -6383679.60446  23555865.28746        42.000
  23607640.732 5   -166122.546 5  -3000433.58946  23607633.81146        41.000
  23179036.575 6  -9697085.337 6  -7533886.53147  23179029.80847        44.000
  20240401.128 8 -25191499.025 8 -19612880.24349  20240392.82149        54.000
  24441170.678 5   3386966.606 5   1971646.88046  24441162.49046        42.000
  20955902.029 7 -15826540.165 7 -13100946.05149  20955895.23649        52.000
  22615815.165 6  -9334606.209 6  -7286414.13948  22615809.11248        47.000
 08 11 15  2 21 30.0000000  0 11G 3G 6G 7G 8G11G13G16G19G23G25G27
  20528708.801 7 -23900569.794 7 -18612808.48049  20528702.67849        52.000
  21677608.020 7 -17604341.347 7 -13704843.67048  21677602.34148        48.000
  21285787.887 7 -11862303.006 7 -10699266.04849  21285780.96749        49.000
  24326972.684 1  -1836479.316 1                                        33.000
  23534568.572 5  -8314137.953 5  -6470910.10946  23534562.66546        41.000
  23622874.040 5    -86067.895 5  -2938053.39046  23622867.85946        40.000
  23192186.211 6  -9627984.268 6  -7480041.58947  23192179.71647        44.000
  20239872.034 8 -25194277.813 8 -19615045.53249  20239863.61949        54.000
  24458781.921 5   3479515.610 5   2043762.97846  24458774.89946        41.000
  20953903.316 7 -15837042.551 7 -13109129.73149  20953896.68649        51.000
  22602521.654 6  -9404463.104 6  -7340848.07348  22602516.51148        46.000
 08 11 15  2 22  0.0000000  0 11G 3G 6G 7G 8G11G13G16G19G23G25G27
  20538915.484 8 -23846934.521 8 -18571014.77549  20538909.43049        53.000
  21690226.133 7 -17538031.366 7 -13653173.55448  21690220.09348        48.000
  21275731.991 7 -11915144.782 7 -10740441.45949  21275725.84449        49.000
  24306215.769 1  -1945566.510 1                                        33.000
  23513287.595 5  -8425969.031 5  -6558051.15346  23513281.22146        41.000
  23638150.649 4     -5783.580 4  -2875494.22646  23638145.78946        38.000
  23205363.058 6  -9558735.569 6  -7426081.56447  23205357.84347        44.000
  20239422.953 8 -25196637.230 8 -19616884.04249  20239414.77749        54.000
  24476389.182 6   3572039.684 6   2115859.52546  24476380.75746        43.000
  20952007.281 7 -15847006.057 7 -13116893.51149  20952000.90049        51.000
  22589293.059 6  -9473978.707 6  -7395016.07448  22589287.49548        46.000
 08 11 15  2 22 30.0000000  0 11G 3G 6G 7G 8G11G13G16G19G23G25G27
  20549177.632 7 -23793005.411 7 -18528992.10249  20549171.77449        52.000
  21702878.257 7 -17471546.994 7 -13601367.56348  21702872.70148        49.000
  21265772.070 7 -11967486.834 7 -10781227.46349  21265765.16749        49.000
  24285486.243 1  -2054501.164 1                                        33.000
  23492028.966 5  -8537681.939 5  -6645100.17146  23492022.36246        40.000
  23653472.351 5     74727.821 5  -2812758.12146  23653467.11946        40.000
  23218568.851 6  -9489338.146 6  -7372005.68547  23218563.31747        44.000
  20239053.948 8 -25198577.340 8 -19618395.81949  20239045.36449        53.000
  24493990.197 5   3664536.206 5   2187934.68146  24493982.26946        42.000
  20950214.218 7 -15856429.215 7 -13124236.23349  20950208.05949        52.000
  22576130.720 6  -9543149.989 6  -7448915.77248  22576124.31848        47.000
 08 11 15  2 23  0.0000000  0 11G 3G 6G 7G 8G11G13G16G19G23G25G27
  20559495.725 8 -23738784.972 8 -18486742.41449  20559489.60749        53.000
  21715562.375 7 -17404890.648 7 -13549427.58048  21715556.66748        48.000
  21255906.866 7 -12019327.993 7 -10821623.17149  21255900.26049        49.000
  24264785.226 1  -2163281.025 1                                        30.000
  23470794.077 5  -8649275.160 5  -6732055.90946  23470787.16546        41.000
  23668835.331 5    155462.426 5  -2749848.09546  23668828.95846        40.000
  23231803.248 6  -9419792.969 6  -7317814.68447  23231796.98447        43.000
  20238764.051 8 -25200100.127 8 -19619582.40849  20238756.13049        54.000
  24511585.317 5   3757001.405 5   2259985.41746  24511578.37646        41.000
  20948523.878 7 -15865312.055 7 -13131157.92949  20948517.62349        52.000
  22563033.196 6  -9611975.222 6  -7502545.83648  22563027.66048        47.000
 08 11 15  2 23 30.0000000  0 11G 3G 6G 7G 8G11G13G16G19G23G25G27
  20569868.387 8 -23684274.841 8 -18444266.99649  20569862.58249        53.000
  21728279.491 7 -17338063.939 7 -13497354.83748  21728273.29648        49.000
  21246137.164 7 -12070666.139 7 -10861626.92648  21246130.76948        49.000
  24244115.266 1                                                        28.000
  23449581.599 5  -8760745.889 5  -6818916.17146  23449575.11746        41.000
  23684241.311 5    236416.778 5  -2686766.81846  23684235.08746        41.000
  23245066.447 6  -9350100.112 6  -7263508.61047  23245059.60247        46.000
  20238553.494 8 -25201206.778 8 -19620444.73449  20238545.61249        53.000
  24529174.550 5   3849432.327 5   2332009.49046  24529167.25946        40.000
  20946936.428 7 -15873653.870 7 -13137658.05349  20946930.26149        51.000
  22550002.071 6  -9680452.225 6  -7555904.52948  22549996.61448        45.000
 08 11 15  2 24  0.0000000  0 11G 3G 6G 7G 8G11G13G16G19G23G25G27
  20580296.182 7 -23629476.085 7 -18401566.68549  20580290.47649        52.000
  21741028.495 7 -17271067.597 7 -13445149.89948  21741022.01848        50.000
  21236464.346 7 -12121498.268 7 -10901236.37149  21236457.99649        51.000
  24223474.762 1                                                        28.000
  23428393.789 5  -8872090.640 5  -6905678.29146  23428387.08146        41.000
  23699687.552 5    317588.502 5  -2623516.14346  23699681.91246        40.000
  23258356.913 6  -9280258.384 6  -7209086.50047  23258350.17547        44.000
  20238422.230 8 -25201897.268 8 -19620982.78649  20238414.00249        53.000
  24546756.812 5   3941827.047 5   2404005.27246  24546748.95846        40.000
  20945452.515 7 -15881453.246 7 -13143735.50149  20945445.91749        51.000
  22537038.404 6  -9748577.845 6  -7608989.41548  22537033.04748        46.000
 08 11 15  2 24 30.0000000  0 11G 3G 6G 7G 8G11G13G16G19G23G25G27
  20590778.359 7 -23574392.625 7 -18358644.51749  20590772.66249        51.000
  21753808.903 7 -17203904.922 7 -13392815.37248  21753802.96548        50.000
  21226887.906 7 -12171823.876 7 -10940451.12149  21226882.02749        50.000
  24202869.211 1  -2488662.639 1                                        31.000
  23407229.933 5  -8983308.925 5  -6992341.86847  23407223.54447        42.000
  23715175.114 5    398972.381 5  -2560100.21047  23715168.52547        42.000
  23271675.271 6  -9210269.682 6  -7154549.90147  23271668.42747        44.000
  20238368.804 7 -25202174.807 7 -19621199.05249  20238360.97849        52.000
  24564332.207 5   4034180.634 5   2475969.05646  24564324.27446        41.000
  20944071.083 7 -15888711.308 7 -13149391.13549  20944065.15049        50.000
  22524141.670 6  -9816351.644 6  -7661800.16948  22524136.44948        45.000
 08 11 15  2 25  0.0000000  0 11G 3G 6G 7G 8G11G13G16G19G23G25G27
  20601314.411 7 -23519024.943 7 -18315500.88349  20601308.42849        51.000
  21766620.849 7 -17136576.314 7 -13340351.54248  21766615.32848        50.000
  21217408.034 7 -12221639.747 7 -10979268.68849  21217401.84949        50.000
  24182288.993 1  -2596795.325 1                                        29.000
  23386090.282 6  -9094397.054 6  -7078904.03147  23386083.16047        43.000
  23730701.021 5    480566.286 5  -2496520.58146  23730695.76646        41.000
  23285021.002 6  -9140132.845 6  -7099897.84047  23285014.47347        43.000
  20238395.256 7 -25202038.798 7 -19621093.06949  20238387.41849        52.000
  24581897.119 3   4126491.365 3   2547899.43545  24581888.97845        37.000
  20942793.455 7 -15895426.217 7 -13154623.54349  20942787.33349        50.000
  22511311.844 6  -9883770.255 6  -7714334.13748  22511306.55348        46.000
 08 11 15  2 25 30.0000000  0 11G 3G 6G 7G 8G11G13G16G19G23G25G27
  20611904.461 7 -23463372.785 7 -18272135.57749  20611898.67249        51.000
  21779464.751 7 -17069081.130 7 -13287757.91848  21779458.93448        49.000
  21208026.299 7 -12270941.771 7 -11017685.83649  21208019.59149        51.000
  24161744.518 1                                                        25.000
  23364976.991 6  -9205350.332 6  -7165361.08247  23364969.35747        43.000
  23746268.133 5    562369.007 5  -2432778.25246  23746262.99346        42.000
  23298396.718 5  -9069845.797 5  -7045128.74947  23298390.75147        42.000
  20238499.693 8 -25201488.324 8 -19620664.13649  20238492.25349        54.000
  24599454.328 3   4218758.609 3   2619795.85045  24599447.89045        36.000
  20941619.585 7 -15901595.336 7 -13159430.65849  20941612.90649        50.000
  22498551.589 6  -9950829.183 6  -7766587.84848  22498545.76048        46.000
 08 11 15  2 26  0.0000000  0 10G 3G 6G 7G11G13G16G19G23G25G27
  20622548.050 7 -23407440.738 7 -18228552.17849  20622542.35149        50.000
  21792339.530 7 -17001424.155 7 -13235038.21048  21792334.29548        49.000
  21198742.036 7 -12319731.148 7 -11055703.54749  21198735.20949        51.000
  23343888.667 6  -9316169.368 6  -7251713.55947  23343881.32147        43.000
  23761873.145 5    644374.089 5  -2368878.21346  23761867.59646        42.000
  23311799.580 6  -8999411.638 6  -6990245.01947  23311793.68847        43.000
  20238682.876 8 -25200527.788 8 -19619915.66749  20238674.63349        54.000
  24617003.505 3   4310975.877 3   2691653.39246  24616996.54246        37.000
  20940548.911 7 -15907221.174 7 -13163814.44049  20940542.82449        51.000
  22485858.681 6 -10017529.356 6  -7818562.00348  22485853.27148        46.000
 08 11 15  2 26 30.0000000  0 10G 3G 6G 7G11G13G16G19G23G25G27
  20633244.917 7 -23351229.638 7 -18184751.33949  20633238.75749        51.000
  21805244.561 7 -16933606.091 7 -13182192.99948  21805238.95648        49.000
  21189555.445 7 -12368005.063 7 -11093319.57949  21189549.22849        51.000
  23322826.843 6  -9426851.025 6  -7337958.96147  23322819.70447        43.000
  23777515.653 5    726578.960 5  -2304822.53946  23777510.81146        42.000
  23325231.204 6  -8928829.703 6  -6935246.15047  23325224.31147        44.000
  20238943.404 8 -25199157.769 8 -19618848.12349  20238935.08749        53.000
  24634542.573 4   4403141.083 4   2763470.40946  24634536.02846        39.000
  20939582.009 7 -15912302.506 7 -13167773.92349  20939575.63249        50.000
  22473235.428 6 -10083867.824 6  -7870254.31648  22473229.40048        46.000
 08 11 15  2 27  0.0000000  0 10G 3G 6G 7G11G13G16G19G23G25G27
  20643994.245 7 -23294741.921 7 -18140734.95249  20643988.36549        50.000
  21818180.461 7 -16865628.896 7 -13129223.77548  21818174.91348        48.000
  21180467.989 7 -12415761.773 7 -11130532.59949  21180460.82049        49.000
  23301791.153 5  -9537393.244 5  -7424095.71447  23301784.04247        42.000
  23793196.935 6    808980.057 6  -2240613.96446  23793191.04546        43.000
  23338690.335 5  -8858100.518 5  -6880132.53647  23338684.37847        42.000
  20239281.731 7 -25197379.662 7 -19617462.58249  20239273.48049        51.000
  24652071.172 5   4495250.949 5   2835244.24346  24652063.70946        40.000
  20938718.775 7 -15916839.165 7 -13171308.98349  20938712.28049        50.000
  22460679.879 6 -10149842.997 6  -7921663.54148  22460674.60448        46.000
 08 11 15  2 27 30.0000000  0 10G 3G 6G 7G11G13G16G19G23G25G27
  20654795.974 7 -23237978.270 7 -18096503.55149  20654789.92149        51.000
  21831146.449 7 -16797493.139 7 -13076131.00448  21831140.57348        50.000
  21171479.275 7 -12462998.416 7 -11167340.36849  21171472.08849        51.000
  23280782.131 5  -9647792.267 5  -7510120.89347  23280775.99647        42.000
  23808914.078 6    891575.066 6  -2176254.24747  23808908.51547        43.000
  23352177.961 6  -8787222.754 6  -6824903.13347  23352171.77047        43.000
  20239697.702 8 -25195193.505 8 -19615759.08749  20239689.95349        54.000
  24669586.766 4   4587304.093 4   2906973.82546  24669579.69746        39.000
  20937959.124 7 -15920829.639 7 -13174418.45749  20937953.58149        50.000
  22448195.587 6 -10215451.349 6  -7972786.91748  22448190.01848        46.000
 08 11 15  2 28  0.0000000  0 10G 3G 6G 7G11G13G16G19G23G25G27
  20665649.677 7 -23180941.616 7 -18052059.42049  20665643.44949        50.000
  21844142.090 7 -16729201.091 7 -13022916.45248  21844136.42748        48.000
  21162589.281 7 -12509713.592 7 -11203741.80449  21162582.56249        50.000
  23259801.235 5  -9758046.319 5  -7596033.10246  23259795.10846        42.000
  23824667.075 6    974359.723 6  -2111746.77946  23824661.42946        43.000
  23365693.436 6  -8716197.529 6  -6769558.83447  23365687.90847        43.000
  20240191.042 8 -25192601.110 8 -19613739.03349  20240183.02449        53.000
  24687093.412 5   4679295.893 5   2978655.68646  24687086.78046        40.000
  20937303.900 7 -15924274.338 7 -13177102.64549  20937297.93049        50.000
  22435780.552 6 -10280691.276 6  -8023623.19548  22435775.60348        46.000
 08 11 15  2 28 30.0000000  0 10G 3G 6G 7G11G13G16G19G23G25G27
  20676554.839 7 -23123633.198 7 -18007403.52749  20676548.99949        51.000
  21857167.015 7 -16660753.786 7 -12969580.90848  21857161.36148        49.000
  21153799.773 7 -12555904.866 7 -11239734.99549  21153793.26149        51.000
  23238849.215 6  -9868152.758 6  -7681830.29747  23238842.26647        43.000
  23840455.952 5   1057331.308 5  -2047093.64546  23840451.19446        42.000
  23379237.630 6  -8645024.673 6  -6714099.49747  23379230.88947        45.000
  20240761.498 8 -25189603.542 8 -19611403.26549  20240753.55949        54.000
  24704586.078 4   4771224.342 4   3050288.09846  24704577.75446        38.000
  20936752.150 7 -15927172.265 7 -13179360.77949  20936746.10249        51.000
  22423436.691 6 -10345560.370 6  -8074170.54248  22423431.00648        47.000
 08 11 15  2 29  0.0000000  0 10G 3G 6G 7G11G13G16G19G23G25G27
  20687511.707 7 -23066054.411 7 -17962536.95449  20687506.17149        51.000
  21870221.322 7 -16592152.568 7 -12916125.42448  21870215.89848        49.000
  21145109.616 7 -12601570.325 7 -11275318.47049  21145103.57849        51.000
  23217925.230 5  -9978108.591 5  -7767510.14947  23217919.41647        42.000
  23856280.630 6   1140486.537 6  -1982297.47046  23856274.84546        43.000
  23392809.622 6  -8573703.683 6  -6658524.71147  23392803.77547        44.000
  20241409.044 7 -25186201.557 7 -19608752.36949  20241400.97749        52.000
  24722067.853 4   4863086.351 4   3121868.84946  24722059.42146        39.000
  20936305.074 7 -15929522.832 7 -13181192.39649  20936299.12149        50.000
  22411164.104 6 -10410056.332 6  -8124427.13848  22411157.73748        47.000
 08 11 15  2 29 30.0000000  0 10G 3G 6G 7G11G13G16G19G23G25G27
  20698519.789 7 -23008207.136 7 -17917461.18349  20698514.07049        50.000
  21883304.905 7 -16523399.094 7 -12862551.32048  21883299.02648        49.000
  21136520.467 7 -12646708.120 7 -11310490.78349  21136513.57349        52.000
  23197030.049 5 -10087911.562 5  -7853070.89247  23197023.79447        42.000
  23872138.506 5   1223822.014 5  -1917360.76446  23872133.36446        42.000
  23406409.154 6  -8502234.740 6  -6602834.69047  23406403.84747        44.000
  20242132.948 8 -25182396.701 8 -19605787.54449  20242124.79549        53.000
  24739535.475 5   4954879.228 5   3193395.63646  24739528.61446        40.000
  20935962.362 7 -15931325.906 7 -13182597.40449  20935956.03949        50.000
  22398961.822 6 -10474177.250 6  -8174391.49848  22398955.84548        46.000
 08 11 15  2 30  0.0000000  0 10G 3G 6G 7G11G13G16G19G23G25G27
  20709578.704 7 -22950093.400 7 -17872177.76249  20709572.98249        50.000
  21896417.017 7 -16454495.032 7 -12808859.85748  21896411.29448        49.000
  21128031.373 7 -12691316.501 7 -11345250.55549  21128025.06049        51.000
  23176164.889 6 -10197559.043 6  -7938510.45247  23176159.01647        43.000
  23888031.224 6   1307334.184 6  -1852286.35646  23888025.32946        43.000
  23420037.635 6  -8430617.943 6  -6547029.43047  23420031.88647        44.000
  20242933.492 8 -25178189.985 8 -19602509.58249  20242925.52049        54.000
  24756988.458 4   5046600.212 4   3264866.39546  24756982.20946        38.000
  20935722.804 7 -15932581.110 7 -13183575.48249  20935717.19449        50.000
  22386831.819 6 -10537920.820 6  -8224061.80048  22386826.16348        47.000
 08 11 15  2 30 30.0000000  0 11G 3G 6G 7G 8G11G13G16G19G23G25G27
  20720687.479 7 -22891714.631 7 -17826687.83449  20720681.79549        50.000
  21909556.974 7 -16385441.886 7 -12755052.23348  21909551.49848        48.000
  21119644.358 7 -12735393.255 7 -11379596.08049  21119637.26349        51.000
  23958186.069 2   -215197.687 2                                        34.000
  23155329.718 6 -10307049.300 6  -8023827.49047  23155323.54947        43.000
  23903955.761 6   1391019.823 6  -1787076.82846  23903949.98846        43.000
  23433693.613 6  -8358853.344 6  -6491109.00947  23433687.88047        44.000
  20243810.422 8 -25173582.949 8 -19598919.69249  20243802.27349        53.000
  24774428.613 3   5138246.083 3   3336278.63146  24774421.76046        37.000
  20935588.295 7 -15933288.065 7 -13184126.37449  20935582.30349        50.000
  22374773.921 6 -10601284.853 6  -8273436.35048  22374768.49748        47.000
 08 11 15  2 31  0.0000000  0 11G 3G 6G 7G 8G11G13G16G19G23G25G27
  20731846.817 7 -22833072.971 7 -17780993.04249  20731841.30049        50.000
  21922725.523 7 -16316241.080 7 -12701129.54248  21922719.85248        49.000
  21111358.036 7 -12778936.859 7 -11413526.16449  21111351.09049        51.000
  23938030.299 1   -321115.225 1                                        33.000
  23134524.357 5 -10416379.401 5  -8109019.76647  23134517.74247        42.000
  23919912.122 6   1474875.764 6  -1721734.59346  23919906.99246        43.000
  23447378.934 6  -8286941.299 6  -6435073.67847  23447372.35447        46.000
  20244762.923 8 -25168576.552 8 -19595018.59949  20244754.68149        53.000
  24791853.093 3   5229813.766 3   3407629.94945  24791846.21845        37.000
  20935558.327 7 -15933446.719 7 -13184249.99949  20935551.74849        50.000
  22362789.073 6 -10664267.053 6  -8322513.37748  22362783.19948        47.000
 08 11 15  2 31 30.0000000  0 11G 3G 6G 7G 8G11G13G16G19G23G25G27
  20743055.714 7 -22774169.609 7 -17735094.33649  20743050.39349        51.000
  21935921.990 7 -16246893.584 7 -12647092.55448  21935916.28448        49.000
  21103173.924 7 -12821944.789 7 -11447038.83749  21103167.80749        52.000
  23917912.586 1   -426829.285 1                                        30.000
  23113750.958 6 -10525546.206 6  -8194084.80147  23113744.51747        43.000
  23935902.542 5   1558899.020 5  -1656261.99046  23935895.69746        42.000
  23461090.604 6  -8214881.134 6  -6378922.93647  23461085.04847        43.000
  20245791.569 8 -25163171.626 8 -19590806.97349  20245783.06749        54.000
  24809263.294 4   5321301.244 4   3478918.76046  24809256.15446        38.000
  20935632.731 7 -15933055.856 7 -13183945.44049  20935626.91749        50.000
  22350877.271 6 -10726864.678 6  -8371290.74948  22350871.04448        47.000
 08 11 15  2 32  0.0000000  0 10G 3G 6G 7G11G13G16G19G23G25G27
  20754313.561 7 -22715009.258 7 -17688995.36949  20754307.75849        50.000
  21949145.808 7 -16177403.412 7 -12592944.37948  21949139.86048        49.000
  21095091.593 7 -12864417.991 7 -11480134.82849  21095085.06749        52.000
  23093008.701 6 -10634549.524 6  -8279022.42147  23093001.87247        44.000
  23951920.696 6   1643083.579 6  -1590663.71446  23951916.34646        43.000
  23474831.509 6  -8142675.737 6  -6322659.02147  23474825.24547        45.000
  20246895.150 8 -25157371.899 8 -19586287.70049  20246887.33349        54.000
  24826656.970 3   5412703.003 3   3550140.87045  24826649.26645        36.000
  20935811.413 7 -15932117.998 7 -13183214.64249  20935805.10849        50.000
  22339037.664 6 -10789078.495 6  -8419769.05148  22339031.87348        46.000
 08 11 15  2 32 30.0000000  0 10G 3G 6G 7G11G13G16G19G23G25G27
  20765620.689 7 -22655589.775 7 -17642694.48449  20765615.09249        50.000
  21962396.862 7 -16107768.587 7 -12538683.48748  21962390.97348        48.000
  21087112.044 7 -12906350.820 7 -11512809.76849  21087105.72949        52.000
  23072298.458 6 -10743383.880 6  -8363828.39447  23072291.67347        43.000
  23967972.267 6   1727429.777 6  -1524939.41346  23967966.77346        43.000
  23488599.666 6  -8070321.434 6  -6266279.08347  23488593.36747        44.000
  20248074.322 8 -25151175.246 8 -19581459.15149  20248066.16549        53.000
  24844034.797 4   5504019.761 4   3621296.60946  24844026.62346        39.000
  20936094.264 7 -15930629.329 7 -13182054.65149  20936088.23649        51.000
  22327273.187 6 -10850902.808 6  -8467943.85248  22327267.64148        47.000
 08 11 15  2 33  0.0000000  0 10G 3G 6G 7G11G13G16G19G23G25G27
  20776977.005 7 -22595913.829 7 -17596193.76148  20776970.61848        50.000
  21975674.328 7 -16037991.862 7 -12484312.02348  21975669.52848        48.000
  21079234.933 7 -12947742.632 7 -11545063.11449  21079228.78349        50.000
  23051620.886 6 -10852047.886 6  -8448501.62247  23051613.17747        44.000
  23984052.494 5   1811933.057 5  -1459092.76046  23984047.09346        42.000
  23502396.821 6  -7997819.643 6  -6209784.22547  23502390.75047        45.000
  20249328.691 7 -25144584.045 7 -19576323.14949  20249320.46549        52.000
  24861393.155 3   5595247.361 3   3692382.96245  24861387.20145        36.000
  20936482.360 7 -15928590.697 7 -13180466.11749  20936476.04649        50.000
  22315583.103 6 -10912336.703 6  -8515814.41048  22315577.14748        47.000
 08 11 15  2 33 30.0000000  0 10G 3G 6G 7G11G13G16G19G23G25G27
  20788381.080 7 -22535983.451 7 -17549494.78449  20788374.93849        51.000
  21988979.616 6 -15968074.271 6 -12429830.81348  21988974.45848        47.000
  21071462.229 7 -12988591.634 7 -11576893.51449  21071455.29349        52.000
  23030974.554 6 -10960538.748 6  -8533039.94647  23030967.97647        44.000
  24000162.501 6   1896590.263 6  -1393126.15846  24000157.52946        44.000
  23516221.696 6  -7925170.067 6  -6153174.21747  23516215.26747        44.000
  20250657.929 8 -25137599.305 8 -19570880.50249  20250649.29449        53.000
  24878736.605 3   5686383.009 3   3763397.58445  24878729.32445        36.000
  20936975.167 8 -15926001.798 8 -13178448.80449  20936969.22949        53.000
  22303966.821 6 -10973377.996 6  -8563379.03948  22303960.90048        47.000
 08 11 15  2 34  0.0000000  0 10G 3G 6G 7G11G13G16G19G23G25G27
  20799833.744 7 -22475800.432 7 -17502598.92949  20799827.53449        50.000
  22002311.114 7 -15898017.940 7 -12375241.47448  22002305.76148        48.000
  21063792.123 7 -13028896.560 7 -11608299.95149  21063785.41649        51.000
  23010363.295 6 -11068854.299 6  -8617441.65447  23010355.97347        43.000
  24016300.977 5   1981397.975 5  -1327042.28446  24016294.96746        42.000
  23530073.711 6  -7852373.159 6  -6096449.38747  23530068.26247        44.000
  20252061.096 8 -25130222.515 8 -19565132.35749  20252053.36849        53.000
  24896059.243 1   5777423.879 1   3834338.43145  24896053.78845        33.000
  20937572.550 7 -15922862.790 7 -13176002.82649  20937566.35049        51.000
  22292426.284 6 -11034024.670 6  -8610636.19848  22292420.64748        47.000
 08 11 15  2 34 30.0000000  0 10G 3G 6G 7G11G13G16G19G23G25G27
  20811333.739 7 -22415366.397 7 -17455507.48949  20811328.38749        51.000
  22015668.546 6 -15827824.201 6 -12320545.09048  22015662.85748        47.000
  21056226.315 7 -13068655.832 7 -11639281.19349  21056219.49049        51.000
  22989784.102 6 -11176992.122 6  -8701704.85947  22989777.98847        43.000
  24032467.106 5   2066352.582 5  -1260843.93246  24032461.85846        41.000
  23543955.027 5  -7779429.069 5  -6039609.89247  23543949.55347        42.000
  20253539.240 8 -25122455.288 8 -19559079.97849  20253531.29549        53.000
  24913367.151 3   5868366.848 3   3905202.98745  24913359.44545        37.000
  20938274.483 8 -15919173.572 8 -13173128.12449  20938268.39949        53.000
  22280960.580 6 -11094274.628 6  -8657584.19448  22280955.70548        47.000
 08 11 15  2 35  0.0000000  0 10G 3G 6G 7G11G13G16G19G23G25G27
  20822881.123 7 -22354684.183 7 -17408222.66048  20822875.98648        50.000
  22029051.310 7 -15757495.289 7 -12265743.35548  22029045.81548        48.000
  21048764.630 7 -13107867.569 7 -11669835.79549  21048757.75649        52.000
  22969241.081 6 -11284950.567 6  -8785828.29447  22969235.02747        45.000
  24048660.385 5   2151450.083 5  -1194534.23246  24048655.83246        42.000
  23557864.358 6  -7706338.308 6  -5982656.09147  23557857.67547        45.000
  20255091.302 7 -25114299.416 7 -19552724.75749  20255083.06249        52.000
  24930654.673 3   5959208.531 3   3975988.57845  24930646.39645        36.000
  20939080.987 7 -15914934.771 7 -13169825.16549  20939075.24349        51.000
  22269571.867 6 -11154126.300 6  -8704221.87348  22269565.87048        47.000
 08 11 15  2 35 30.0000000  0 10G 3G 6G 7G11G13G16G19G23G25G27
  20834475.983 7 -22293754.262 7 -17360744.80849  20834470.27349        51.000
  22042460.193 6 -15687031.148 6 -12210836.25648  22042454.30948        47.000
  21041407.676 7 -13146529.337 7 -11699961.85449  21041400.82149        52.000
  22948732.026 6 -11392725.588 6  -8869808.80347  22948726.12447        45.000
  24064880.897 5   2236688.503 5  -1128114.74146  24064875.63946        41.000
  23571800.485 6  -7633100.301 6  -5925587.57247  23571793.96847        43.000
  20256717.415 8 -25105755.074 8 -19546066.83349  20256708.95449        53.000
  24947920.996 2   6049947.504 2   4046694.00245  24947913.05445        35.000
  20939992.609 7 -15910144.828 7 -13166092.75749  20939986.42149        52.000
  22258258.346 6 -11213576.513 6  -8750546.71948  22258253.28048        47.000
 08 11 15  2 36  0.0000000  0 10G 3G 6G 7G11G13G16G19G23G25G27
  20846117.379 7 -22232578.693 7 -17313075.54048  20846111.63548        50.000
  22055894.673 6 -15616433.880 6 -12155825.40548  22055889.07448        47.000
  21034155.043 7 -13184640.072 7 -11729658.51749  21034148.46649        51.000
  22928258.571 5 -11500315.314 5  -8953644.93547  22928251.94847        42.000
  24081127.466 5   2322063.884 5  -1061588.52546  24081121.96646        41.000
  23585765.436 6  -7559715.353 6  -5868404.52447  23585758.99147        44.000
  20258417.208 7 -25096823.976 7 -19539107.53849  20258408.63249        52.000
  24965167.790 3   6140580.177 3   4117316.84145  24965159.04945        37.000
  20941008.899 7 -15904804.188 7 -13161931.22149  20941002.64849        51.000
  22247021.900 6 -11272623.942 6  -8796557.69248  22247016.34648        47.000
 08 11 15  2 36 30.0000000  0 10G 3G 6G 7G11G13G16G19G23G25G27
  20857804.956 7 -22171159.203 7 -17265216.21249  20857799.14549        51.000
  22069353.972 6 -15545704.734 6 -12100711.81848  22069348.76148        46.000
  21027008.346 7 -13222197.951 7 -11758924.40749  21027001.52249        52.000
  22907820.857 6 -11607717.336 6  -9037334.82247  22907814.19947        45.000
  24097398.851 5   2407572.985 5   -994958.14546  24097394.16646        40.000
  23599758.116 6  -7486183.457 6  -5811106.98147  23599751.57147        43.000
  20260189.749 7 -25087507.149 7 -19531847.67949  20260181.66949        52.000
  24982394.310 4   6231103.979 4   4187854.78945  24982385.05745        38.000
  20942130.066 7 -15898912.689 7 -13157340.46249  20942123.59149        52.000
  22235863.008 6 -11331266.175 6  -8842252.93748  22235857.91948        47.000
 08 11 15  2 37  0.0000000  0 10G 3G 6G 7G 8G11G13G16G19G25G27
  20869539.387 7 -22109494.059 7 -17217165.47748  20869533.20448        50.000
  22082838.998 6 -15474841.677 6 -12045493.85748  22082832.80948        47.000
  21019967.197 7 -13259197.611 7 -11787755.30649  21019960.57149        52.000
  23699336.661 2    110971.974 2                                        34.000
  22887419.518 6 -11714925.648 6  -9120873.75647  22887412.84447        44.000
  24113696.821 5   2493216.195 5   -928223.23746  24113691.38546        42.000
  23613778.950 6  -7412501.167 6  -5753692.24047  23613772.73847        43.000
  20262036.808 7 -25077802.396 7 -19524285.53349  20262028.37449        52.000
  20943356.628 7 -15892466.831 7 -13152317.72949  20943350.37649        52.000
  22224781.586 6 -11389497.813 6  -8887628.23848  22224777.18748        47.000
 08 11 15  2 37 30.0000000  0 10G 3G 6G 7G 8G11G13G16G19G25G27
  20881319.552 7 -22047588.740 7 -17168927.58048  20881313.95348        51.000
  22096347.993 6 -15403849.816 6 -11990175.56948  22096342.98148        47.000
  21013032.512 7 -13295641.265 7 -11816152.96249  21013025.70549        52.000
  23679727.385 2      7923.714 2                                        35.000
  22867054.645 6 -11821941.374 6  -9204262.61247  22867048.81147        44.000
  24130018.054 5   2578986.492 5   -861389.31246  24130013.03146        40.000
  23627828.454 6  -7338672.346 6  -5696163.34446  23627821.92146        43.000
  20263956.309 8 -25067715.195 8 -19516425.38249  20263948.22649        53.000
  20944687.973 7 -15885470.215 7 -13146865.82349  20944681.94549        52.000
  22213778.661 7 -11447320.407 7  -8932684.80048  22213773.01648        49.000
 08 11 15  2 38  0.0000000  0 10G 3G 6G 7G 8G11G13G16G19G25G27
  20893144.765 7 -21985446.654 7 -17120505.19548  20893139.23448        50.000
  22109881.403 6 -15332732.470 6 -11934759.48248  22109875.89548        46.000
  21006203.225 7 -13331529.300 7 -11844117.67349  21006196.25049        51.000
  23660163.334 2    -94885.660 2                                        35.000
  22846727.271 6 -11928763.895 6  -9287500.94447  22846720.62747        45.000
  24146362.827 4   2664878.588 4   -794460.41246  24146357.62446        39.000
  23641905.675 6  -7264698.942 6  -5638521.79247  23641899.44547        45.000
  20265948.086 7 -25057248.565 7 -19508269.56849  20265940.15249        52.000
  20946123.837 7 -15877924.743 7 -13140986.24649  20946117.59649        51.000
  22202853.169 7 -11504733.740 7  -8977422.45648  22202847.46948        48.000
 08 11 15  2 38 30.0000000  0 10G 3G 6G 7G 8G11G13G16G19G25G27
  20905015.169 7 -21923068.602 7 -17071898.93748  20905009.40748        51.000
  22123438.447 6 -15261490.006 6 -11879245.88748  22123433.22348        47.000
  20999479.916 7 -13366859.016 7 -11871647.32349  20999473.63349        51.000
  23640646.101 2   -197451.724 2                                        35.000
  22826437.524 6 -12035389.722 6  -9370586.00047  22826430.99947        46.000
  24162730.302 4   2750889.908 4   -727438.68546  24162724.95746        39.000
  23656009.984 6  -7190580.268 6  -5580767.00647  23656003.67147        44.000
  20268011.677 8 -25046402.809 8 -19499818.33249  20268003.55349        53.000
  20947664.390 7 -15869829.495 7 -13134678.27249  20947658.36149        52.000
  22192006.282 7 -11561734.812 7  -9021838.87848  22192001.00048        48.000
 08 11 15  2 39  0.0000000  0 10G 3G 6G 7G 8G11G13G16G19G25G27
  20916930.103 7 -21860454.252 7 -17023108.54648  20916924.28148        51.000
  22137019.292 6 -15190121.944 6 -11823634.43248  22137013.96948        47.000
  20992864.130 7 -13401626.895 7 -11898739.17249  20992857.53349        51.000
  23621174.896 2   -299770.493 2                                        34.000
  22806185.576 6 -12141814.559 6  -9453514.42547  22806178.62747        45.000
  24179120.894 4   2837019.605 4   -660324.72546  24179114.69146        39.000
  23670141.510 6  -7116314.537 6  -5522897.65146  23670135.91346        44.000
  20270148.050 8 -25035177.338 8 -19491071.21449  20270139.72849        53.000
  20949309.877 7 -15861182.669 7 -13127940.49249  20949303.64749        50.000
  22181238.410 6 -11618319.884 6  -9065931.14048  22181233.16148        47.000
 08 11 15  2 39 30.0000000  0 10G 3G 6G 7G 8G11G13G16G19G25G27
  20928889.853 7 -21797606.248 7 -16974136.08848  20928884.37148        50.000
  22150623.685 6 -15118630.263 6 -11767926.65348  22150618.44148        46.000
  20986354.766 7 -13435832.017 7 -11925392.51649  20986348.54949        52.000
  23601751.533 4   -401839.430 4  -2675002.68355  23601745.64945        38.000
  22785971.233 6 -12248036.519 6  -9536284.76947  22785965.14747        43.000
  24195533.326 4   2923263.241 4   -593121.97246  24195527.28046        39.000
  23684301.970 6  -7041902.255 6  -5464914.10846  23684296.68446        43.000
  20272355.907 7 -25023574.083 7 -19482029.72149  20272347.69049        51.000
  20951059.953 7 -15851984.974 7 -13120773.47349  20951053.79149        50.000
  22170549.915 6 -11674487.577 6  -9109698.18048  22170545.48748        47.000
 08 11 15  2 40  0.0000000  0 10G 3G 6G 7G 8G11G13G16G19G25G27
  20940893.165 7 -21734526.543 7 -16924983.09148  20940887.68348        49.000
  22164251.427 6 -15047016.999 6 -11712124.15648  22164246.23548        46.000
  20979953.026 7 -13469473.610 7 -11951606.74649  20979946.73449        51.000
  23582376.394 3   -503656.194 3  -2754340.41545  23582370.01945        36.000
  22765797.260 6 -12354054.016 6  -9618895.81747  22765790.94847        44.000
  24211964.384 4   3009617.195 4   -525833.18546  24211959.17046        39.000
  23698490.232 6  -6967344.214 6  -5406816.99346  23698484.51146        43.000
  20274635.432 8 -25011595.199 8 -19472695.52549  20274627.06349        53.000
  20952915.073 7 -15842236.950 7 -13113177.61249  20952909.08349        51.000
  22159941.824 6 -11730236.329 6  -9153138.74848  22159936.16048        47.000
 08 11 15  2 40 30.0000000  0 10G 3G 6G 7G 8G11G13G16G19G25G27
  20952941.018 7 -21671215.825 7 -16875650.07448  20952935.05048        51.000
  22177901.707 6 -14975282.516 6 -11656227.17948  22177896.36148        47.000
  20973659.272 7 -13502548.944 7 -11977379.72849  20973653.16249        52.000
  23563049.307 2   -605216.770 2  -2833478.49245  23563043.30445        34.000
  22745662.430 6 -12459863.307 6  -9701344.60747  22745656.20047        44.000
  24228418.607 4   3096079.070 4   -458460.40046  24228412.14946        39.000
  23712705.769 6  -6892639.689 6  -5348605.72646  23712699.11346        44.000
  20276986.302 7 -24999240.833 7 -19463068.73949  20276978.61749        51.000
  20954875.090 7 -15831937.706 7 -13105152.23849  20954868.93149        50.000
  22149412.831 7 -11785563.247 7  -9196250.61548  22149407.31448        48.000
 08 11 15  2 41  0.0000000  0 10G 3G 6G 7G 8G11G13G16G19G25G27
  20965032.431 7 -21607676.417 7 -16826138.86148  20965026.48948        49.000
  22191575.178 6 -14903428.289 6 -11600236.90648  22191570.38348        46.000
  20967473.248 7 -13535056.902 7 -12002710.59649  20967466.81749        52.000
  23543773.609 3   -706518.307 3  -2912414.64245  23543766.28845        36.000
  22725568.033 6 -12565462.063 6  -9783629.33847  22725561.83747        44.000
  24244891.558 4   3182645.334 4   -391006.20446  24244886.45146        38.000
  23726948.971 5  -6817788.902 5  -5290280.45346  23726942.61846        42.000
  20279408.608 7 -24986512.682 7 -19453150.69549  20279400.39349        52.000
  20956939.782 7 -15821087.761 7 -13096697.74749  20956933.81249        51.000
  22138965.551 7 -11840466.521 7  -9239032.40748  22138960.07648        48.000
 08 11 15  2 41 30.0000000  0 10G 3G 6G 7G 8G11G13G16G19G25G27
  20977166.641 7 -21543910.318 7 -16776451.00248  20977160.64448        50.000
  22205271.211 6 -14831456.517 6 -11544155.01448  22205266.44348        46.000
  20961395.254 7 -13566996.763 7 -12027598.81349  20961388.83949        51.000
  23524545.098 3   -807558.688 3  -2991147.38945  23524539.68945        37.000
  22705513.192 6 -12670848.783 6  -9865748.84347  22705506.92147        44.000
  24261383.733 5   3269311.950 5   -323473.85746  24261377.57146        40.000
  23741220.773 5  -6742792.847 5  -5231842.01646  23741214.09946        42.000
  20281901.021 7 -24973412.816 7 -19442943.00949  20281893.15549        52.000
  20959108.974 7 -15809687.871 7 -13087814.71949  20959102.90049        52.000
  22128598.747 7 -11894944.806 7  -9281483.01448  22128592.88548        48.000
 08 11 15  2 42  0.0000000  0 10G 3G 6G 7G 8G11G13G16G19G25G27
  20989343.627 7 -21479918.622 7 -16726587.36048  20989338.01348        50.000
  22218989.273 6 -14759367.727 6 -11487981.97548  22218983.87248        46.000
  20955425.925 7 -13598366.082 7 -12052042.43849  20955419.37149        50.000
  23505368.169 2   -908334.224 2  -3069673.74545  23505362.69945        35.000
  22685500.271 6 -12776020.119 6  -9947700.54647  22685493.67447        45.000
  24277894.339 5   3356076.672 5   -255865.00546  24277888.85446        42.000
  23755520.408 5  -6667650.710 5  -5173289.74947  23755513.70347        41.000
  20284464.698 7 -24959941.732 7 -19432446.05849  20284456.48249        52.000
  20961383.361 7 -15797737.422 7 -13078502.68749  20961377.40449        52.000
  22118312.962 7 -11948995.458 7  -9323600.39948  22118307.54748        49.000
 08 11 15  2 42 30.0000000  0 10G 3G 6G 7G 8G11G13G16G19G25G27
  21001563.647 7 -21415703.112 7 -16676549.31848  21001557.86048        51.000
  22232729.502 6 -14687163.395 6 -11431718.88448  22232723.66248        46.000
  20949565.167 7 -13629163.722 7 -12076040.59149  20949558.65349        51.000
  23486242.329 3  -1008842.103 3  -3147991.60345  23486236.73545        37.000
  22665527.785 6 -12880973.840 6 -10029482.64547  22665521.42247        44.000
  24294422.622 5   3442935.953 5   -188182.48846  24294417.23946        42.000
  23769847.492 5  -6592362.983 5  -5114624.02247  23769841.83747        42.000
  20287098.432 7 -24946101.222 7 -19421661.24149  20287090.45349        51.000
  20963761.817 7 -15785236.895 7 -13068762.02349  20963755.93849        50.000
  22108109.165 7 -12002616.820 7  -9365383.27548  22108103.64948        49.000
 08 11 15  2 43  0.0000000  0 10G 3G 6G 7G 8G11G13G16G19G25G27
  21013825.641 7 -21351265.441 7 -16626338.15748  21013820.22148        50.000
  22246490.820 6 -14614845.029 6 -11375366.93148  22246485.79648        45.000
  20943813.878 7 -13659388.535 7 -12099592.40349  20943807.00549        50.000
  23467168.131 4  -1109079.534 4  -3226098.72045  23467161.09145        39.000
  22645597.613 6 -12985707.607 6 -10111093.35847  22645591.18047        45.000
  24310968.949 6   3529886.102 6   -120429.16646  24310963.33746        43.000
  23784201.421 5  -6516929.916 5  -5055845.04847  23784195.42247        41.000
  20289802.502 7 -24931892.807 7 -19410589.74849  20289794.14249        52.000
  20966245.225 7 -15772186.538 7 -13058592.91649  20966238.93849        50.000
  22097987.618 7 -12055806.938 7  -9406830.11548  22097981.73648        48.000
 08 11 15  2 43 30.0000000  0 10G 3G 6G 7G 8G11G13G16G19G25G27
  21026129.740 7 -21286607.201 7 -16575955.13048  21026124.10848        51.000
  22260273.993 6 -14542413.601 6 -11318926.88548  22260268.67048        45.000
  20938171.677 7 -13689038.892 7 -12122696.58949  20938165.07949        51.000
  23448145.584 5  -1209043.297 5  -3303992.54446  23448139.17946        41.000
  22625709.526 6 -13090218.476 6 -10192530.38747  22625703.09847        44.000
  24327531.469 5   3616924.373 5    -52607.16746  24327526.36346        42.000
  23798583.283 5  -6441351.185 5  -4996952.60246  23798577.39246        41.000
  20292575.942 7 -24917317.393 7 -19399232.28549  20292568.04849        52.000
  20968833.228 7 -15758586.388 7 -13047995.40449  20968827.22449        51.000
  22087948.234 7 -12108563.619 7  -9447939.22648  22087942.88748        49.000
 08 11 15  2 44  0.0000000  0 10G 3G 6G 7G 8G11G13G16G19G25G27
  21038475.635 7 -21221730.008 7 -16525401.49048  21038469.71848        52.000
  22274078.353 6 -14469870.411 6 -11262399.75448  22274073.18648        46.000
  20932638.711 7 -13718113.072 7 -12145351.77549  20932631.61149        51.000
  23429174.681 5  -1308730.136 5  -3381670.56546  23429170.06346        42.000
  22605865.383 6 -13194504.161 6 -10273791.97047  22605858.63447        44.000
  24344111.284 5   3704047.622 5     15280.98146  24344105.83146        41.000
  23812993.586 5  -6365627.121 5  -4937946.89446  23812987.48346        41.000
  20295419.188 8 -24902376.380 8 -19387589.93949  20295410.89949        53.000
  20971525.901 7 -15744436.539 7 -13036969.55649  20971520.03749        51.000
  22077991.721 7 -12160884.731 7  -9488708.92548  22077986.22848        50.000
 08 11 15  2 44 30.0000000  0 10G 3G 6G 7G 8G11G13G16G19G25G27
  21050862.456 7 -21156636.282 7 -16474679.11348  21050856.39948        52.000
  22287903.704 6 -14397217.380 6 -11205787.02648  22287898.69948        47.000
  20927215.317 7 -13746610.523 7 -12167557.58149  20927209.08049        50.000
  23410258.639 5  -1408138.024 5  -3459131.21746  23410253.50646        42.000
  22586063.192 6 -13298562.942 6 -10354876.72447  22586057.00647        45.000
  24360704.692 5   3791251.832 5     83232.27946  24360700.02446        41.000
  23827430.802 5  -6289758.331 5  -4878828.40546  23827425.67046        40.000
  20298331.519 8 -24887071.685 8 -19375664.20349  20298323.22449        53.000
  20974322.936 7 -15729737.998 7 -13025516.14549  20974316.85249        51.000
  22068118.413 7 -12212768.992 7  -9529138.21248  22068112.79448        50.000
 08 11 15  2 45  0.0000000  0 10G 3G 6G 7G 8G11G13G16G19G25G27
  21063290.658 7 -21091326.301 7 -16423788.24348  21063284.60248        51.000
  22301750.817 6 -14324454.735 6 -11149088.90448  22301744.94348        47.000
  20921903.111 7 -13774528.786 7 -12189312.07649  20921896.36749        51.000
  23391395.374 5  -1507262.679 5  -3536371.20046  23391390.41546        41.000
  22566304.824 6 -13402391.043 6 -10435781.72547  22566299.36647        44.000
  24377315.457 4   3878534.865 4    151244.96646  24377309.29846        39.000
  23841895.965 5  -6213743.952 5  -4819596.47046  23841890.23246        40.000
  20301312.831 8 -24871403.678 8 -19363455.36649  20301304.52249        53.000
  20977224.572 7 -15714489.877 7 -13013634.49849  20977218.38849        51.000
  22058328.815 7 -12264213.576 7  -9569224.89548  22058323.22848        49.000
 08 11 15  2 45 30.0000000  0 10G 3G 6G 7G 8G11G13G16G19G25G27
  21075759.486 7 -21025802.318 7 -16372730.59848  21075753.51748        52.000
  22315616.994 6 -14251584.420 6 -11092306.85548  22315612.30448        47.000
  20916700.471 7 -13801867.385 7 -12210614.88849  20916694.07549        51.000
  23372586.824 5  -1606101.925 5  -3613388.77546  23372581.86946        42.000
  22546591.447 6 -13505986.810 6 -10516505.66547  22546585.31747        45.000
  24393939.534 4   3965892.835 4    219316.07346  24393933.34146        39.000
  23856390.290 5  -6137585.004 5  -4760251.84146  23856381.38146        42.000
  20304362.959 8 -24855374.671 8 -19350965.23249  20304355.26149        53.000
  20980230.542 7 -15698693.374 7 -13001325.53249  20980224.41649        51.000
  22048623.068 7 -12315217.553 7  -9608968.26548  22048617.89848        50.000
 08 11 15  2 46  0.0000000  0 10G 3G 6G 7G 8G11G13G16G19G25G27
  21088268.483 7 -20960066.181 7 -16321507.65548  21088262.96648        51.000
  22329504.659 6 -14178607.857 6 -11035442.03848  22329498.81348        47.000
  20911609.048 7 -13828625.159 7 -12231465.10149  20911602.27449        52.000
  23353833.751 5  -1704652.775 5  -3690181.64146  23353828.31046        41.000
  22526923.009 6 -13609347.882 6 -10597046.74347  22526916.19447        45.000
  24410576.165 5   4053322.182 5    287442.79346  24410570.97446        40.000
  23870908.826 5  -6061281.346 5  -4700794.48246  23870902.83346        41.000
  20307481.769 8 -24838986.154 8 -19338194.96249  20307473.67749        53.000
  20983340.859 7 -15682348.794 7 -12988589.50649  20983334.71049        50.000
  22039001.526 7 -12365778.816 7  -9648366.64548  22038996.16348        50.000
 08 11 15  2 46 30.0000000  0 10G 3G 6G 7G 8G11G13G16G19G25G27
  21100818.015 7 -20894119.765 7 -16270120.85348  21100812.01748        50.000
  22343411.280 6 -14105526.702 6 -10978495.69548  22343405.91948        47.000
  20906627.554 7 -13854801.233 7 -12251862.04349  20906620.82349        51.000
  23335134.746 5  -1802912.850 5  -3766747.89846  23335129.90946        41.000
  22507298.968 6 -13712472.370 6 -10677403.46947  22507291.95447        45.000
  24427226.328 5   4140819.496 5    355622.38946  24427221.29446        41.000
  23885456.263 5  -5984833.575 5  -4641224.81846  23885450.10946        40.000
  20310668.800 8 -24822239.716 8 -19325145.78649  20310660.80349        53.000
  20986555.200 7 -15665457.085 7 -12975427.13749  20986549.04549        51.000
  22029464.913 7 -12415895.941 7  -9687418.96048  22029458.94848        50.000
 08 11 15  2 47  0.0000000  0 10G 3G 6G 7G 8G11G13G16G19G25G27
  21113407.080 7 -20827963.284 7 -16218570.35948  21113401.11048        50.000
  22357338.076 7 -14032340.647 7 -10921467.62548  22357332.93348        48.000
  20901757.808 7 -13880392.383 7 -12271803.19949  20901751.81449        50.000
  23316493.303 5  -1900877.496 5  -3843083.94846  23316487.83746        42.000
  22487720.362 6 -13815355.901 6 -10757572.42348  22487714.14348        45.000
  24443889.060 5   4228383.000 5    423853.68646  24443882.56046        40.000
  23900030.917 5  -5908240.953 5  -4581542.34946  23900025.67246        40.000
  20313923.522 8 -24805135.168 8 -19311817.57149  20313915.28249        54.000
  20989873.803 7 -15648016.982 7 -12961837.45449  20989867.49849        51.000
  22020013.135 7 -12465565.500 7  -9726122.50348  22020007.51048        50.000
 08 11 15  2 47 30.0000000  0 10G 3G 6G 7G 8G11G13G16G19G25G27
  21126035.389 7 -20761599.409 7 -16166858.26648  21126030.14348        50.000
  22371284.365 7 -13959051.828 7 -10864359.48448  22371279.76548        48.000
  20896999.556 7 -13905398.762 7 -12291288.68849  20896992.96649        50.000
  23297908.426 6  -1998544.685 6  -3919188.23746  23297901.43446        43.000
  22468188.718 6 -13917997.338 6 -10837552.73247  22468182.06547        45.000
  24460563.449 4   4316008.745 4    492133.37146  24460558.35346        39.000
  23914633.659 5  -5831504.273 5  -4521747.57746  23914628.19546        40.000
  20317246.029 8 -24787675.223 8 -19298212.42249  20317238.07349        53.000
  20993296.778 7 -15630029.817 7 -12947821.48249  20993290.75849        52.000
  22010646.556 7 -12514786.678 7  -9764476.66748  22010640.93548        50.000
 08 11 15  2 48  0.0000000  0 10G 3G 6G 7G 8G11G13G16G19G25G27
  21138703.220 7 -20695030.451 7 -16114986.37248  21138697.67648        49.000
  22385249.781 6 -13885662.411 6 -10807172.94848  22385244.90948        46.000
  20892352.252 7 -13929819.895 7 -12310318.15949  20892345.55649        49.000
  23279379.575 6  -2095912.166 6  -3995058.98947  23279373.87647        43.000
  22448703.351 6 -14020395.140 6 -10917343.19248  22448696.94648        45.000
  24477249.738 5   4403692.215 5    560458.12946  24477245.16746        40.000
  23929263.647 5  -5754624.549 5  -4461841.41646  23929257.43846        40.000
  20320635.932 8 -24769861.931 8 -19284331.93849  20320627.51349        53.000
  20996823.680 7 -15611496.975 7 -12933380.31049  20996817.07449        52.000
  22001365.533 7 -12563558.451 7  -9802480.64848  22001359.83948        49.000
 08 11 15  2 48 30.0000000  0 10G 3G 6G 7G 8G11G13G16G19G25G27
  21151409.969 7 -20628256.577 7 -16062954.80148  21151404.24848        50.000
  22399234.573 6 -13812172.423 6 -10749908.04848  22399229.47248        46.000
  20887816.548 7 -13953653.285 7 -12328889.63749  20887810.23449        50.000
  23260909.558 6  -2192975.653 6  -4070692.83247  23260903.96747        44.000
  22429264.218 6 -14122545.376 6 -10996940.74548  22429258.38748        45.000
  24493946.096 5   4491431.674 5    628826.42546  24493939.92946        40.000
  23943921.119 5  -5677600.439 5  -4401822.63346  23943915.87146        41.000
  20324092.745 8 -24751695.396 8 -19270176.19849  20324084.65049        53.000
  21000454.000 7 -15592417.480 7 -12918513.17749  21000447.66249        52.000
  21992171.258 7 -12611877.646 7  -9840131.95648  21992164.88148        49.000
 08 11 15  2 49  0.0000000  0 10G 3G 6G 7G 8G11G13G16G19G25G27
  21164155.427 7 -20561279.870 7 -16010765.16948  21164149.58048        51.000
  22413238.144 6 -13738583.391 6 -10692565.96948  22413233.03548        45.000
  20883393.572 7 -13976898.088 7 -12347002.47849  20883386.66749        52.000
  23242497.649 6  -2289732.755 6  -4146087.94947  23242491.35547        44.000
  22409873.670 6 -14224446.277 6 -11076344.02848  22409866.89148        45.000
  24510652.024 5   4579223.622 5    697235.65746  24510646.65946        40.000
  23958605.113 5  -5600432.496 5  -4341691.78846  23958599.66546        40.000
  20327616.514 7 -24733177.904 7 -19255746.99149  20327608.37049        51.000
  21004188.751 7 -15572792.386 7 -12903220.89649  21004182.85449        50.000
  21983062.392 7 -12659742.996 7  -9877429.63648  21983056.65248        49.000
 08 11 15  2 49 30.0000000  0 10G 3G 6G 7G 8G11G13G16G19G25G27
  21176938.988 7 -20494101.324 7 -15958418.26148  21176933.06648        51.000
  22427260.421 6 -13664896.411 6 -10635147.56248  22427255.45548        46.000
  20879082.301 7 -13999553.390 7 -12364655.97449  20879075.44249        51.000
  23224143.610 6  -2386180.441 6  -4221241.98247  23224138.55747        45.000
  22390530.383 6 -14326094.595 6 -11155550.45948  22390524.40048        46.000
  24527367.466 4   4667064.980 4    765683.40146  24527362.75346        39.000
  23973316.924 5  -5523121.025 5  -4281449.11146  23973311.34646        40.000
  20331206.930 7 -24714310.168 7 -19241044.86149  20331199.04249        51.000
  21008026.852 7 -15552621.956 7 -12887503.68149  21008020.87049        50.000
  21974040.520 7 -12707152.513 7  -9914372.10748  21974035.09548        50.000
 08 11 15  2 50  0.0000000  0 10G 3G 6G 7G 8G11G13G16G19G25G27
  21189760.568 7 -20426723.135 7 -15905915.78748  21189754.68048        49.000
  22441300.594 6 -13591112.533 6 -10577653.66248  22441295.79948        45.000
  20874883.955 7 -14021617.604 7 -12381848.85749  20874877.32049        50.000
  23205850.039 6  -2482315.171 6  -4296152.16247  23205844.85047        45.000
  22371236.036 6 -14427488.310 6 -11234558.52348  22371229.51448        46.000
  24544091.912 4   4754952.714 4    834167.27646  24544086.78846        39.000
  23988055.955 5  -5445666.009 5  -4221094.59346  23988050.37146        40.000
  20334863.620 8 -24695093.406 8 -19226070.77049  20334855.62249        53.000
  21011968.997 7 -15531906.520 7 -12871361.78849  21011962.76649        52.000
  21965106.010 7 -12754104.382 7  -9950957.98648  21965100.65448        49.000
 08 11 15  2 50 30.0000000  0 10G 3G 6G 7G 8G11G13G16G19G25G27
  21202619.781 7 -20359147.043 7 -15853259.10048  21202614.17548        49.000
  22455360.022 6 -13517233.020 6 -10520085.22748  22455354.52048        47.000
  20870797.511 7 -14043089.814 7 -12398580.47049  20870791.11549        49.000
  23187615.646 6  -2578134.447 6  -4370816.52147  23187611.04747        44.000
  22351990.302 6 -14528625.270 6 -11313366.50348  22351983.87448        46.000
  24560823.933 4   4842883.390 4    902684.60446  24560819.88046        38.000
  24002822.379 4  -5368067.784 4  -4160628.45546  24002816.50146        39.000
  20338586.625 7 -24675529.430 7 -19210826.11749  20338578.66349        51.000
  21016014.652 7 -15510646.945 7 -12854795.88849  21016008.50249        51.000
  21956258.586 7 -12800597.045 7  -9987186.02948  21956253.15448        49.000
 08 11 15  2 51  0.0000000  0 10G 3G 6G 7G 8G11G13G16G19G25G27
  21215516.616 7 -20291374.403 7 -15800449.25848  21215510.64648        49.000
  22469437.249 6 -13443259.260 6 -10462443.35648  22469431.09348        47.000
  20866824.661 7 -14063969.093 7 -12414850.04449  20866818.24349        51.000
  23169442.692 6  -2673635.110 6  -4445232.60747  23169437.22747        44.000
  22332793.286 6 -14629502.921 6 -11391972.42148  22332787.31848        46.000
  24577565.641 4   4930853.904 4    971232.94646  24577560.48246        39.000
  24017616.544 5  -5290326.341 5  -4100050.76546  24017610.39746        40.000
  20342375.306 7 -24655619.844 7 -19195312.16449  20342367.45049        51.000
  21020163.826 7 -15488843.636 7 -12837806.30849  21020157.55249        50.000
  21947499.197 7 -12846628.354 7 -10023054.58248  21947493.47448        50.000
 08 11 15  2 51 30.0000000  0 10G 3G 6G 7G 8G11G13G16G19G25G27
  21228449.934 7 -20223407.216 7 -15747487.82548  21228444.36848        48.000
  22483530.994 6 -13369193.309 6 -10404729.64547  22483525.39147        45.000
  20862964.272 7 -14084255.472 7 -12430657.60449  20862957.58649        50.000
  23151330.022 6  -2768815.152 6  -4519398.87547  23151325.27047        45.000
  22313646.965 6 -14730119.586 6 -11470374.99447  22313640.53447        46.000
  24594312.037 4   5018860.187 4   1039809.18546  24594306.84946        39.000
  24032437.375 5  -5212443.170 5  -4039362.63747  24032432.12547        42.000
  20346229.455 7 -24635367.154 7 -19179530.84649  20346220.92049        51.000
  21024415.913 7 -15466498.296 7 -12820394.36049  21024409.97949        51.000
  21938827.728 7 -12892197.764 7 -10058563.21648  21938822.15948        49.000
 08 11 15  2 52  0.0000000  0 10G 3G 6G 7G 8G11G13G16G19G25G27
  21241421.002 7 -20155246.044 7 -15694375.23648  21241414.94448        51.000
  22497642.989 6 -13295034.809 6 -10346943.83248  22497637.82248        47.000
  20859217.421 7 -14103946.321 7 -12446001.12649  20859210.97649        52.000
  23133279.273 6  -2863670.286 6  -4593311.93447  23133275.10547        43.000
  22294550.927 6 -14830471.537 6 -11548571.28148  22294543.74248        46.000
  24611066.076 4   5106900.435 4   1108411.85946  24611060.43146        39.000
  24047285.360 5  -5134416.720 5  -3978562.85246  24047279.81546        41.000
  20350148.780 7 -24614771.053 7 -19163481.94549  20350140.66549        52.000
  21028771.406 7 -15443610.022 7 -12802559.35249  21028765.15849        51.000
  21930244.565 7 -12937302.059 7 -10093709.42948  21930239.06848        50.000
 08 11 15  2 52 30.0000000  0 10G 3G 6G 7G 8G11G13G16G19G25G27
  21254427.946 7 -20086892.735 7 -15641112.92648  21254422.36148        50.000
  22511771.931 6 -13220785.503 6 -10289087.24348  22511766.61548        45.000
  20855583.882 7 -14123040.957 7 -12460880.08749  20855577.04049        51.000
  23115291.796 6  -2958197.919 6  -4666969.79647  23115286.81347        43.000
  22275504.981 6 -14930557.141 6 -11626560.02648  22275498.68948        47.000
  24627825.352 4   5194970.818 4   1177038.00646  24627820.80946        39.000
  24062160.221 5  -5056248.159 5  -3917652.32446  24062155.07546        41.000
  20354132.678 7 -24593833.515 7 -19147166.98449  20354124.82849        52.000
  21033229.928 7 -15420180.043 7 -12784302.23249  21033223.80549        51.000
  21921750.551 7 -12981940.190 7 -10128492.38148  21921744.79048        48.000
 08 11 15  2 53  0.0000000  0 10G 3G 6G 7G 8G11G13G16G19G25G27
  21267471.393 7 -20018348.900 7 -15587702.16848  21267465.88048        51.000
  22525918.492 6 -13146446.538 6 -10231160.80248  22525912.95948        45.000
  20852063.568 7 -14141538.731 7 -12475293.93749  20852056.97049        51.000
  23097366.518 5  -3052395.079 5  -4740370.16947  23097361.05447        42.000
  22256510.421 6 -15030373.853 6 -11704339.25448  22256504.21248        47.000
  24644590.319 4   5283068.544 4   1245685.51346  24644585.10946        39.000
  24077062.500 5  -4977937.395 5  -3856630.96846  24077057.17346        41.000
  20358182.124 8 -24572555.848 8 -19130586.99349  20358173.65049        53.000
  21037791.614 7 -15396208.852 7 -12765623.39649  21037785.72849        52.000
  21913345.008 7 -13026110.097 7 -10162910.49148  21913339.20448        49.000
 08 11 15  2 53 30.0000000  0 10G 3G 6G 7G 8G11G13G16G19G25G27
  21280551.076 7 -19949615.625 7 -15534143.77848  21280545.42848        51.000
  22540081.411 6 -13072018.706 6 -10173165.11648  22540076.58448        46.000
  20848656.905 7 -14159438.025 7 -12489241.44149  20848650.73049        51.000
  23079504.718 6  -3146258.029 6  -4813510.08847  23079499.60747        43.000
  22237567.741 6 -15129918.681 6 -11781906.60648  22237561.36748        46.000
  24661358.189 3   5371190.652 3   1314351.99945  24661353.22345        36.000
  24091991.472 5  -4899483.945 5  -3795498.46146  24091985.96946        41.000
  20362295.224 7 -24550939.269 7 -19113742.91049  20362287.50649        51.000
  21042456.237 7 -15371696.808 7 -12746523.10749  21042449.82049        50.000
  21905028.587 7 -13069809.821 7 -10196962.23048  21905023.88048        49.000
 08 11 15  2 54  0.0000000  0 10G 3G 6G 7G 8G11G13G16G19G25G27
  21293666.197 7 -19880695.893 7 -15480440.11448  21293660.21748        51.000
  22554261.029 6 -12997504.563 6 -10115102.17548  22554256.20948        45.000
  20845365.042 7 -14176739.514 7 -12502723.12849  20845358.72149        51.000
  23061707.769 6  -3239785.049 6  -4886388.28247  23061701.61547        44.000
  22218676.899 6 -15229190.807 6 -11859261.48948  22218670.20048        46.000
  24678131.651 5   5459332.573 5   1383033.87345  24678125.82745        40.000
  24106947.189 4  -4820889.831 4  -3734256.33946  24106941.27346        39.000
  20366473.132 7 -24528986.860 7 -19096637.14249  20366465.06549        52.000
  21047222.873 7 -15346645.981 7 -12727003.00049  21047216.89149        51.000
  21896802.684 7 -13113039.207 7 -10230647.46948  21896797.24148        50.000
 08 11 15  2 54 30.0000000  0 10G 3G 6G 7G 8G11G13G16G19G25G27
  21306816.273 7 -19811590.455 7 -15426591.72748  21306810.40448        50.000
  22568456.971 6 -12922904.435 6 -10056972.21148  22568451.48248        45.000
  20842186.713 7 -14193441.549 7 -12515737.69849  20842180.54749        50.000
  23043974.522 6  -3332972.921 6  -4959002.19247  23043968.96747        43.000
  22199838.266 6 -15328186.951 6 -11936401.28748  22199832.19548        47.000
  24694907.914 4   5547491.898 4   1451729.36346  24694903.35246        39.000
  24121930.695 5  -4742154.452 5  -3672904.13346  24121924.54346        41.000
  20370713.860 7 -24506699.053 7 -19079270.02049  20370705.65349        52.000
  21052092.651 7 -15321056.451 7 -12707063.10949  21052086.78149        50.000
  21888666.520 7 -13155795.716 7 -10263964.22548  21888661.29148        49.000
 08 11 15  2 55  0.0000000  0 10G 3G 6G 7G 8G11G13G16G19G25G27
  21320001.542 7 -19742300.345 7 -15372599.45848  21319996.01948        50.000
  22582669.100 6 -12848218.849 6  -9998775.69948  22582664.17048        45.000
  20839122.735 7 -14209542.596 7 -12528283.97749  20839116.13049        50.000
  23026306.868 6  -3425817.946 6  -5031348.93147  23026301.61447        43.000
  22181052.854 6 -15426904.206 6 -12013323.80748  22181046.29648        46.000
  24711684.729 2   5635666.269 2   1520436.58446  24711680.14346        35.000
  24136940.936 5  -4663277.455 5  -3611441.57946  24136934.49846        41.000
  20375018.949 7 -24484076.914 7 -19061642.39049  20375010.65949        51.000
  21057064.463 7 -15294928.297 7 -12686703.53049  21057058.59549        51.000
  21880620.908 7 -13198077.089 7 -10296910.76948  21880615.03548        49.000
 08 11 15  2 55 30.0000000  0 10G 3G 6G 7G 8G11G13G16G19G25G27
  21333220.939 7 -19672830.994 7 -15318467.51548  21333215.89548        50.000
  22596896.530 6 -12773453.068 6  -9940516.66947  22596891.44747        46.000
  20836172.608 7 -14225045.840 7 -12540364.41449  20836166.25449        51.000
  23008703.785 6  -3518321.148 6  -5103429.34147  23008697.77147        43.000
  22162320.272 6 -15525344.480 6 -12090030.48248  22162314.31848        47.000
  24728467.079 3   5723848.219 3   1589149.71446  24728462.21946        36.000
  24151976.620 5  -4584262.939 5  -3549871.85847  24151971.00647        42.000
  20379386.260 7 -24461125.918 7 -19043758.49549  20379378.13849        52.000
  21062138.401 7 -15268266.433 7 -12665928.05649  21062131.94849        52.000
  21872664.499 7 -13239885.898 7 -10329489.07048  21872659.12448        50.000
 08 11 15  2 56  0.0000000  0 10G 3G 6G 7G 8G11G13G16G19G25G27
  21346476.015 7 -19603177.004 7 -15264191.70448  21346470.33248        51.000
  22611140.892 6 -12698601.219 6  -9882190.57648  22611135.10148        47.000
  20833337.456 7 -14239943.415 7 -12551972.92849  20833331.05949        52.000
  22991168.004 6  -3610472.305 6  -5175235.44547  22991162.05747        43.000
  22143642.448 6 -15623497.974 6 -12166513.69648  22143635.59748        46.000
  24745250.243 3   5812041.822 3   1657871.83346  24745245.24146        36.000
  24167039.795 5  -4505104.231 5  -3488189.81746  24167034.30046        41.000
  20383817.513 7 -24437840.325 7 -19025613.88749  20383809.82949        52.000
  21067314.494 7 -15241064.499 7 -12644731.76649  21067308.03049        52.000
  21864800.176 7 -13281213.568 7 -10361692.44648  21864794.79848        49.000
 08 11 15  2 56 30.0000000  0 10G 3G 6G 7G 8G11G13G16G19G25G27
  21359765.024 7 -19533342.822 7 -15209775.48048  21359759.59348        51.000
  22625399.420 6 -12623667.716 6  -9823800.87148  22625394.80748        45.000
  20830617.620 7 -14254238.194 7 -12563111.69249  20830610.79349        51.000
  22973699.596 6  -3702272.239 6  -5246767.84847  22973694.34447        43.000
  22125018.372 6 -15721366.090 6 -12242774.53648  22125012.48348        46.000
  24762034.327 4   5900240.599 4   1726598.05346  24762029.82946        39.000
  24182130.032 5  -4425805.465 5  -3426398.61746  24182124.59946        40.000
  20388311.271 7 -24414225.295 7 -19007212.56449  20388303.51749        52.000
  21072592.946 7 -15213326.903 7 -12623118.05649  21072587.36549        51.000
  21857027.227 7 -13322061.867 7 -10393522.29148  21857021.38448        48.000
 08 11 15  2 57  0.0000000  0 10G 3G 6G 7G 8G11G13G16G19G25G27
  21373088.049 7 -19463329.790 7 -15155219.89148  21373082.58848        50.000
  22639674.966 6 -12548653.155 6  -9765348.01348  22639669.85848        45.000
  20828012.602 7 -14267928.789 7 -12573779.70149  20828005.49049        52.000
  22956297.649 5  -3793717.288 5  -5318023.70947  22956292.28547        42.000
  22106449.816 6 -15818945.905 6 -12318810.73148  22106443.31748        47.000
  24778817.615 3   5988441.840 3   1795326.20446  24778814.15646        37.000
  24197246.533 4  -4346365.909 4  -3364497.75946  24197241.16046        39.000
  20392867.387 7 -24390281.644 7 -18988555.18249  20392859.53449        52.000
  21077972.828 7 -15185053.839 7 -12601087.11049  21077966.85149        52.000
  21849345.459 7 -13362428.459 7 -10424976.78248  21849339.55848        50.000
