     2              OBSERVATION DATA                        RINEX VERSION / TYPE
DAT2RINW 3.10 001   .                   04NOV08 23:02:25    PGM / RUN BY / DATE 
.                   .                                       OBSERVER / AGENCY   
0220412236          TRIMBLE 5700        Nav 2.32 Sig 2.32   REC # / TYPE / VERS 
0                   TRM39105.00                             ANT # / TYPE        
----------------------------------------------------------- COMMENT             
Offset from BOTTOM OF ANTENNA to PHASE CENTER is  46.0 mm   COMMENT             
----------------------------------------------------------- COMMENT             
0170                                                        MARKER NAME         
0170                                                        MARKER NUMBER       
 -3100621.3185  3989491.1694  3879598.5143                  APPROX POSITION XYZ 
        1.2178        0.0000        0.0000                  ANTENNA: DELTA H/E/N
*** Above antenna height is from mark to BOTTOM OF ANTENNA. COMMENT             
----------------------------------------------------------- COMMENT             
Note: The above offsets are CORRECTED.                      COMMENT             
Raw Offsets: H=      1.2600 E=      0.0000 N=      0.0000   COMMENT             
----------------------------------------------------------- COMMENT             
     1     1     0                                          WAVELENGTH FACT L1/2
     5    L1    C1    L2    P2    D1                        # / TYPES OF OBSERV 
    30                                                      INTERVAL            
  2008    11     3     0    30    0.000000                  TIME OF FIRST OBS   
  2008    11     4     8    40    0.000000                  TIME OF LAST OBS    
    20                                                      # OF SATELLITES     
     3   690   690   690   690   690                        PRN / # OF OBS      
     4   187   187   175   175   187                        PRN / # OF OBS      
     6   617   617   617   617   617                        PRN / # OF OBS      
     7   535   535   535   535   535                        PRN / # OF OBS      
     8   424   426   399   399   424                        PRN / # OF OBS      
    11   695   695   695   695   695                        PRN / # OF OBS      
    13   351   351   342   342   351                        PRN / # OF OBS      
    14    28    28    28    28    28                        PRN / # OF OBS      
    16   512   512   512   512   512                        PRN / # OF OBS      
    17   376   376   376   376   376                        PRN / # OF OBS      
    19   733   733   733   733   733                        PRN / # OF OBS      
    20   411   411   411   411   411                        PRN / # OF OBS      
    21   252   252   252   252   252                        PRN / # OF OBS      
    23   423   425   407   407   423                        PRN / # OF OBS      
    25   569   569   569   569   569                        PRN / # OF OBS      
    27   509   509   509   509   509                        PRN / # OF OBS      
    28   508   508   508   508   508                        PRN / # OF OBS      
    29    70    70    70    70    70                        PRN / # OF OBS      
    31   291   291   291   291   291                        PRN / # OF OBS      
    32   448   448   448   448   448                        PRN / # OF OBS      
                                                            END OF HEADER       
 08 11  4  0 30  0.0000000  0  7  3  6 13 16 21 23 31
 -13402786.21907  21336790.71907 -10410605.99248  21336788.53948      3131.05800
 -10509560.02307  20836319.76607  -8164052.84448  20836317.82448      2123.40200
  -3835067.85206  23189302.14806  -2978641.07847  23189298.64847      2769.51200
   -979776.27307  20380483.49207   -756639.26249  20380480.46549      -335.26400
  -1968112.02306  24086844.78906  -1528070.87146  24086843.18046      1480.14900
  -8378751.59006  21556810.75006  -6507949.62148  21556806.47748      1251.45300
   3662428.34807  21485510.41407   2851111.50448  21485508.23448     -1663.60800
 08 11  4  0 30 30.0000000  0  7  3  6 13 16 21 23 31
 -13496341.39807  21318987.41407 -10483506.11348  21318985.54748      3118.50600
 -10572806.94107  20824284.30507  -8213336.16848  20824281.57848      2108.23100
  -3917722.99206  23173573.75806  -3043047.66447  23173571.32447      2755.17100
   -969457.87507  20382446.78107   -748598.96149  20382443.57849      -343.94700
  -2012175.10906  24078459.78906  -1562405.71146  24078457.62546      1468.77000
  -8415693.41407  21549781.38307  -6536735.43848  21549776.65248      1231.39400
   3712665.99607  21495070.85907   2890257.71949  21495067.55549     -1674.58800
 08 11  4  0 31  0.0000000  0  7  3  6 13 16 21 23 31
 -13589516.70707  21301256.89807 -10556110.24648  21301255.02748      3105.84400
 -10635596.60207  20812335.85207  -8262263.16048  20812333.89148      2092.98900
  -3999944.21506  23157926.50806  -3107116.14147  23157925.71547      2740.70700
   -958879.10907  20384460.49207   -740355.78149  20384456.84849      -352.62600
  -2055893.85906  24070140.53106  -1596472.27747  24070138.76647      1457.29200
  -8452031.25407  21542866.83607  -6565050.65648  21542862.91048      1211.26100
   3763233.95707  21504693.18807   2929661.31348  21504690.74248     -1685.59900
 08 11  4  0 31 30.0000000  0  7  3  6 13 16 21 23 31
 -13682309.69107  21283598.69507 -10628416.47748  21283596.87948      3093.09900
 -10697927.14507  20800474.41407  -8310832.41448  20800473.49248      2077.68500
  -4081728.91806  23142363.38306  -3170844.48047  23142361.79347      2726.15700
   -948040.54307  20386523.04707   -731910.13749  20386519.25049      -361.28600
  -2099265.24606  24061887.32806  -1630268.17246  24061884.71146      1445.71300
  -8487763.68807  21536066.98407  -6592894.13348  21536062.70748      1191.08100
   3814132.46907  21514379.07007   2969322.48048  21514376.26648     -1696.61700
 08 11  4  0 32  0.0000000  0  7  3  6 13 16 21 23 31
 -13774717.80107  21266014.05507 -10700422.78948  21266011.95348      3080.27000
 -10759796.72707  20788701.18807  -8359042.46548  20788700.02748      2062.31900
  -4163073.55906  23126884.94506  -3234229.91047  23126882.56647      2711.48800
   -936942.35907  20388634.61707   -723262.19949  20388631.61749      -369.93900
  -2142286.77706  24053700.52306  -1663791.41046  24053697.71146      1434.05100
  -8522888.85907  21529382.69507  -6620264.38348  21529378.68448      1170.83900
   3865362.37507  21524127.50007   3009241.86348  21524125.10948     -1707.66400
 08 11  4  0 32 30.0000000  0  7  3  6 13 16 21 23 31
 -13866738.12107  21248503.26607 -10772126.92648  21248501.80948      3067.34400
 -10821203.51207  20777015.50807  -8406891.90648  20777014.10548      2046.89300
  -4243975.01606  23111488.92206  -3297269.98047  23111488.31647      2696.71500
   -925585.03107  20390795.86707   -714412.33249  20390792.60949      -378.57800
  -2184955.98406  24045580.44506  -1697040.14546  24045577.12546      1422.30700
  -8557404.70707  21522814.80507  -6647159.85548  21522810.53948      1150.52800
   3916923.60907  21533939.18007   3049419.43848  21533936.98848     -1718.70800
 08 11  4  0 33  0.0000000  0  7  3  6 13 16 21 23 31
 -13958368.67207  21231066.35907 -10843527.35548  21231064.98848      3054.35200
 -10882146.29307  20765418.77307  -8454379.77348  20765417.39848      2031.42600
  -4324431.62106  23096178.76606  -3359963.47747  23096177.18447      2681.88700
   -913969.39107  20393006.24207   -705361.21149  20393003.16449      -387.18800
  -2227270.61706  24037528.46106  -1730012.59846  24037525.27046      1410.48800
  -8591310.92607  21516362.95307  -6673580.29748  21516358.49648      1130.20700
   3968816.14107  21543814.27307   3089855.13748  21543812.10948     -1729.75100
 08 11  4  0 33 30.0000000  0  7  3  6 13 16 21 23 31
 -14049610.37107  21213703.69507 -10914624.78148  21213702.55548      3041.39000
 -10942626.79707  20753909.84407  -8501507.44948  20753908.46148      2016.01700
  -4404443.15206  23080953.29706  -3422310.11346  23080950.73846      2667.05100
   -902099.55107  20395265.04707   -696111.98849  20395261.85249      -395.66100
  -2269231.40606  24029543.68006  -1762709.31646  24029540.31646      1398.69300
  -8624609.00407  21510026.07807  -6699526.86348  21510021.06348      1109.93600
   4021037.29307  21553751.96107   3130546.92649  21553749.51249     -1740.70500
 08 11  4  0 34  0.0000000  0  7  3  6 13 16 21 23 31
 -14140458.87907  21196415.98407 -10985415.81648  21196413.86748      3028.28400
 -11002640.84807  20742489.50007  -8548271.65248  20742487.34448      2000.46800
  -4484003.85206  23065813.42206  -3484305.41447  23065811.78147      2652.02300
   -889973.35507  20397572.60207   -686663.02049  20397569.13349      -404.20700
  -2310833.08206  24021626.60206  -1795126.17646  24021622.70746      1386.72300
  -8657294.80906  21503806.31306  -6724996.32048  21503802.25848      1089.52700
   4073589.64807  21563752.08607   3171496.80148  21563749.78948     -1751.74500
 08 11  4  0 34 30.0000000  0  7  3  6 13 16 21 23 31
 -14230911.28907  21179203.52307 -11055898.20748  21179201.01648      3015.08000
 -11062187.11307  20731158.07807  -8594671.32848  20731156.50448      1984.87600
  -4563110.89106  23050759.38306  -3545947.24247  23050758.46147      2636.90100
   -877591.31307  20399928.70307   -677014.67649  20399925.54749      -412.73500
  -2352074.40606  24013779.50006  -1827262.22746  24013775.94146      1374.71100
  -8689367.15607  21497703.19507  -6749987.75848  21497699.02048      1069.07800
   4126473.28107  21573815.47707   3212704.79348  21573812.52348     -1762.78800
 08 11  4  0 35  0.0000000  0  7  3  6 13 16 21 23 31
 -14320962.80107  21162067.18007 -11126068.20348  21162065.26648      3001.71700
 -11121261.41407  20719916.51607  -8640703.24648  20719915.44548      1969.14300
  -4641758.97306  23035793.88306  -3607231.47747  23035791.73047      2621.60300
   -864951.77007  20402333.64807   -667165.69549  20402331.05949      -421.31800
  -2392949.82806  24006000.32806  -1859113.15646  24005999.68446      1362.51400
  -8720822.01607  21491717.20307  -6774498.03548  21491713.66048      1048.49500
   4179690.51607  21583942.80507   3254172.75448  21583939.51248     -1773.90800
 08 11  4  0 35 30.0000000  0  7  3  6 13 16 21 23 31
 -14410611.59007  21145007.32007 -11195924.38748  21145006.40248      2988.29300
 -11179863.24607  20708765.29707  -8686367.00048  20708763.07448      1953.39400
  -4719946.19506  23020914.95306  -3668156.54747  23020912.60247      2606.24100
   -852055.92608  20404788.07008   -657116.99249  20404785.47749      -429.86100
  -2433457.85506  23998292.01606  -1890677.86746  23998290.22346      1350.26800
  -8751659.24207  21485848.89107  -6798527.04348  21485844.97348      1027.90800
   4233241.12907  21594132.70307   3295900.49648  21594129.85548     -1785.02000
 08 11  4  0 36  0.0000000  0  7  3  6 13 16 21 23 31
 -14499856.34407  21128024.98407 -11265465.75848  21128023.10548      2974.82500
 -11237991.66407  20697703.77307  -8731661.86748  20697701.86348      1937.61400
  -4797670.10906  23006124.71106  -3728720.62146  23006122.85246      2590.79700
   -838905.13708  20407290.84408   -646869.63749  20407287.55949      -438.36000
  -2473596.91006  23990654.68006  -1921955.04346  23990651.18446      1337.96800
  -8781877.93007  21480098.74207  -6822074.07848  21480094.75048      1007.29000
   4287124.13307  21604385.82007   3337887.21148  21604383.62148     -1796.10000
 08 11  4  0 36 30.0000000  0  7  3  6 13 16 21 23 31
 -14588696.23807  21111119.10207 -11334691.65248  21111117.83248      2961.33000
 -11295646.65607  20686732.41407  -8776587.82448  20686730.59848      1921.83300
  -4874929.60506  22991422.82006  -3788922.82447  22991421.48847      2575.31700
   -825501.34407  20409841.02307   -636425.12549  20409837.97349      -446.79300
  -2513366.16405  23983085.30505  -1952944.07446  23983083.29746      1325.64200
  -8811478.32407  21474465.87507  -6845139.32848  21474461.15648       986.68000
   4341338.61707  21614703.26607   3380132.23848  21614700.70348     -1807.14900
 08 11  4  0 37  0.0000000  0  8  3  6 13 16 19 21 23 31
 -14677130.69507  21094290.21907 -11403601.60948  21094289.04348      2947.81500
 -11352828.61307  20675851.11707  -8821145.19548  20675848.78948      1906.06500
  -4951723.28506  22976809.73406  -3848762.09447  22976807.60947      2559.78900
   -811846.87908  20412439.60908   -625785.29349  20412436.07849      -455.14900
   -126334.80115  23865401.59405    -69589.47757  23865397.94947         0.00000
  -2552764.87906  23975589.36706  -1983644.41846  23975585.66046      1313.29000
  -8840461.07007  21468950.94507  -6867723.29748  21468946.04748       966.09200
   4395883.00007  21625082.40607   3422634.35248  21625079.99648     -1818.14600
 08 11  4  0 37 30.0000000  0  8  3  6 13 16 19 21 23 31
 -14765156.12507  21077539.93807 -11472192.85948  21077538.46948      2934.18100
 -11409534.97707  20665060.02307  -8865331.96548  20665058.21148      1890.21200
  -5028047.49606  22962285.18806  -3908235.48447  22962283.39847      2544.14000
   -797941.47707  20415085.45307   -614949.92649  20415082.89849      -463.51300
   -242712.15205  23843255.12505   -160273.07047  23843252.30947      3879.24500
  -2591789.87906  23968162.85206  -2014053.46146  23968159.77046      1300.83300
  -8868823.66007  21463553.86707  -6889824.02748  21463549.16448       945.42000
   4450758.19107  21635524.63307   3465394.21948  21635522.92248     -1829.17300
 08 11  4  0 38  0.0000000  0  8  3  6 13 16 19 21 23 31
 -14852779.64507  21060865.35907 -11540470.91048  21060864.16448      2920.78400
 -11465773.67207  20654358.11707  -8909154.32048  20654356.68048      1874.62300
  -5103909.04706  22947849.11706  -3967348.32047  22947847.64147      2528.71800
   -783794.87507  20417777.71907   -603926.59049  20417774.52749      -471.55300
   -358964.68005  23821132.84405   -250859.40247  23821130.47747      3875.08400
  -2630448.01606  23960805.80506  -2044176.66446  23960803.00846      1288.60500
  -8896574.49607  21458272.94507  -6911448.05948  21458268.78148       925.02800
   4505955.11707  21646028.48407   3508404.77748  21646026.28548     -1839.89800
 08 11  4  0 38 30.0000000  0  8  3  6 13 16 19 21 23 31
 -14940003.04307  21044267.85907 -11608437.19148  21044265.84448      2907.44700
 -11521547.15207  20643744.77307  -8952614.17248  20643743.41448      1859.11600
  -5179308.25806  22933501.77306  -4026100.95347  22933499.98447      2513.30700
   -769411.48407  20420514.85907   -592718.76649  20420511.97349      -479.44600
   -475093.71106  23799035.10906   -341349.55547  23799032.03547      3870.96800
  -2668740.96106  23953519.57806  -2074015.34047  23953516.82447      1276.43200
  -8923716.11307  21453107.81307  -6932597.35948  21453103.48048       904.72100
   4561470.01207  21656592.25007   3551663.11348  21656590.78948     -1850.49600
 08 11  4  0 39  0.0000000  0  8  3  6 13 16 19 21 23 31
 -15026816.71107  21027747.65607 -11676084.19948  21027745.72348      2893.78900
 -11576847.03107  20633221.60907  -8995704.98448  20633219.98048      1843.32900
  -5254235.52706  22919243.57006  -4084485.86347  22919241.62947      2497.57600
   -754784.56607  20423297.95307   -581321.16849  20423295.10549      -487.56400
   -591089.26206  23776961.55506   -431735.70747  23776958.19547      3866.51800
  -2706659.52006  23946303.78906  -2103562.24246  23946300.25846      1263.95200
  -8950240.37507  21448060.53107  -6953265.63348  21448056.44548       884.14200
   4617310.13307  21667218.93007   3595174.86748  21667216.53548     -1861.33700
 08 11  4  0 39 30.0000000  0  8  3  6 13 16 19 21 23 31
 -15113217.05907  21011305.89807 -11743409.12548  21011304.70748      2880.01200
 -11631670.37507  20622789.29707  -9038424.48848  20622787.52048      1827.44500
  -5328687.09006  22905075.76606  -4142500.07847  22905072.91447      2481.71900
   -739913.71107  20426127.50807   -569733.48449  20426124.89549      -495.69500
   -706947.51206  23754914.60206   -522014.84447  23754911.35547      3861.94200
  -2744200.05506  23939159.44506  -2132814.58246  23939156.07046      1251.35100
  -8976144.55107  21443131.76607  -6973450.72348  21443127.02048       863.47300
   4673476.73807  21677907.15607   3638941.01648  21677904.81348     -1872.22000
 08 11  4  0 40  0.0000000  0  8  3  6 13 16 19 21 23 31
 -15199209.49207  20994941.89807 -11810416.20748  20994940.86748      2866.41400
 -11686023.64807  20612445.79707  -9080777.66848  20612443.98848      1811.77600
  -5402667.08606  22890997.36706  -4200146.82847  22890995.43447      2466.00000
   -724806.86307  20429002.75007   -557961.91049  20428999.26649      -503.56200
   -822673.26206  23732892.88306   -612190.74647  23732889.19947      3857.52500
  -2781367.71506  23932086.97706  -2161776.38746  23932084.10546      1238.92200
  -9001435.38307  21438319.07807  -6993157.87548  21438314.55548       843.02800
   4729962.31307  21688655.88307   3682955.73448  21688653.39548     -1882.85200
 08 11  4  0 40 30.0000000  0  8  3  6 13 16 19 21 23 31
 -15284785.91007  20978657.48407 -11877099.12548  20978656.10548      2852.54700
 -11739899.45707  20602193.84407  -9122758.79348  20602192.31648      1795.86000
  -5476167.30106  22877011.43006  -4257419.68447  22877009.32847      2450.00700
   -709458.58607  20431923.34407   -546002.22749  20431919.96149      -511.60900
   -938257.84405  23710897.61705   -702256.65247  23710893.87547      3852.81900
  -2818154.60906  23925087.35206  -2190441.49246  23925084.04746      1226.23000
  -9026105.76207  21433623.76607  -7012381.55548  21433619.64848       822.34600
   4786772.94107  21699466.56307   3727223.73048  21699464.66048     -1893.68800
 08 11  4  0 41  0.0000000  0  8  3  6 13 16 19 21 23 31
 -15369949.38307  20962451.53107 -11943460.26648  20962449.68848      2838.78200
 -11793302.09407  20592031.66407  -9164371.23849  20592029.80549      1780.08800
  -5549190.30506  22863114.75006  -4314320.72347  22863113.53547      2434.10000
   -693875.14807  20434888.75007   -533859.28149  20434885.46549      -519.44800
  -1053704.12105  23688928.76605   -792214.78147  23688926.17247      3848.20900
  -2854563.93406  23918157.82806  -2218812.41047  23918155.84447      1213.64400
  -9050160.37907  21429046.53107  -7031125.39848  21429042.44948       801.82100
   4843903.14507  21710338.03107   3771740.75848  21710335.70348     -1904.34000
 08 11  4  0 41 30.0000000  0  8  3  6 13 16 19 21 23 31
 -15454695.25807  20946325.10207 -12009496.02748  20946323.28548      2824.86300
 -11846227.56307  20581960.24207  -9205611.85948  20581958.16048      1764.18200
  -5621730.70306  22849311.36706  -4370845.71146  22849308.17246      2418.01300
   -678054.14807  20437899.39807   -521531.21149  20437896.39149      -527.36700
  -1169006.79704  23666986.58604   -882060.98847  23666985.24647      3843.42300
  -2890590.75006  23911302.41406  -2246885.26646  23911299.59046      1200.89400
  -9073595.38307  21424586.99207  -7049386.44548  21424582.30948       781.16700
   4901355.84407  21721270.96907   3816509.06348  21721268.65248     -1915.09000
 08 11  4  0 42  0.0000000  0  8  3  6 13 16 19 21 23 31
 -15539016.75407  20930278.74207 -12075201.09048  20930277.49248      2810.71700
 -11898669.96907  20571980.73407  -9246476.05548  20571978.45348      1748.08000
  -5693781.64106  22835600.14106  -4426989.30147  22835597.55547      2401.69800
   -661991.37507  20440955.60207   -509014.78149  20440952.95349      -535.42600
  -1284158.35905  23645073.87505   -971789.46147  23645072.39847      3838.38500
  -2926228.29706  23904521.58606  -2274654.75447  23904517.83647      1187.91800
  -9096404.95707  21420246.57807  -7067160.15248  21420242.12148       760.31900
   4959135.32407  21732266.05507   3861532.00848  21732264.19148     -1925.98300
 08 11  4  0 42 30.0000000  0  8  3  6 13 16 19 21 23 31
 -15622911.38707  20914314.49207 -12140573.51648  20914312.88348      2796.48800
 -11950627.80107  20562093.32807  -9286962.68049  20562091.91449      1731.92800
  -5765339.66806  22821983.16406  -4482748.78947  22821980.36347      2385.26800
   -645687.66007  20444058.50807   -496310.59449  20444055.19549      -543.45700
  -1399155.97704  23623191.07004  -1061397.97747  23623188.84447      3833.25400
  -2961474.50406  23897813.37506  -2302119.30546  23897810.95346      1174.87400
  -9118588.26207  21416025.46107  -7084445.85248  21416021.12548       739.44300
   5017242.03507  21743323.25007   3906809.95748  21743321.17648     -1936.89000
 08 11  4  0 43  0.0000000  0  8  3  6 13 16 19 21 23 31
 -15706381.82407  20898430.67207 -12205615.41448  20898429.43448      2782.34800
 -12002104.98807  20552297.63307  -9327074.77749  20552295.68849      1715.90600
  -5836407.99206  22808459.53906  -4538126.66847  22808457.37947      2368.94400
   -629148.34407  20447206.03907   -483422.80949  20447202.92649      -551.31100
  -1514002.17205  23601336.68005  -1150888.49647  23601334.49647      3828.20700
  -2996331.54306  23891180.00806  -2329280.61346  23891177.80146      1161.90100
  -9140149.48807  21411922.21107  -7101246.80948  21411918.37148       718.70800
   5075670.64807  21754441.54707   3952338.73448  21754439.73848     -1947.62000
 08 11  4  0 43 30.0000000  0  8  3  6 13 16 19 21 23 31
 -15789420.48807  20882628.68807 -12270320.83248  20882627.06348      2767.95500
 -12053094.34407  20542594.63307  -9366806.72749  20542593.15249      1699.64500
  -5906976.29706  22795031.11706  -4593114.95347  22795028.19947      2352.27700
   -612367.86307  20450399.07807   -470347.10249  20450395.73049      -559.34900
  -1628687.99205  23579512.61705  -1240254.12147  23579509.97747      3822.86100
  -3030791.62906  23884623.53906  -2356132.64546  23884619.93846      1148.67000
  -9161081.53907  21407939.21107  -7117557.50048  21407934.76648       697.73500
   5134427.50407  21765623.18007   3998123.26248  21765620.41848     -1958.56200
 08 11  4  0 44  0.0000000  0  8  3  6 13 16 19 21 23 31
 -15872028.76607  20866908.95307 -12334690.92248  20866906.91448      2753.60900
 -12103598.61307  20532984.26607  -9406160.68049  20532982.91849      1683.47600
  -5977047.00006  22781696.62506  -4647715.52747  22781694.47747      2335.69000
   -595350.89107  20453637.34407   -457087.11749  20453634.14849      -567.23200
  -1743214.90606  23557719.02306  -1329495.88347  23557716.28947      3817.56400
  -3064857.09406  23878140.84406  -2382677.14146  23878137.29746      1135.51500
  -9181387.63307  21404075.07007  -7133380.44148  21404070.73848       676.87000
   5193508.39807  21776865.87507   4044160.28548  21776863.71948     -1969.36300
 08 11  4  0 44 30.0000000  0  8  3  6 13 16 19 21 23 31
 -15954203.00807  20851271.64807 -12398722.79748  20851270.36348      2739.14100
 -12153615.35907  20523465.96107  -9445134.78148  20523464.58248      1667.22500
  -6046616.33606  22768458.11706  -4701925.43047  22768455.59047      2318.97800
   -578096.75007  20456920.89807   -443642.34049  20456917.44149      -575.13800
  -1857579.18006  23535956.46106  -1418610.89848  23535953.31648      3812.14200
  -3098524.49606  23871733.89106  -2408911.44946  23871730.41846      1122.24700
  -9201065.96507  21400329.95307  -7148714.21148  21400326.31648       655.94400
   5252914.46107  21788170.52307   4090450.70348  21788167.08248     -1980.20200
 08 11  4  0 45  0.0000000  0  8  3  6 13 16 19 21 23 31
 -16035943.15207  20835716.89107 -12462416.38748  20835715.79348      2724.67100
 -12203144.93407  20514040.92207  -9483729.25048  20514038.92648      1650.98600
  -6115683.03106  22755315.39106  -4755743.62947  22755313.14847      2302.22300
   -560607.17207  20460248.69507   -430014.10549  20460246.08249      -582.98600
  -1971779.46106  23514225.10206  -1507598.14848  23514222.13348      3806.67600
  -3131792.85206  23865402.87506  -2434834.85946  23865399.81646      1108.94500
  -9220116.63707  21396704.39107  -7163558.88748  21396700.58648       635.02200
   5312644.30507  21799537.19507   4136993.42248  21799533.37548     -1990.99500
 08 11  4  0 45 30.0000000  0  8  3  6 13 16 19 21 23 31
 -16117250.72707  20820244.85207 -12525772.92648  20820242.79348      2710.25200
 -12252190.12107  20504707.94507  -9521946.25849  20504706.32049      1634.84000
  -6184247.93006  22742267.98406  -4809170.82047  22742265.65647      2285.49700
   -542887.01207  20463620.57807   -416206.20349  20463617.87149      -590.67200
  -2085816.74206  23492524.59406  -1596458.36747  23492521.39147      3801.24300
  -3164664.03906  23859148.92206  -2460448.74246  23859144.46546      1095.70600
  -9238543.12107  21393198.92207  -7177917.20348  21393194.43048       614.21600
   5372693.86707  21810963.46107   4183785.26248  21810961.33648     -2001.65200
 08 11  4  0 46  0.0000000  0  9  3  6 13 16 19 21 23 25 31
 -16198117.56307  20804856.25007 -12588786.05148  20804854.48048      2695.56100
 -12300743.40207  20495468.94507  -9559779.99248  20495467.01648      1618.44300
  -6252303.14806  22729317.57806  -4862200.83247  22729315.45747      2268.50700
   -524930.16807  20467038.13307   -402213.86349  20467035.14149      -598.56100
  -2199682.65206  23470856.78106  -1685185.03547  23470852.84447      3795.53000
  -3197129.69105  23852969.59405  -2485746.66846  23852967.61746      1082.18800
  -9256338.21107  21389812.35907  -7191783.50048  21389808.28148       593.17000
   -104611.57815  24269379.86705    -59006.96556  24269378.15646         0.00000
   5433069.49207  21822453.18807   4230831.14848  21822450.98448     -2012.52100
 08 11  4  0 46 30.0000000  0  9  3  6 13 16 19 21 23 25 31
 -16278547.32007  20789550.94507 -12651458.58648  20789549.31348      2680.99200
 -12348809.51607  20486321.98407  -9597234.11348  20486320.25448      1602.20400
  -6319851.05106  22716463.05506  -4914835.56347  22716460.51647      2251.59700
   -506743.08207  20470498.69507   -388042.11349  20470495.81649      -606.23600
  -2313379.87105  23449220.47705  -1773780.26247  23449217.14547      3789.90700
  -3229193.71905  23846868.10905  -2510731.64146  23846865.78146      1068.80100
  -9273507.43407  21386544.97707  -7205162.11348  21386540.84048       572.30700
   -200853.67606  24251065.65606   -134000.78546  24251063.43846      3208.07000
   5493765.32807  21834003.23407   4278126.57048  21834000.39848     -2023.19500
 08 11  4  0 47  0.0000000  0  9  3  6 13 16 19 21 23 25 31
 -16358543.07407  20774328.28907 -12713792.93448  20774326.14148      2666.52500
 -12396392.61707  20477267.18007  -9634311.83649  20477265.02349      1586.10300
  -6386894.18006  22703704.70306  -4967076.95747  22703702.83247      2234.77100
   -488331.45707  20474002.51607   -373695.39549  20473999.14849      -613.72100
  -2426911.09804  23427614.78104  -1862246.07847  23427612.62947      3784.37400
  -3260859.21506  23840843.18806  -2535406.04747  23840840.46947      1055.51700
  -9290055.29707  21383395.91407  -7218056.56648  21383391.97748       551.59500
   -297077.72306  24232754.75806   -208980.58646  24232751.09446      3207.46800
   5554775.97707  21845613.22707   4325667.32048  21845610.72348     -2033.68800
 08 11  4  0 47 30.0000000  0  9  3  6 13 16 19 21 23 25 31
 -16438103.04707  20759188.53907 -12775787.69148  20759187.25848      2651.99900
 -12443491.18007  20468304.85907  -9671012.02049  20468303.11349      1569.95200
  -6453429.96506  22691043.96106  -5018923.00447  22691042.19547      2217.86000
   -469695.24607  20477548.72707   -359173.68049  20477545.82449      -621.20700
  -2540273.21502  23406043.36702  -1950580.18446  23406040.99646      3778.73700
  -3292123.84406  23834892.82006  -2559768.09446  23834891.34046      1042.15400
  -9305980.12107  21380365.46907  -7230465.53148  21380361.20748       530.82700
   -393281.60505  24214447.94505   -283944.66046  24214443.77746      3206.79600
   5616102.05107  21857282.78107   4373453.84048  21857280.28148     -2044.20200
 08 11  4  0 48  0.0000000  0  9  3  6 13 16 19 21 23 25 31
 -16517223.01207  20744132.43807 -12837439.60248  20744131.10948      2637.33200
 -12490103.13307  20459435.02307  -9707333.02349  20459433.82449      1553.73200
  -6519454.71106  22678479.44506  -5070370.84047  22678478.11747      2200.82500
   -450834.06307  20481137.90607   -344476.65649  20481134.72749      -628.70600
  -2653462.43004  23384504.71904  -2038779.52046  23384501.05146      3772.97400
  -3322984.48405  23829019.84405  -2583815.34846  23829018.04746      1028.68800
  -9321280.19106  21377454.34406  -7242387.66848  21377450.67648       510.00200
   -489462.18406  24196145.32806   -358890.57046  24196142.00846      3206.01900
   5677744.22307  21869012.73407   4421486.66448  21869010.07848     -2054.73900
 08 11  4  0 48 30.0000000  0  9  3  6 13 16 19 21 23 25 31
 -16595900.49207  20729160.68807 -12898746.73848  20729159.28148      2622.58300
 -12536226.28907  20450657.55507  -9743273.14548  20450656.05548      1537.43900
  -6584964.91006  22666013.65606  -5121417.74647  22666011.61747      2183.67300
   -431747.18407  20484770.17207   -329603.78549  20484766.82449      -636.22900
  -2766475.22306  23362999.59406  -2126841.39547  23362995.10547      3767.09300
  -3353438.07406  23823225.57006  -2607545.39547  23823223.64547      1015.12000
  -9335954.12107  21374662.10907  -7253821.91048  21374657.85948       489.13100
   -585616.57405  24177847.57805   -433816.05946  24177844.86346      3205.14600
   5739703.37107  21880803.66407   4469766.49648  21880800.50848     -2065.30500
 08 11  4  0 49  0.0000000  0  9  3  6 13 16 19 21 23 25 31
 -16674131.85907  20714273.56307 -12959706.23448  20714271.90648      2607.71200
 -12581858.32007  20441974.00807  -9778830.56349  20441972.35249      1521.06800
  -6649956.82406  22653646.15606  -5172060.78547  22653643.57447      2166.39700
   -412433.74207  20488445.15607   -314554.35549  20488442.02349      -643.78100
  -2879307.27706  23341527.96106  -2214762.46547  23341523.04347      3761.06800
  -3383481.18406  23817508.37506  -2630955.60246  23817505.81646      1001.43700
  -9349999.91807  21371988.71907  -7264766.68848  21371984.44148       468.19300
   -681741.58204  24159555.68004   -508718.60946  24159553.43446      3204.16700
   5801981.07407  21892654.64807   4518294.56348  21892651.84848     -2075.92300
 08 11  4  0 49 30.0000000  0  9  3  6 13 16 19 21 23 25 31
 -16751917.71907  20699471.72707 -13020318.57848  20699469.32448      2592.86200
 -12627000.46907  20433384.28107  -9814006.24648  20433382.23448      1504.73800
  -6714430.12506  22641377.38306  -5222299.69547  22641375.55147      2149.11000
   -392896.77307  20492162.81307   -299330.74249  20492160.14549      -651.23200
  -2991958.27706  23320091.57006  -2302542.46947  23320085.60247      3755.03300
  -3413114.10506  23811869.07806  -2654046.16846  23811867.32846       987.76400
  -9363419.42207  21369435.46907  -7275223.44948  21369431.12548       447.31700
   -777837.37505  24141268.18805   -583598.44946  24141268.30946      3203.19300
   5864574.89507  21904566.12507   4567068.93448  21904563.19948     -2086.46100
 08 11  4  0 50  0.0000000  0  9  3  6 13 16 19 21 23 25 31
 -16829255.48407  20684754.89807 -13080581.78148  20684752.94548      2577.92600
 -12671651.32407  20424887.29707  -9848799.11348  20424885.54748      1488.36200
  -6778381.41806  22629207.48406  -5272131.87147  22629205.97747      2131.71000
   -373135.98807  20495922.96107   -283932.73849  20495920.04349      -658.69300
  -3104425.31606  23298689.20306  -2390179.12947  23298683.61747      3748.90100
  -3442334.50806  23806309.74206  -2676815.32847  23806307.07847       974.01300
  -9376211.49207  21367001.63307  -7285191.30548  21366997.18048       426.40200
   -873901.82005  24122987.99205   -658453.79346  24122988.01246      3202.14800
   5927485.05507  21916537.32007   4616089.80948  21916534.93048     -2097.00500
 08 11  4  0 50 30.0000000  0  9  3  6 13 16 19 21 23 25 31
 -16906144.36707  20670123.22707 -13140495.18448  20670120.91848      2562.96300
 -12715811.18407  20416483.77307  -9883209.37949  20416482.10549      1471.99500
  -6841810.01606  22617137.09406  -5321556.71947  22617135.02747      2114.28700
   -353152.98407  20499725.73407   -268361.55548  20499722.67648      -666.10000
  -3216706.90607  23277323.11707  -2477671.27047  23277318.43447      3742.72000
  -3471141.85905  23800826.38305  -2699262.57046  23800824.66046       960.24500
  -9388377.05907  21364685.78107  -7294670.97748  21364682.26248       405.51900
   -969933.95705  24104714.21105   -733284.00046  24104713.50046      3201.07100
   5990710.21507  21928568.91407   4665356.15248  21928566.21948     -2107.50500
 08 11  4  0 51  0.0000000  0  9  3  6 13 16 19 21 23 25 31
 -16982581.69107  20655577.89807 -13200056.72748  20655576.01648      2547.91100
 -12759478.16807  20408174.14807  -9917235.58648  20408172.23448      1455.56600
  -6904712.55906  22605168.23406  -5370571.71147  22605166.09847      2096.75100
   -332947.73007  20503570.98407   -252617.21149  20503568.16449      -673.50800
  -3328799.35506  23255992.14106  -2565016.00847  23255988.59847      3736.41500
  -3499533.09005  23795424.07005  -2721385.61346  23795421.61746       946.37400
  -9399914.65607  21362490.37507  -7303661.31648  21362486.28548       384.58700
  -1065931.19505  24086446.74205   -808087.01646  24086445.56646      3199.90800
   6054250.92207  21940660.41407   4714868.36348  21940657.11348     -2118.02400
 08 11  4  0 51 29.9990000  0  9  3  6 13 16 19 21 23 25 31
 -17058560.72307  20641119.33107 -13259261.16049  20641118.17549      2532.63400
 -12802647.85207  20399959.36207  -9950874.29348  20399957.76548      1438.98900
  -6967082.05106  22593299.48706  -5419171.31647  22593297.56247      2078.98300
   -312518.99207  20507458.66707   -236698.71149  20507455.47949      -680.95800
  -3440694.13706  23234698.87006  -2652206.73847  23234695.77647      3729.82600
  -3527503.35906  23790102.00306  -2743180.62546  23790099.39046       932.34200
  -9410821.14807  21360414.98707  -7312159.88748  21360410.89048       363.55000
  -1161886.06605  24068186.84705   -882857.00846  24068185.53046      3198.49600
   6118107.05507  21952811.69807   4764626.35948  21952809.02248     -2128.53800
 08 11  4  0 51 59.9990000  0  9  3  6 13 16 19 21 23 25 31
 -17134080.68007  20626748.58907 -13318107.86749  20626746.54249      2517.33200
 -12845318.13307  20391839.58107  -9984123.86749  20391837.59749      1422.34300
  -7028917.21506  22581532.63606  -5467354.57847  22581530.75747      2061.17200
   -291862.02707  20511389.17507   -220602.36749  20511386.44449      -688.56500
  -3552392.62106  23213443.95606  -2739244.48847  23213440.28447      3723.28300
  -3555048.60506  23784860.25306  -2764644.46547  23784857.02647       918.17500
  -9421092.77307  21358460.25307  -7320163.75848  21358456.35148       342.38700
  -1257799.15206  24049935.09706   -957594.45746  24049933.31946      3197.10300
   6182286.70707  21965024.63607   4814636.45748  21965022.47948     -2139.32200
 08 11  4  0 52 29.9990000  0  9  3  6 13 16 19 21 23 25 31
 -17209138.27307  20612465.54207 -13376594.29349  20612464.15149      2501.92000
 -12887487.87107  20383814.57307 -10016983.38748  20383812.86248      1405.65800
  -7090213.56306  22569867.88606  -5515117.94147  22569865.55847      2043.21200
   -270978.95307  20515363.40107   -204329.87549  20515360.17949      -696.10200
  -3663889.18006  23192226.59706  -2826124.86347  23192222.57347      3716.55200
  -3582167.37906  23779700.05006  -2785775.98446  23779697.26146       903.95900
  -9430730.25407  21356626.08907  -7327673.49248  21356622.65948       321.24900
  -1353666.33605  24031692.84705  -1032296.19146  24031690.25346      3195.57300
   6246786.57007  21977298.37807   4864896.03548  21977295.67948     -2149.99500
 08 11  4  0 52 59.9990000  0  9  3  6 13 16 19 21 23 25 31
 -17283730.95307  20598270.91707 -13434718.44948  20598269.38248      2486.42300
 -12929155.60207  20375885.62807 -10049451.74249  20375883.74149      1388.92400
  -7150968.56606  22558307.14406  -5562459.48047  22558304.40547      2025.16700
   -249869.93807  20519380.20607   -187881.29748  20519377.04248      -703.63400
  -3775180.56606  23171048.74506  -2912845.35947  23171044.52247      3709.71300
  -3608857.46106  23774621.58906  -2806573.47747  23774617.84747       889.66900
  -9439732.71107  21354913.54207  -7334688.38348  21354909.33548       300.08200
  -1449485.35905  24013458.64405  -1106960.33247  24013457.33147      3193.96700
   6311606.81607  21989633.41707   4915405.28548  21989630.77248     -2160.67500
 08 11  4  0 53 29.9990000  0  9  3  6 13 16 19 21 23 25 31
 -17357859.18007  20584164.86207 -13492480.72348  20584162.67148      2470.94100
 -12970322.90607  20368052.04207 -10081530.14849  20368050.44449      1372.24300
  -7211182.23006  22546848.70606  -5609379.21547  22546846.41347      2007.12200
   -228537.45307  20523439.88607   -171258.57049  20523436.67549      -711.08300
  -3886266.60206  23149909.55806  -2999405.85247  23149905.76147      3702.86800
  -3635118.76606  23769623.30006  -2827036.81646  23769620.16746       875.37700
  -9448102.09407  21353320.75307  -7341209.98448  21353316.38248       278.97900
  -1545256.16005  23995234.53405  -1181586.89847  23995232.69047      3192.36000
   6376745.14107  22002028.52607   4966162.39848  22002026.26148     -2171.27700
 08 11  4  0 53 59.9990000  0  9  3  6 13 16 19 21 23 25 31
 -17431531.20307  20570145.44807 -13549887.47748  20570143.46848      2455.73400
 -13010998.80907  20360311.38607 -10113225.64849  20360309.35149      1355.86300
  -7270862.57406  22535491.87006  -5655883.35547  22535489.51947      1989.34500
   -206992.11707  20527539.87007   -154469.98849  20527536.16349      -718.17800
  -3997154.55106  23128808.36206  -3085812.01247  23128803.99147      3696.26500
  -3660959.76206  23764706.05806  -2847172.64846  23764703.12846       861.36700
  -9455847.80507  21351846.89407  -7347245.61748  21351842.88248       258.19000
  -1640987.05505  23977017.33905  -1256182.36347  23977015.35847      3191.03000
   6442191.18007  22014482.62007   5017159.28148  22014479.58148     -2181.53500
 08 11  4  0 54 29.9990000  0  9  3  6 13 16 19 21 23 25 31
 -17504743.29307  20556213.71407 -13606935.85248  20556212.01948      2440.40300
 -13051181.09807  20352665.06507 -10144536.51648  20352662.97248      1339.41000
  -7330005.50006  22524237.30806  -5701968.75847  22524234.85847      1971.43100
   -185232.74607  20531680.32307   -137514.62949  20531676.77249      -725.31200
  -4107840.29706  23107745.52606  -3172060.62147  23107741.29647      3689.52500
  -3686376.91006  23759869.20606  -2866978.23046  23759866.07346       847.23800
  -9462968.13307  21350491.50307  -7352793.93048  21350488.17948       237.34400
  -1736674.33605  23958808.44805  -1330743.84847  23958806.73747      3189.57600
   6507946.17607  22026995.69807   5068396.90648  22026992.85148     -2191.83300
 08 11  4  0 54 59.9990000  0  9  3  6 13 16 19 21 23 25 31
 -17577486.74207  20542371.01107 -13663619.05548  20542368.47248      2424.78200
 -13090861.66807  20345114.07307 -10175456.42649  20345112.30849      1322.68600
  -7388601.58206  22513086.82306  -5747628.04747  22513084.22947      1953.20300
   -163252.44907  20535863.10407   -120387.12549  20535860.00349      -732.67700
  -4218314.08206  23086723.22206  -3258144.03947  23086720.70247      3682.46000
  -3711361.40605  23755114.14405  -2886446.69546  23755111.58146       832.81700
  -9469455.82006  21349256.86206  -7357849.25448  21349253.37448       216.25600
  -1832308.89106  23940609.90906  -1405264.24247  23940608.69847      3187.81800
   6574017.35207  22039568.44807   5119880.90248  22039566.12448     -2202.37300
 08 11  4  0 55 29.9990000  0  9  3  6 13 16 19 21 23 25 31
 -17649760.24607  20528617.89407 -13719936.04748  20528615.76548      2409.11700
 -13130039.88307  20337658.55007 -10205984.91049  20337656.96049      1305.94000
  -7446648.45306  22502041.23706  -5792859.34447  22502038.68347      1934.89600
   -141052.14507  20540087.35407   -103088.17649  20540084.69049      -740.01000
  -4328573.71906  23065741.66706  -3344060.63747  23065739.24147      3675.32100
  -3735911.95305  23750443.51105  -2905576.96946  23750439.61646       818.35200
  -9475310.72707  21348142.79207  -7362411.52748  21348138.76948       195.16400
  -1927888.92206  23922421.63606  -1479742.18847  23922419.99147      3186.00100
   6640404.14107  22052201.85407   5171610.84048  22052198.83948     -2212.89300
 08 11  4  0 55 59.9990000  0  9  3  6 13 16 19 21 23 25 31
 -17721567.57007  20514952.90907 -13775889.78549  20514951.76549      2393.57700
 -13168721.12907  20330297.80807 -10236126.12548  20330295.87848      1289.37500
  -7504149.79706  22491099.09706  -5837665.57847  22491097.23747      1916.71100
   -118637.99607  20544353.05007    -85622.61749  20544350.24149      -747.13800
  -4438622.16007  23044799.84707  -3429812.65247  23044797.28047      3668.28100
  -3760032.33606  23745853.21406  -2924372.09846  23745850.02246       804.01300
  -9480538.57007  21347148.62807  -7366485.19148  21347144.46848       174.26100
  -2023418.30506  23904242.94006  -1554180.66047  23904241.52247      3184.31300
   6707100.10907  22064893.02607   5223581.69548  22064890.66348     -2223.19900
 08 11  4  0 56 29.9990000  0  9  3  6 13 16 19 21 23 25 31
 -17792908.71507  20501377.19007 -13831480.30149  20501375.99549      2378.03800
 -13206905.91807  20323031.51107 -10265880.50848  20323029.59748      1272.82600
  -7561105.05906  22480260.50306  -5882046.30147  22480258.14047      1898.50900
    -96011.93807  20548658.33107    -67991.94149  20548655.74549      -754.20200
  -4548458.28906  23023898.93306  -3515399.22747  23023894.65147      3661.20400
  -3783722.49206  23741344.65906  -2942831.94146  23741342.80846       789.67200
  -9485140.67607  21346272.62007  -7370071.24648  21346268.54248       153.40400
  -2118896.44505  23886073.47905  -1628579.16447  23886072.77247      3182.60500
   6774103.64807  22077643.74507   5275792.21948  22077640.99148     -2233.45100
 08 11  4  0 56 59.9990000  0  9  3  6 13 16 19 21 23 25 31
 -17863778.77007  20487891.30807 -13886703.72749  20487889.96449      2362.33500
 -13244591.03507  20315860.57307 -10295245.52349  20315858.81949      1256.17100
  -7617509.61306  22469526.78406  -5925997.91847  22469524.77647      1880.15200
    -73171.82007  20553004.87807    -50194.44149  20553002.06249      -761.33700
  -4658077.09406  23003039.05806  -3600816.46947  23003034.59747      3653.96000
  -3806978.10506  23736920.26106  -2960953.17646  23736917.39046       775.18700
  -9489114.34407  21345516.10407  -7373167.60248  21345513.06548       132.45600
  -2214318.59005  23867915.24505  -1702934.02747  23867914.42547      3180.73800
   6841417.21507  22090453.33107   5328244.33648  22090450.45248     -2243.78600
 08 11  4  0 57 29.9990000  0  9  3  6 13 16 19 21 23 25 31
 -17934181.13707  20474494.40107 -13941562.71948  20474492.68748      2346.74600
 -13281780.62907  20308783.55807 -10324224.42249  20308781.41349      1239.65300
  -7673365.96106  22458898.34706  -5969522.36347  22458895.86647      1861.87800
    -50123.13707  20557390.58907    -32234.44148  20557387.51948      -768.28900
  -4767481.04706  22982220.05006  -3686066.27347  22982215.30847      3646.79800
  -3829801.98006  23732576.83106  -2978738.02046  23732574.43346       760.79600
  -9492464.23807  21344878.84707  -7375777.92248  21344874.51548       111.66300
  -2309687.74605  23849766.40105  -1777247.66046  23849765.43746      3178.97200
   6909035.52007  22103320.69007   5380933.90248  22103317.78848     -2253.94300
 08 11  4  0 57 59.9990000  0  9  3  6 13 16 19 21 23 25 31
 -18004111.84007  20461186.86207 -13996054.16048  20461184.92148      2331.02300
 -13318471.98408  20301801.31508 -10352815.07449  20301799.28849      1223.04500
  -7728669.99207  22448373.93307  -6012616.41447  22448372.02247      1843.46800
    -26863.67207  20561816.89407    -14110.19948  20561813.59348      -775.31500
  -4876665.16406  22961442.47206  -3771144.77747  22961438.78847      3639.47100
  -3852190.56606  23728316.10406  -2996183.67647  23728312.85147       746.28600
  -9495188.23807  21344360.85407  -7377900.54748  21344356.49948        90.80000
  -2404999.66805  23831629.15105  -1851516.68046  23831627.63646      3177.06400
   6976960.50806  22116246.30806   5433862.43048  22116244.21848     -2264.16600
 08 11  4  0 58 29.9990000  0  9  3  6 13 16 19 21 23 25 31
 -18073571.84007  20447969.07307 -14050178.82448  20447966.89748      2315.33300
 -13354666.64807  20294913.36207 -10381018.69948  20294911.72248      1206.48900
  -7783421.68006  22437954.90106  -6055280.07047  22437952.78847      1825.05600
     -3396.55507  20566282.26907      4175.87148  20566279.38248      -782.23700
  -4985629.41006  22940708.13606  -3856051.96547  22940703.82347      3632.14200
  -3874144.75806  23724138.88606  -3013290.85247  23724136.39447       731.80600
  -9497288.65607  21343960.90907  -7379537.24648  21343956.26548        70.01400
  -2500254.80905  23813502.86205  -1925741.42647  23813501.48347      3175.17100
   7045189.38707  22129229.97907   5487027.75848  22129227.58948     -2274.29600
 08 11  4  0 58 59.9990000  0  9  3  6 13 16 19 21 23 25 31
 -18142558.15607  20434841.23707 -14103934.38749  20434839.85849      2299.54400
 -13390363.02307  20288120.50307 -10408834.04349  20288119.06249      1189.87900
  -7837617.59406  22427641.69006  -6097510.63747  22427639.05847      1806.53000
     20278.96907  20570787.68307     22624.32448  20570784.50748      -789.18400
  -5094369.74206  22920014.30806  -3940784.66447  22920011.95647      3624.67800
  -3895661.48806  23720043.66706  -3030057.14846  23720042.14046       717.22400
  -9498764.34007  21343679.99507  -7380687.11748  21343675.81248        49.18900
  -2595449.82005  23795388.32305  -1999919.33647  23795386.77247      3173.16700
   7113723.28107  22142270.87007   5540430.75048  22142269.72948     -2284.46300
 08 11  4  0 59 29.9990000  0  9  3  6 13 16 19 21 23 25 31
 -18211065.93007  20421804.63607 -14157317.05948  20421803.10848      2283.59200
 -13425556.97707  20281423.40107 -10436257.90649  20281421.84749      1173.13200
  -7891252.71906  22417434.90106  -6139304.25047  22417433.71047      1787.83800
     44165.69507  20575333.14407     41237.34449  20575329.79649      -796.22400
  -5202880.53106  22899365.41706  -4025338.50847  22899363.30847      3617.02600
  -3916736.21506  23716033.47206  -3046478.97746  23716030.24546       702.49100
  -9499612.20307  21343518.79207  -7381347.78548  21343514.51948        28.26200
  -2690579.34005  23777285.83905  -2074046.19147  23777284.75747      3170.98400
   7182564.49207  22155371.00307   5594073.22348  22155369.33548     -2294.70700
 08 11  4  0 59 59.9990000  0  9  3  6 13 16 19 21 23 25 31
 -18279093.32407  20408859.54207 -14210325.43048  20408858.22248      2267.58000
 -13460248.12907  20274822.29207 -10463289.97349  20274820.45249      1156.37200
  -7944324.73806  22407335.92506  -6180659.09047  22407333.05447      1769.06700
     68263.57407  20579919.15907     60014.89849  20579915.43749      -803.26300
  -5311159.26606  22878761.42506  -4109711.51247  22878758.76947      3609.29100
  -3937367.03906  23712107.82306  -3062554.94147  23712104.74147       687.69400
  -9499831.99607  21343476.98707  -7381519.06348  21343472.91748         7.32600
  -2785641.32805  23759196.10405  -2148120.42647  23759195.08147      3168.73300
   7251713.05107  22168530.26107   5647955.20748  22168527.68348     -2304.95200
 08 11  4  1  0 29.9990000  0  9  3  6 13 16 19 21 23 25 31
 -18346639.29307  20396006.12007 -14262958.65249  20396004.47649      2251.53200
 -13494436.52007  20268316.22907 -10489930.26249  20268314.52649      1139.61300
  -7996832.21506  22397344.43306  -6221573.96547  22397342.13247      1750.24900
     92571.50407  20584544.59707     78956.12549  20584541.60449      -810.26400
  -5419203.56606  22858201.37806  -4193901.85548  22858198.94848      3601.47700
  -3957552.81306  23708266.33906  -3078284.10946  23708263.17146       672.85900
  -9499424.62507  21343554.37807  -7381201.64548  21343550.24548       -13.57900
  -2880634.14105  23741119.36205  -2222140.77747  23741117.34747      3166.42700
   7321168.13707  22181746.40907   5702076.00848  22181744.30448     -2315.17000
 08 11  4  1  0 59.9990000  0  9  3  6 13 16 19 21 23 25 31
 -18413704.29307  20383243.81507 -14315217.07448  20383242.28048      2235.50000
 -13528123.34007  20261905.72207 -10516179.71149  20261904.36249      1122.89400
  -8048775.17206  22387459.42506  -6262049.01247  22387457.04247      1731.43200
    117086.90207  20589209.92507     98059.01649  20589206.49949      -817.18000
  -5527013.45306  22837685.64406  -4277909.55548  22837683.05448      3593.66300
  -3977294.22306  23704509.75306  -3093667.00447  23704507.15147       658.04700
  -9498392.20707  21343750.97907  -7380397.16848  21343746.94448       -34.41400
  -2975557.86306  23723056.22906  -2296107.30146  23723053.05846      3164.12400
   7390927.19507  22195021.29207   5756433.65648  22195019.67548     -2325.30200
 08 11  4  1  1 29.9990000  0  9  3  6 13 16 19 21 23 25 31
 -18480280.70707  20370574.51907 -14367094.78148  20370573.03048      2219.21400
 -13561302.31307  20255592.01107 -10542033.45749  20255590.39049      1105.96600
  -8100145.68406  22377684.01106  -6302077.95747  22377681.76547      1712.35000
    141815.27007  20593915.33107    117327.86748  20593912.54248      -824.27900
  -5634580.24206  22817215.94806  -4361727.80948  22817213.39048      3585.56000
  -3996583.81606  23700839.01906  -3108697.85247  23700836.26947       642.98600
  -9496728.71507  21344067.30807  -7379100.93848  21344063.56948       -55.45000
  -3070404.51205  23705007.20605  -2370013.79747  23705004.85147      3161.55500
   7460995.73806  22208355.05006   5811032.47748  22208352.79648     -2335.61800
 08 11  4  1  1 59.9990000  0  9  3  6 13 16 19 21 23 25 31
 -18546373.18407  20357997.81507 -14418595.40649  20357996.35449      2203.08300
 -13593978.81607  20249374.07307 -10567495.67649  20249371.90149      1089.21700
  -8150947.57006  22368016.64406  -6341663.85247  22368015.68347      1693.39600
    166750.55507  20598660.62807    136757.96548  20598657.68748      -831.17600
  -5741907.57406  22796793.08106  -4445359.49647  22796788.60147      3577.57800
  -4015425.85206  23697253.15106  -3123379.91046  23697249.73346       628.06800
  -9494440.27707  21344502.85407  -7377317.74648  21344498.72248       -76.28100
  -3165177.74205  23686972.89405  -2443863.00047  23686970.83147      3159.10800
   7531367.64106  22221747.00306   5865867.68448  22221743.59748     -2345.73000
 08 11  4  1  2 29.9990000  0  9  3  6 13 16 19 21 23 25 31
 -18611985.99207  20345512.26907 -14469722.26649  20345510.43349      2187.09400
 -13626158.30107  20243250.40107 -10592570.58649  20243248.99949      1072.64900
  -8201185.28106  22358456.73706  -6380810.14547  22358454.82347      1674.59000
    191886.05907  20603443.69807    156344.07849  20603440.60149      -837.85000
  -5848998.87106  22776413.82306  -4528807.24648  22776410.10848      3569.71000
  -4033825.19906  23693752.41706  -3137717.05947  23693748.53847       613.31200
  -9491533.47307  21345055.84707  -7375052.70348  21345051.89448       -96.89300
  -3259881.66006  23668951.32306  -2517658.23447  23668949.45247      3156.79700
   7602036.23407  22235194.28407   5920934.12148  22235191.14748     -2355.62000
 08 11  4  1  2 59.9990000  0  9  3  6 13 16 19 21 23 25 31
 -18677111.76207  20333119.37807 -14520469.62149  20333117.26949      2170.85900
 -13657834.59407  20237222.60407 -10617253.40649  20237221.37849      1055.87600
  -8250850.89106  22349005.93306  -6419510.60947  22349003.27647      1655.52000
    217227.41007  20608265.75307    176090.58649  20608262.67949      -844.71200
  -5955845.58206  22756081.47206  -4612064.41447  22756078.06947      3561.55700
  -4051774.54306  23690336.36206  -3151703.55946  23690334.38646       598.31100
  -9488002.39107  21345728.26107  -7372301.21148  21345723.59348      -117.70300
  -3354508.29706  23650944.15906  -2591393.24647  23650942.34747      3154.22100
   7673007.05907  22248699.18307   5976236.01648  22248698.08948     -2365.69400
 08 11  4  1  3 29.9990000  0  9  3  6 13 16 19 21 23 25 31
 -18741755.05507  20320817.73707 -14570841.00448  20320816.12848      2154.77600
 -13689013.32007  20231289.78407 -10641548.50049  20231287.70249      1039.29100
  -8299948.34806  22339663.56506  -6457768.37147  22339660.19847      1636.58200
    242767.98007  20613126.36207    195992.32049  20613123.31249      -851.35200
  -6062451.43806  22735795.32306  -4695133.91047  22735791.42547      3553.52900
  -4069278.10506  23687005.56506  -3165342.68846  23687003.11246       583.45200
  -9483853.54707  21346517.24507  -7369068.36348  21346513.33548      -138.29500
  -3449061.67606  23632951.19006  -2665071.18847  23632948.83947      3151.77900
   7744273.46507  22262261.40107   6031768.23448  22262259.38648     -2375.54700
 08 11  4  1  3 59.9990000  0  9  3  6 13 16 19 21 23 25 31
 -18805913.16407  20308608.94007 -14620834.32448  20308607.17948      2138.60400
 -13719692.77007  20225451.29207 -10665454.55149  20225449.10449      1022.64800
  -8348475.04306  22330428.54206  -6495581.35547  22330426.34347      1617.55700
    268508.61307  20618024.56507    216049.95749  20618021.97949      -858.02100
  -6168812.66406  22715555.19806  -4778012.76647  22715552.62847      3545.37400
  -4086333.16006  23683759.72206  -3178632.34446  23683756.81246       568.50200
  -9479085.73407  21347424.58107  -7365353.19948  21347420.97948      -158.92700
  -3543538.26206  23614973.10406  -2738689.31347  23614971.06247      3149.22000
   7815836.17207  22275878.69007   6087531.34448  22275877.03448     -2385.42400
 08 11  4  1  4 29.9990000  0  9  3  6 13 16 19 21 23 25 31
 -18869584.75007  20296492.88607 -14670448.53948  20296490.43348      2122.38600
 -13749872.57807  20219708.20607 -10688971.29749  20219706.84349      1005.99400
  -8396428.56607  22321303.56507  -6532947.75847  22321301.80047      1598.45100
    294448.97307  20622960.79207    236263.21549  20622958.26949      -864.67900
  -6274926.96906  22695362.26106  -4860699.18847  22695359.68747      3537.14300
  -4102938.74206  23680600.72206  -3191571.73046  23680597.00746       553.51900
  -9473699.82407  21348449.51907  -7361156.37548  21348445.51148      -179.53000
  -3637936.17206  23597009.46406  -2812246.12147  23597007.11647      3146.59700
   7887694.77306  22289552.80006   6143525.00848  22289551.49948     -2395.28700
 08 11  4  1  4 59.9990000  0  9  3  6 13 16 19 21 23 25 31
 -18932767.50807  20284469.27607 -14719681.85949  20284467.31249      2106.09200
 -13779552.26207  20214060.26907 -10712098.31649  20214058.82749       989.32300
  -8443806.89806  22312287.73706  -6569865.91847  22312284.90147      1579.27800
    320589.25407  20627934.96407    256632.24649  20627932.06549      -871.34300
  -6380791.36306  22675216.47906  -4943190.88747  22675213.48747      3528.81300
  -4119092.77706  23677526.08906  -3204159.27346  23677523.01546       538.46800
  -9467695.39107  21349592.53407  -7356477.60948  21349587.97948      -200.14800
  -3732252.74606  23579061.45606  -2885739.49647  23579058.77647      3143.88600
   7959848.93807  22303284.03407   6199749.01248  22303281.53448     -2405.13900
 08 11  4  1  5 29.9990000  0  9  3  6 13 16 19 21 23 25 31
 -18995459.77307  20272539.61207 -14768532.96549  20272538.34349      2089.74200
 -13808730.11307  20208508.01907 -10734834.29749  20208506.54649       972.59500
  -8490607.25006  22303382.25306  -6606333.75047  22303379.71047      1560.01200
    346929.61707  20632947.53407    277157.20749  20632944.94849      -878.01200
  -6486402.39806  22655119.76906  -5025485.16447  22655115.99147      3520.36800
  -4134793.18406  23674538.81506  -3216393.32046  23674536.13646       523.34700
  -9461072.10507  21350852.55807  -7351316.63348  21350848.46848      -220.77600
  -3826484.89105  23561129.72905  -2959167.12547  23561127.49147      3141.07100
   8032299.38707  22317071.27607   6256203.85548  22317068.44848     -2415.01500
 08 11  4  1  5 59.9990000  0  9  3  6 13 16 19 21 23 25 31
 -19057656.40607  20260703.97907 -14816997.86349  20260702.10849      2073.22100
 -13837402.28507  20203052.12007 -10757176.23448  20203050.19848       955.73900
  -8536824.24606  22294586.65906  -6642346.98847  22294584.53847      1540.56700
    373473.64507  20637998.79207    297840.86348  20637995.48748      -884.80100
  -6591754.26206  22635072.03406  -5107577.48447  22635068.19447      3511.72900
  -4150034.80906  23671637.97206  -3228269.89146  23671636.48746       508.05400
  -9453827.06607  21352231.40907  -7345671.15648  21352227.16748      -241.50100
  -3920626.99605  23543215.43305  -3032524.58647  23543213.15147      3138.07000
   8105049.42207  22330915.05807   6312892.16848  22330913.08948     -2425.00100
 08 11  4  1  6 29.9990000  0  9  3  6 13 16 19 21 23 25 31
 -19119356.03507  20248962.82307 -14865075.49248  20248960.95648      2056.65400
 -13865569.12107  20197692.02607 -10779124.40649  20197690.22249       938.89500
  -8582456.69906  22285903.85406  -6677904.70347  22285902.03047      1521.08200
    400220.28507  20643088.59707    318682.39848  20643084.99148      -891.55500
  -6696844.72306  22615073.92506  -5189466.14148  22615070.36248      3503.01500
  -4164816.71906  23668825.12006  -3239788.24246  23668822.69846       492.73000
  -9445960.32407  21353728.40907  -7339541.21948  21353723.83948      -262.22500
  -4014677.32006  23525318.01906  -3105810.52347  23525316.36647      3135.01100
   8178097.81607  22344815.64407   6369812.96548  22344813.49948     -2434.94600
 08 11  4  1  6 59.9990000  0  9  3  6 13 16 19 21 23 25 31
 -19180559.11307  20237316.44007 -14912766.19949  20237314.32749      2040.10300
 -13893231.91007  20192427.71407 -10800679.81648  20192425.94848       922.09300
  -8627504.52007  22277331.59707  -6713006.91447  22277329.47247      1501.59400
    427167.54307  20648216.30807    339680.26249  20648213.17949      -898.24200
  -6801673.39806  22595126.19806  -5271150.82448  22595122.51948      3494.28900
  -4179139.77006  23666099.49506  -3250949.02747  23666096.80447       477.43500
  -9437474.57807  21355343.30807  -7332928.95748  21355339.14448      -282.85800
  -4108635.59405  23507437.76905  -3179024.72347  23507436.53847      3131.94200
   8251442.45306  22358772.73706   6426964.59848  22358769.88248     -2444.82100
 08 11  4  1  7 29.9990000  0  9  3  6 13 16 19 21 23 25 31
 -19241263.92607  20225764.53407 -14960068.64149  20225762.12849      2023.49400
 -13920389.55107  20187259.80807 -10821841.60949  20187258.05049       905.25500
  -8671965.45707  22268870.93307  -6747651.78947  22268868.32747      1482.03100
    454315.90207  20653382.55807    360834.82448  20653379.60148      -904.94500
  -6906236.66806  22575228.03406  -5352628.67248  22575224.74148      3485.44200
  -4193001.44906  23663461.83906  -3261750.33647  23663459.27647       462.05600
  -9428369.65607  21357075.54207  -7325834.23448  21357071.83148      -303.49700
  -4202498.50405  23489576.33905  -3252164.63547  23489575.28847      3128.76400
   8325083.27006  22372786.11206   6484347.02048  22372783.48748     -2454.69400
 08 11  4  1  7 59.9990000  0  9  3  6 13 16 19 21 23 25 31
 -19301467.05507  20214308.11207 -15006980.15649  20214306.55049      2006.77100
 -13947040.22307  20182188.37007 -10842608.35949  20182187.30849       888.35600
  -8715835.74606  22260522.96406  -6781836.42647  22260520.01147      1462.34300
    481666.47707  20658586.93307    382146.94548  20658583.72248      -911.68600
  -7010530.61706  22555381.47206  -5433896.63748  22555378.03448      3476.46500
  -4206399.14806  23660912.41706  -3272190.07047  23660908.94847       446.59000
  -9418644.39807  21358926.43307  -7318256.12548  21358922.28848      -324.17500
  -4296262.54306  23471734.27606  -3325227.50047  23471733.04247      3125.46800
   8399021.48807  22386856.14407   6541961.18848  22386853.84748     -2464.60700
 08 11  4  1  8 29.9990000  0  9  3  6 13 16 19 21 23 25 31
 -19361170.05907  20202947.01107 -15053501.96149  20202945.49549      1990.10000
 -13973186.71507  20177213.02607 -10862982.25049  20177211.36649       871.55000
  -8759117.28506  22252285.92506  -6815562.29347  22252283.04247      1442.71800
    509215.77307  20663829.32307    403613.92648  20663826.46848      -918.31000
  -7114555.89806  22535585.74506  -5514955.25847  22535583.02647      3467.50900
  -4219334.73006  23658451.13606  -3282269.74647  23658447.78047       431.18600
  -9408302.46507  21360894.72907  -7310197.48848  21360890.73348      -344.73100
  -4389928.50406  23453910.26906  -3398213.94147  23453908.69447      3122.19900
   8473253.62907  22400981.76107   6599804.37148  22400979.07348     -2474.40500
 08 11  4  1  8 59.9990000  0  9  3  6 13 16 19 21 23 25 31
 -19420370.65207  20191681.83907 -15099632.29749  20191679.98349      1973.35300
 -13998827.27307  20172334.05807 -10882961.90649  20172331.81549       854.68500
  -8801806.47307  22244162.87807  -6848826.60547  22244160.56947      1422.97300
    536965.18407  20669109.83107    425236.83248  20669107.15148      -924.98000
  -7218308.96906  22515842.40906  -5595801.77047  22515838.96047      3458.43600
  -4231804.77306  23656078.25306  -3291986.64547  23656074.99547       415.66800
  -9397342.73807  21362980.22207  -7301657.44548  21362975.75348      -365.32400
  -4483492.80506  23436105.23706  -3471121.14847  23436103.42547      3118.81000
   8547780.39806  22415163.83906   6657877.12948  22415161.89748     -2484.22600
 08 11  4  1  9 29.9990000  0  9  3  6 13 16 19 21 23 25 31
 -19479068.28907  20180511.74507 -15145370.70749  20180510.06549      1956.58800
 -14023962.39507  20167550.94007 -10902547.69149  20167548.70649       837.83700
  -8843902.67206  22236152.24506  -6881628.84847  22236149.80847      1403.20700
    564913.76607  20674428.38607    447014.94148  20674425.63648      -931.61900
  -7321787.34006  22496150.78406  -5676434.23047  22496147.65147      3449.27900
  -4243808.98006  23653793.59706  -3301340.56647  23653790.25747       400.14000
  -9385766.51207  21365183.19007  -7292637.02048  21365178.78048      -385.87400
  -4576953.72306  23418319.84706  -3543947.78147  23418318.33947      3115.36400
   8622600.68007  22429401.76107   6716178.60948  22429399.60448     -2494.00900
 08 11  4  1  9 59.9990000  0  9  3  6 13 16 19 21 23 25 31
 -19537266.93407  20169436.99507 -15190720.28149  20169435.30849      1939.95500
 -14048597.62907  20162862.64407 -10921743.97748  20162860.82348       821.17400
  -8885410.21506  22228253.19806  -6913972.39147  22228250.96447      1383.58500
    593055.08607  20679783.43307    468943.23848  20679780.58948      -938.04400
  -7424994.75406  22476511.69006  -5756855.55948  22476508.03448      3440.24700
  -4255352.22306  23651596.19006  -3310335.27747  23651594.29647       384.77500
  -9373580.37907  21367502.15107  -7283141.34448  21367497.77648      -406.20400
  -4670314.94906  23400553.73706  -3616696.78147  23400550.21847      3112.04100
   8697708.14806  22443694.03406   6774703.87548  22443691.53848     -2503.58200
 08 11  4  1 10 29.9990000  0  9  3  6 13 16 19 21 23 25 31
 -19594964.03107  20158457.34707 -15235679.05949  20158455.42149      1923.23700
 -14072731.16807  20158270.46407 -10940549.32849  20158268.00749       804.45100
  -8926325.23406  22220467.40906  -6945854.18447  22220465.58147      1363.83400
    621390.73007  20685175.85407    491022.95348  20685172.01148      -944.52100
  -7527927.23406  22456923.22206  -5837062.64548  22456920.62048      3431.08300
  -4266431.43406  23649488.47906  -3318968.41847  23649486.20647       369.30700
  -9360783.37507  21369937.30807  -7273169.68048  21369932.94448      -426.56700
  -4763572.74606  23382807.29206  -3689365.21547  23382804.10447      3108.59300
   8773103.48406  22458041.26106   6833453.47748  22458039.44048     -2513.17800
 08 11  4  1 10 59.9990000  0  9  3  6 13 16 19 21 23 25 31
 -19652162.27007  20147573.11207 -15280249.09849  20147571.14749      1906.60800
 -14096366.81307  20153772.58907 -10958966.69149  20153770.38249       787.85500
  -8966650.31607  22212793.92507  -6977276.35547  22212792.00347      1344.16900
    649916.42607  20690603.89407    513250.77348  20690600.51148      -950.85700
  -7630586.28106  22437388.63606  -5917056.68847  22437384.51147      3421.96800
  -4277049.67606  23647467.90106  -3327242.37147  23647464.73747       353.94100
  -9347380.07807  21372487.26907  -7262725.56648  21372483.90148      -446.77700
  -4856728.61705  23365080.75305  -3761954.17247  23365077.85147      3105.19600
   8848782.92206  22472443.01906   6892424.41448  22472441.01948     -2522.64800
 08 11  4  1 11 29.9990000  0  9  3  6 13 16 19 21 23 25 31
 -19708854.38707  20136784.98707 -15324424.76649  20136783.36249      1889.73700
 -14119498.73007  20149370.47907 -10976991.56649  20149369.16749       771.06400
  -9006378.54307  22205234.22907  -7008233.42248  22205232.40948      1324.27400
    678637.60907  20696069.55807    535630.91048  20696066.33148      -957.37300
  -7732963.73806  22417906.87006  -5996831.31348  22417902.62448      3412.58200
  -4287199.73006  23645536.19806  -3335151.48047  23645533.86247       338.33500
  -9333365.56307  21375154.60407  -7251805.16448  21375150.71848      -467.15100
  -4949774.58206  23347374.84706  -3834457.46547  23347372.68347      3101.53200
   8924751.21106  22486899.13606   6951620.43448  22486896.64448     -2532.27600
 08 11  4  1 11 59.9990000  0  9  3  6 13 16 19 21 23 25 31
 -19765038.57807  20126093.64407 -15368204.64149  20126091.83549      1872.80600
 -14142126.02707  20145064.87807 -10994623.23449  20145063.39749       754.24300
  -9045507.27007  22197787.82307  -7038723.30947  22197785.72947      1304.29100
    707554.49607  20701571.70607    558163.55548  20701568.82348      -963.89600
  -7835056.68406  22398479.02606  -6076384.23448  22398474.72648      3403.09800
  -4296879.70305  23643694.00305  -3342694.33646  23643690.98346       322.66600
  -9318739.84007  21377937.79207  -7240408.49248  21377933.26948      -487.52400
  -5042707.78506  23329690.36206  -3906872.92247  23329688.46847      3097.77300
   9001008.43006  22501410.10406   7011041.60548  22501408.86648     -2541.90700
 08 11  4  1 12 29.9990000  0  9  3  6 13 16 19 21 23 25 31
 -19820714.71108  20115498.59708 -15411588.63749  20115497.19449      1855.87100
 -14164249.39507  20140854.75307 -11011862.22349  20140852.73349       737.44600
  -9084036.30906  22190456.31506  -7068745.93447  22190454.21447      1284.30100
    736666.05907  20707112.08907    580847.89548  20707108.79248      -970.38500
  -7936863.76206  22379105.85406  -6155714.39148  22379102.15148      3393.56900
  -4306089.49606  23641941.70606  -3349870.78547  23641939.55447       306.99300
  -9303504.38307  21380837.04207  -7228536.73848  21380832.65148      -507.84900
  -5135527.01206  23312027.45606  -3979199.57047  23312024.69447      3093.97400
   9077552.78107  22515975.95607   7070686.52048  22515974.35148     -2551.47800
 08 11  4  1 12 59.9990000  0  9  3  6 13 16 19 21 23 25 31
 -19875881.16407  20105000.89407 -15454575.48849  20104998.52649      1838.88200
 -14185868.34407  20136741.11207 -11028708.14548  20136739.06248       720.63200
  -9121963.44107  22183239.25307  -7098299.55947  22183236.64047      1264.23800
    765972.54307  20712688.51907    603684.10248  20712685.86648      -976.88300
  -8038381.53506  22359788.01106  -6234819.12548  22359784.83548      3383.92600
  -4314828.11705  23640278.31505  -3356680.08247  23640276.62847       291.28700
  -9287659.61307  21383852.48707  -7216190.18848  21383848.14748      -528.15900
  -5228229.28106  23294386.28406  -4051435.06647  23294384.80847      3090.07600
   9154384.56606  22530596.90906   7130555.41048  22530595.17148     -2561.06000
 08 11  4  1 13 29.9990000  0  9  3  6 13 16 19 21 23 25 31
 -19930539.05508  20094599.69008 -15497166.05149  20094597.52649      1821.93000
 -14206985.14107  20132722.67507 -11045162.78549  20132720.73349       703.89300
  -9159289.83207  22176135.78407  -7127385.07447  22176133.64447      1244.21300
    795471.20307  20718302.15907    626670.06348  20718299.12048      -983.28900
  -8139610.50407  22340525.00307  -6313698.84448  22340522.10848      3374.29900
  -4323096.05905  23638705.07305  -3363122.61747  23638702.39047       275.59800
  -9271208.84807  21386982.76107  -7203371.39848  21386978.42148      -548.35900
  -5320814.90606  23276768.34706  -4123579.71547  23276765.98747      3086.18800
   9231500.59406  22545271.40906   7190645.75048  22545270.43748     -2570.53400
 08 11  4  1 13 59.9990000  0  9  3  6 13 16 19 21 23 25 31
 -19984686.73007  20084295.89407 -15539359.03949  20084293.84749      1804.92300
 -14227599.43407  20128799.69807 -11061225.86348  20128797.78448       687.14300
  -9196013.42207  22169147.73707  -7156000.82847  22169144.74147      1224.12000
    825161.93007  20723951.98707    649805.68849  20723949.15949      -989.69100
  -8240547.70706  22321317.05006  -6392351.21148  22321313.62848      3364.57300
  -4330891.80106  23637221.91706  -3369197.21147  23637219.24547       259.85800
  -9254152.30907  21390228.17507  -7190080.59448  21390223.53848      -568.55100
  -5413281.11306  23259172.32306  -4195631.30147  23259170.30447      3082.20700
   9308900.57406  22560000.89406   7250957.39848  22559998.91348     -2579.99900
 08 11  4  1 14 29.9990000  0  9  3  6 13 16 19 21 23 25 31
 -20038329.16007  20074087.91707 -15581158.32449  20074085.98349      1788.08100
 -14247717.23807  20124971.20607 -11076902.06649  20124969.49549       670.59300
  -9232139.10507  22162273.04207  -7184150.70347  22162271.06247      1204.18900
    855038.55507  20729637.38607    673086.17248  20729634.51148      -995.88800
  -8341197.04706  22302164.06506  -6470779.27748  22302160.97248      3354.97800
  -4338220.60506  23635827.16706  -3374907.95347  23635825.25347       244.29300
  -9236497.30907  21393588.30807  -7176323.46948  21393583.61648      -588.50000
  -5505631.88705  23241598.33105  -4267592.89847  23241596.92147      3078.35900
   9386577.50407  22574782.30007   7311484.82848  22574779.96048     -2589.23100
 08 11  4  1 14 59.9990000  0  9  3  6 13 16 19 21 23 25 31
 -20091463.18407  20063976.86207 -15622561.45749  20063974.72249      1771.13400
 -14267336.16807  20121238.08107 -11092189.55949  20121236.37849       653.96400
  -9267663.39807  22155513.27607  -7211831.98447  22155510.12847      1184.14300
    885103.15607  20735358.58107    696513.12948  20735355.34748     -1002.15300
  -8441553.89106  22283066.68306  -6548979.41848  22283063.67948      3345.22800
  -4345079.72306  23634521.92506  -3380252.71547  23634519.54247       228.63700
  -9218242.36707  21397061.72907  -7162098.84048  21397057.90948      -608.49800
  -5597862.46906  23224047.70606  -4339460.84047  23224047.05047      3074.35300
   9464533.16806  22589616.44006   7372229.45348  22589614.86648     -2598.52200
 08 11  4  1 15 29.9990000  0  9  3  6 13 16 19 21 23 25 31
 -20144088.64507  20053962.51107 -15663568.29749  20053960.47949      1754.18200
 -14286457.58607  20117599.65107 -11107089.35949  20117597.96449       637.38100
  -9302585.82407  22148867.51107  -7239044.23847  22148864.94847      1164.08100
    915354.19107  20741115.14407    720085.36748  20741111.25348     -1008.36800
  -8541617.10906  22264025.08906  -6626950.69548  22264022.06248      3335.44100
  -4351468.67206  23633306.15906  -3385231.02047  23633302.72247       212.96500
  -9199389.47307  21400649.40107  -7147408.28548  21400645.68348      -628.43000
  -5689971.88306  23206519.74506  -4411234.34047  23206518.61247      3070.31400
   9542765.96906  22604504.15106   7433190.05148  22604502.02648     -2607.76000
 08 11  4  1 15 59.9990000  0  9  3  6 13 16 19 21 23 25 31
 -20196208.68008  20044044.58108 -15704181.31649  20044042.97949      1737.33500
 -14305085.26207  20114054.77607 -11121604.43049  20114052.76949       620.92300
  -9336909.46106  22142335.84706  -7265789.93047  22142334.24547      1144.12100
    945787.48807  20746906.71407    743799.60548  20746903.10148     -1014.44300
  -8641388.33206  22245039.13606  -6704694.49648  22245035.55048      3325.70700
  -4357390.48006  23632178.84706  -3389845.43847  23632176.71447       197.39400
  -9179943.48807  21404350.01107  -7132255.58648  21404345.51948      -648.19900
  -5781961.63706  23189014.47206  -4482914.70747  23189012.18747      3066.32500
   9621271.13707  22619442.81507   7494362.84848  22619440.68748     -2616.83900
 08 11  4  1 16 29.9990000  0  9  3  6 13 16 19 21 23 25 31
 -20247823.30908  20034222.46408 -15744400.49649  20034220.63249      1720.48800
 -14323220.25007  20110603.84707 -11135735.57448  20110601.56248       604.50000
  -9370633.10506  22135918.80806  -7292068.09848  22135916.31948      1124.12100
    976401.75007  20752731.84707    767654.87148  20752728.60448     -1020.47500
  -8740865.85206  22226109.09706  -6782209.44148  22226105.71848      3315.91700
  -4362845.48006  23631140.72906  -3394096.03547  23631138.56947       181.83300
  -9159906.58207  21408163.03407  -7116642.42248  21408158.29248      -667.89700
  -5873830.52005  23171532.15905  -4554500.82847  23171530.66347      3062.29600
   9700046.76206  22634433.45606   7555746.41848  22634431.08148     -2625.85400
 08 11  4  1 16 59.9990000  0  9  3  6 13 16 19 21 23 25 31
 -20298933.73807  20024496.41707 -15784226.78549  20024494.50749      1703.68100
 -14340865.33607  20107245.61207 -11149484.98448  20107243.99548       588.17000
  -9403759.04306  22129614.99506  -7317880.52047  22129613.07347      1104.19800
   1007194.23807  20758591.72207    791649.01248  20758588.83548     -1026.41600
  -8840050.50806  22207234.26906  -6859496.16048  22207231.17948      3306.15500
  -4367835.30106  23630191.76906  -3397984.18846  23630188.67546       166.32700
  -9139282.26207  21412087.51107  -7100571.52748  21412083.07748      -687.47700
  -5965578.82405  23154072.90105  -4625993.00447  23154071.84747      3058.27700
   9779089.69106  22649474.58106   7617338.27748  22649472.00348     -2634.76400
 08 11  4  1 17 29.9990000  0  9  3  6 13 16 19 21 23 25 31
 -20349531.91408  20014868.31508 -15823653.94149  20014866.18749      1686.60600
 -14358013.77307  20103982.45607 -11162847.41048  20103980.64748       571.61500
  -9436279.18806  22123426.58906  -7343220.89547  22123423.55047      1084.00500
   1038171.44907  20764486.55007    815787.09048  20764483.58948     -1032.57400
  -8938933.00806  22188418.06506  -6936547.42248  22188414.60448      3296.08300
  -4372351.89506  23629332.44806  -3401503.59047  23629329.60847       150.55300
  -9118064.90207  21416124.94807  -7084038.52048  21416120.81948      -707.24500
  -6057197.59406  23136638.79206  -4697384.21547  23136637.68747      3053.95900
   9858405.87906  22664568.15106   7679143.06648  22664566.01548     -2643.87300
 08 11  4  1 17 59.9990000  0  9  3  6 13 16 19 21 23 25 31
 -20399616.84407  20005336.86207 -15862681.14849  20005335.02649      1669.49800
 -14374664.78507  20100814.22207 -11175822.21149  20100812.31949       555.03400
  -9468191.00806  22117353.51906  -7368087.25047  22117351.24147      1063.72700
   1069333.78107  20770416.63607    840069.42248  20770413.19848     -1038.74400
  -9037510.10506  22169659.55806  -7013360.73448  22169656.48748      3285.90300
  -4376393.46906  23628562.83906  -3404652.85247  23628561.35147       134.71900
  -9096254.55907  21420275.22907  -7067043.45348  21420271.20248      -727.01100
  -6148683.46506  23119229.75306  -4768671.88347  23119228.08547      3049.52900
   9937995.60206  22679713.61206   7741160.96948  22679711.56948     -2652.99100
 08 11  4  1 18 29.9990000  0  9  3  6 13 16 19 21 23 25 31
 -20449187.81307  19995904.12807 -15901307.87549  19995902.56249      1652.36600
 -14390818.97707  20097740.05807 -11188409.87148  20097738.26948       538.47300
  -9499493.93806  22111397.01106  -7392479.14547  22111395.32347      1043.43100
   1100680.84807  20776381.80007    864495.71148  20776378.71448     -1044.90200
  -9135780.30106  22150959.46406  -7089934.91448  22150956.84748      3275.67300
  -4379959.81606  23627883.96406  -3407431.78946  23627882.10446       118.87800
  -9073853.18407  21424538.09707  -7049587.85248  21424534.40548      -746.71200
  -6240034.64805  23101845.56505  -4839854.62147  23101844.11247      3045.03900
  10017857.55506  22694910.05006   7803391.02048  22694908.36248     -2662.06500
 08 11  4  1 18 59.9990000  0  9  3  6 13 16 19 21 23 25 31
 -20498239.85907  19986569.82307 -15939530.23049  19986567.78449      1635.06800
 -14406472.67607  20094761.38607 -11200607.55549  20094759.67549       521.79000
  -9530183.66006  22105556.73706  -7416393.19947  22105554.17147      1022.99100
   1132215.67207  20782382.53407    889068.28548  20782379.35848     -1051.16100
  -9233737.52006  22132319.20606  -7166265.20748  22132315.61648      3265.24100
  -4383046.39106  23627296.75306  -3409836.92647  23627294.33547       102.88600
  -9050857.91007  21428914.33907  -7031669.48848  21428910.14048      -766.50900
  -6331245.17605  23084488.97205  -4910927.72347  23084487.06247      3040.35100
  10097994.71506  22710160.31506   7865835.51248  22710158.49148     -2671.23900
 08 11  4  1 19 29.9990000  0  9  3  6 13 16 19 21 23 25 31
 -20546774.43407  19977334.32307 -15977349.35949  19977332.37449      1617.81900
 -14421628.34407  20091877.33107 -11212417.16849  20091875.11249       505.18900
  -9560260.79706  22099833.34706  -7439829.89547  22099831.40147      1002.57100
   1163936.20307  20788418.89407    913785.59048  20788415.35148     -1057.35100
  -9331381.52006  22113738.19006  -7242351.43448  22113734.19848      3254.80000
  -4385654.71506  23626800.51106  -3411869.40247  23626799.03047        86.94400
  -9027271.82407  21433402.38607  -7013290.74648  21433398.01948      -786.20300
  -6422314.83206  23067158.95606  -4981891.06647  23067156.65147      3035.65500
  10178404.12106  22725461.97906   7928492.13348  22725460.32348     -2680.31400
 08 11  4  1 19 59.9990000  0  9  3  6 13 16 19 21 23 25 31
 -20594793.13708  19968196.52608 -16014766.53549  19968194.92549      1600.62300
 -14436288.62907  20089087.33907 -11223840.76648  20089085.32348       488.67600
  -9589726.50806  22094226.40106  -7462790.20347  22094224.37047       982.19000
   1195839.74207  20794489.82307    938645.47348  20794486.17948     -1063.45100
  -9428712.79306  22095216.40906  -7318193.98848  22095212.22948      3244.37600
  -4387786.39505  23626395.04205  -3413530.41847  23626392.85847        71.05600
  -9003098.89507  21438002.47907  -6994454.69548  21437998.08548      -805.76400
  -6513243.79705  23049855.57305  -5052744.73847  23049854.21847      3030.96500
  10259082.56306  22740814.43306   7991358.40247  22740811.94047     -2689.28100
 08 11  4  1 20 29.9990000  0  9  3  6 13 16 19 21 23 25 31
 -20642298.21508  19959156.22908 -16051783.48449  19959155.02649      1583.50300
 -14450457.16807  20086391.47207 -11234881.17248  20086389.37048       472.28500
  -9618583.37906  22088735.17506  -7485276.07847  22088731.99947       961.89600
   1227922.37507  20800594.59707    963644.92248  20800591.53848     -1069.42100
  -9525732.45706  22076754.48706  -7393793.72748  22076750.00348      3233.98900
  -4389443.84806  23626079.90106  -3414821.93847  23626077.19847        55.24800
  -8978343.84407  21442712.78407  -6975165.03148  21442708.97648      -825.16800
  -6604033.16806  23032578.87806  -5123489.66047  23032578.04647      3026.31200
  10340025.60206  22756217.03406   8054430.85948  22756215.03448     -2698.10100
 08 11  4  1 20 59.9990000  0  9  3  6 13 16 19 21 23 25 31
 -20689290.89807  19950213.65107 -16088401.13749  19950212.16749      1566.42300
 -14464135.79707  20083788.52607 -11245539.82449  20083786.69449       455.95400
  -9646832.23006  22083359.41706  -7507288.16447  22083356.79247       941.62800
   1260182.37907  20806733.61207    988782.58648  20806731.19448     -1075.33300
  -9622439.96506  22058351.32306  -7469150.20348  22058347.27248      3223.58400
  -4390628.30106  23625854.88606  -3415744.87147  23625851.23747        39.48200
  -8953009.53507  21447533.71407  -6955424.02048  21447529.82348      -844.47700
  -6694682.32806  23015328.66706  -5194125.32447  23015327.33947      3021.63900
  10421231.10506  22771670.94006   8117707.80548  22771668.77248     -2706.85000
 08 11  4  1 21 29.9990000  0  9  3  6 13 16 19 21 23 25 31
 -20735769.02708  19941369.30808 -16124617.84849  19941367.66749      1549.27100
 -14477323.38707  20081279.01907 -11255815.86749  20081277.05849       439.58600
  -9674470.87106  22078100.15906  -7528824.74647  22078097.90947       921.28800
   1292620.96107  20812906.94007   1014059.38748  20812904.06548     -1081.28600
  -9718831.81306  22040008.55006  -7544260.71948  22040005.09748      3213.06200
  -4391337.32406  23625720.00306  -3416297.34447  23625716.69847        23.63400
  -8927095.91007  21452465.61207  -6935231.61348  21452461.71048      -863.78800
  -6785187.53506  22998106.20606  -5264648.85947  22998104.96447      3016.84000
  10502699.15607  22787173.90907   8181189.35948  22787171.60148     -2715.60200
 08 11  4  1 21 59.9990000  0  9  3  6 13 16 19 21 23 25 31
 -20781726.37908  19932624.40108 -16160428.76649  19932622.26549      1531.91200
 -14490015.25407  20078863.57307 -11265705.63748  20078861.98348       423.06200
  -9701493.07406  22072958.33106  -7549881.04347  22072956.06547       900.74000
   1325242.65607  20819114.47207   1039478.89148  20819111.02248     -1087.39000
  -9814900.85206  22021727.09706  -7619119.70348  22021723.72648      3202.30100
  -4391565.33206  23625675.18306  -3416474.99247  23625673.12847         7.60000
  -8900599.16007  21457507.69807  -6914584.80548  21457503.60148      -883.22500
  -6875541.51606  22980912.44806  -5335054.55547  22980910.80847      3011.79900
  10584434.14807  22802727.40907   8244878.92648  22802723.66348     -2724.50000
 08 11  4  1 22 29.9990000  0  9  3  6 13 16 19 21 23 25 31
 -20827168.30508  19923976.80808 -16195838.04749  19923975.15949      1514.73100
 -14502217.65207  20076541.50307 -11275213.98848  20076539.84348       406.74700
  -9727903.81607  22067932.44007  -7570460.84447  22067929.47247       880.35800
   1358041.34007  20825355.65907   1065036.30148  20825352.47648     -1093.28900
  -9910650.93006  22003506.21406  -7693730.10248  22003502.84748      3191.66900
  -4391317.74606  23625722.45606  -3416282.10546  23625720.28846        -8.25300
  -8873526.58607  21462659.34707  -6893489.29348  21462654.67148      -902.41900
  -6965747.85906  22963747.23706  -5405345.20347  22963744.71047      3006.87800
  10666429.23407  22818330.33107   8308771.18047  22818327.34747     -2733.17000
 08 11  4  1 22 59.9990000  0  9  3  6 13 16 19 21 23 25 31
 -20872091.59008  19915428.27608 -16230843.20749  19915426.73749      1497.44300
 -14513927.97707  20074313.23707 -11284338.91048  20074311.47248       390.34400
  -9753699.42207  22063023.01907  -7590561.28547  22063021.48347       859.85400
   1391019.60207  20831631.23707   1090733.62548  20831627.71448     -1099.27500
 -10006076.96106  21985347.83106  -7768088.01648  21985343.99948      3180.86800
  -4390590.62906  23625862.57306  -3415715.50446  23625858.56946       -24.23700
  -8845876.96507  21467920.75307  -6871944.14548  21467916.44448      -921.65400
  -7055801.37506  22946610.83906  -5475516.73047  22946608.06247      3001.78400
  10748686.57006  22833983.37006   8372867.80547  22833980.72647     -2741.91100
 08 11  4  1 23 29.9990000  0  9  3  6 13 16 19 21 23 25 31
 -20916494.46107  19906978.52607 -16265442.84449  19906976.65549      1480.09600
 -14525145.67207  20072178.73707 -11293079.96948  20072176.40948       373.92300
  -9778878.11706  22058232.37006  -7610181.05948  22058229.94048       839.29000
   1424178.06607  20837941.26907   1116571.38348  20837938.26548     -1105.28200
 -10101175.83606  21967250.87006  -7842191.03948  21967247.44848      3169.96300
  -4389382.51605  23626091.41705  -3414774.10546  23626087.89446       -40.27000
  -8817650.76207  21473291.63607  -6849949.69148  21473288.11648      -940.87300
  -7145698.85906  22929503.59706  -5545566.68047  22929500.34347      2996.58300
  10831205.80906  22849686.12806   8437168.47347  22849683.24147     -2750.64100
 08 11  4  1 23 59.9990000  0  9  3  6 13 16 19 21 23 25 31
 -20960377.47707  19898627.97207 -16299637.39549  19898626.09749      1462.76700
 -14535872.64507  20070137.29207 -11301438.63749  20070135.45249       357.56600
  -9803440.57406  22053557.94006  -7629320.62147  22053555.98747       818.74900
   1457515.23807  20844284.72207   1142548.39148  20844282.14748     -1111.23900
 -10195946.94107  21949216.72207  -7916038.63748  21949212.92148      3159.03700
  -4387694.30906  23626412.85406  -3413458.62147  23626409.76947       -56.27400
  -8788850.64506  21478772.38606  -6827508.07448  21478768.33948      -960.00400
  -7235439.37106  22912426.36206  -5615494.34047  22912423.37847      2991.35000
  10913984.84006  22865438.29206   8501671.53547  22865435.74947     -2759.30100
 08 11  4  1 24 29.9990000  0  9  3  6 13 16 19 21 23 25 31
 -21003732.88308  19890377.62808 -16333420.81349  19890375.25349      1445.18000
 -14546102.09007  20068190.31507 -11309409.61749  20068188.63249       340.98200
  -9827379.30106  22049002.45606  -7647974.18047  22048999.52647       797.95800
   1491037.75007  20850664.24507   1168669.82448  20850661.04248     -1117.41700
 -10290381.19906  21931246.04206  -7989623.74648  21931243.10148      3147.80900
  -4385518.59004  23626826.34704  -3411763.23846  23626823.65146       -72.52400
  -8759471.18006  21484363.25306  -6804615.00848  21484358.67548      -979.31500
  -7325013.64106  22895381.60406  -5685292.46147  22895377.97947      2985.80900
  10997029.72706  22881241.46406   8566381.81347  22881238.69047     -2768.16300
 08 11  4  1 24 59.9990000  0  9  3  6 13 16 19 21 23 25 31
 -21046564.46508  19882226.98708 -16366796.05549  19882225.27249      1427.71900
 -14555838.91007  20066337.80807 -11316996.74648  20066335.77248       324.56100
  -9850697.51207  22044565.55007  -7666144.20747  22044562.95247       777.27400
   1524741.06607  20857077.47907   1194932.14548  20857074.45648     -1123.44400
 -10384480.98007  21913339.55007  -8062948.23048  21913336.45648      3136.65900
  -4382859.19506  23627332.42506  -3409690.96146  23627329.76546       -88.64600
  -8729518.19107  21490063.08107  -6781275.03548  21490058.97948      -998.43300
  -7414423.71106  22878367.61206  -5754962.63347  22878364.40547      2980.33600
  11080335.22706  22897093.67506   8631295.14848  22897092.39748     -2776.85000
 08 11  4  1 25 29.9990000  0  9  3  6 13 16 19 21 23 25 31
 -21088879.75408  19874174.76908 -16399769.00849  19874173.04649      1410.51000
 -14565091.43007  20064576.94807 -11324206.49648  20064575.06948       308.41700
  -9873402.47706  22040244.68306  -7683836.38747  22040242.83947       756.83200
   1558616.96907  20863524.18307   1221328.93448  20863521.58148     -1129.19700
 -10478252.01207  21895495.75307  -8136016.54348  21895492.65548      3125.70100
  -4379723.52306  23627929.91706  -3407247.59846  23627926.15146      -104.52200
  -8699001.09007  21495870.37007  -6757495.48048  21495866.02248     -1017.23700
  -7503675.09006  22861383.02606  -5824509.15647  22861380.40547      2975.04600
  11163892.41006  22912994.62806   8696404.58647  22912992.04647     -2785.23900
 08 11  4  1 25 59.9990000  0  9  3  6 13 16 19 21 23 25 31
 -21130675.47307  19866221.04207 -16432337.10549  19866219.47949      1393.19100
 -14573857.56307  20062909.05807 -11331037.25849  20062907.25349       292.20400
  -9895491.14806  22036041.12806  -7701048.32047  22036039.05047       736.28900
   1592667.74207  20870003.42507   1247862.00048  20870000.77648     -1135.02600
 -10571689.96507  21877714.95607  -8208825.30148  21877711.35448      3114.59800
  -4376108.52006  23628617.83106  -3404430.69946  23628613.30046      -120.50000
  -8667918.94107  21501785.17507  -6733275.62148  21501780.95248     -1036.07200
  -7592763.09806  22844430.88606  -5893928.35947  22844427.25747      2969.60000
  11247702.90606  22928943.13606   8761711.39847  22928940.94047     -2793.68300
 08 11  4  1 26 29.9990000  0  9  3  6 13 16 19 21 23 25 31
 -21171947.50407  19858367.50307 -16464497.11749  19858365.36649      1375.73400
 -14582134.48007  20061334.13607 -11337486.80149  20061331.86249       275.89700
  -9916959.23807  22031956.43307  -7717776.73447  22031952.77247       715.60300
   1626896.57807  20876517.18307   1274533.81348  20876514.36648     -1140.96100
 -10664789.08607  21859998.59707  -8281370.04348  21859995.13248      3103.30400
  -4372010.24606  23629397.40106  -3401237.25446  23629393.85146      -136.60900
  -8636269.87507  21507807.59707  -6708614.02748  21507803.40548     -1054.96900
  -7681681.83606  22827509.86206  -5963215.68047  22827506.81947      2963.95800
  11331769.01606  22944940.50306   8827217.38747  22944938.67547     -2802.20400
 08 11  4  1 26 59.9990000  0  9  3  6 13 16 19 21 23 25 31
 -21212697.49208  19850613.23708 -16496250.35249  19850610.75349      1358.33300
 -14589924.58207  20059851.62807 -11343557.00849  20059849.45649       259.67000
  -9937808.38707  22027988.48707  -7734022.83247  22027986.49547       694.97200
   1661301.14807  20883064.58907   1301342.55948  20883061.91748     -1146.81900
 -10757549.58207  21842346.74507  -8353650.93048  21842342.51148      3092.01700
  -4367430.28505  23630268.68305  -3397668.42646  23630265.72946      -152.66500
  -8604057.92206  21513937.41706  -6683513.82448  21513932.70648     -1073.73200
  -7770431.15606  22810620.90906  -6032370.98047  22810618.63647      2958.31100
  11416087.55506  22960985.55006   8892920.08648  22960984.67948     -2810.61800
 08 11  4  1 27 29.9990000  0  9  3  6 13 16 19 21 23 25 31
 -21252924.69508  19842957.93308 -16527596.19949  19842955.84749      1340.90700
 -14597228.12507  20058461.24507 -11349248.07448  20058459.64048       243.45100
  -9958037.46506  22024138.90106  -7749785.75047  22024137.35847       674.30300
   1695881.52707  20889644.53407   1328288.30548  20889642.12848     -1152.67900
 -10849969.08607  21824759.65907  -8425666.10948  21824755.78048      3080.65000
  -4362368.04706  23631231.85406  -3393723.77346  23631228.55046      -168.74100
  -8571284.14107  21520173.96407  -6657975.82848  21520169.14448     -1092.45900
  -7859008.28106  22793765.48706  -6101392.13347  22793763.62047      2952.57100
  11500658.03506  22977079.17506   8958819.09448  22977077.12448     -2819.01600
 08 11  4  1 27 59.9990000  0  9  3  6 13 16 19 21 23 25 31
 -21292627.43807  19835402.51107 -16558533.39849  19835400.37449      1323.42500
 -14604044.65207  20057164.39407 -11354559.65248  20057162.49148       227.21800
  -9977645.25807  22020408.55807  -7765064.56347  22020405.55047       653.59300
   1730638.25007  20896258.62007   1355371.46548  20896255.98348     -1158.55700
 -10942044.65207  21807238.67507  -8497413.28148  21807234.54648      3069.18600
  -4356821.65606  23632287.18306  -3389401.93846  23632284.55046      -184.88000
  -8537949.16807  21526517.36207  -6632000.56348  21526513.35148     -1111.16600
  -7947409.96106  22776942.95606  -6170276.51647  22776940.65547      2946.72300
  11585480.48406  22993220.25306   9024914.46548  22993219.06948     -2827.41500
 08 11  4  1 28 29.9990000  0  9  3  6 13 16 19 21 23 25 31
 -21331807.02307  19827947.11207 -16589062.94149  19827945.44449      1305.98600
 -14610376.16007  20055959.97207 -11359493.28148  20055957.74948       211.05000
  -9996632.54306  22016794.08106  -7779859.83247  22016791.97247       632.91000
   1765569.91407  20902905.71407   1382590.92248  20902903.12048     -1164.38900
 -11033775.71906  21789782.16706  -8568892.01248  21789779.12048      3057.70200
  -4350792.50005  23633434.29205  -3384703.89846  23633432.31246      -200.97200
  -8504056.16007  21532966.81507  -6605590.43048  21532963.12048     -1129.76700
  -8035635.33606  22760153.36206  -6239023.54347  22760150.94047      2940.84600
  11670552.37506  23009408.13606   9091204.19548  23009407.31248     -2835.73000
 08 11  4  1 28 59.9990000  0  9  3  6 13 16 19 21 23 25 31
 -21370462.51207  19820591.42507 -16619184.07849  19820589.43349      1288.51600
 -14616223.34407  20054847.04207 -11364049.52049  20054845.31949       194.90600
 -10014998.86706  22013299.44006  -7794171.24647  22013297.49947       612.21100
   1800676.09007  20909586.29207   1409946.39148  20909583.37848     -1170.20600
 -11125160.77306  21772392.08106  -8640101.10948  21772389.06548      3046.16800
  -4344280.64105  23634673.71405  -3379629.70746  23634671.17146      -217.06200
  -8469606.86707  21539522.99507  -6578746.82848  21539518.33948     -1148.31000
  -8123682.13706  22743399.53406  -6307631.42647  22743395.86647      2934.89300
  11755872.55506  23025644.68306   9157687.41847  23025642.62047     -2844.00600
 08 11  4  1 29 29.9990000  0  9  3  6 13 16 19 21 23 25 31
 -21408585.63307  19813336.59707 -16648890.40249  19813334.42149      1270.77100
 -14621578.51607  20053827.90907 -11368222.37549  20053825.96449       178.50600
 -10032735.61307  22009924.61207  -7807992.09047  22009922.42947       591.22500
   1835964.81307  20916301.63607   1437444.07848  20916298.73348     -1176.29100
 -11216189.13307  21755070.32307  -8711032.28548  21755067.14748      3034.27900
  -4337277.08605  23636006.39405  -3374172.39146  23636003.85846      -233.45200
  -8434595.06307  21546185.24507  -6551464.90648  21546180.65948     -1167.06000
  -8211539.83606  22726680.55006  -6376091.95747  22726678.17947      2928.59000
  11841448.12906  23041929.30006   9224369.65247  23041927.70647     -2852.51900
 08 11  4  1 29 59.9990000  0  9  3  6 13 16 19 21 23 25 31
 -21446178.98007  19806183.01107 -16678183.91449  19806180.78049      1253.11200
 -14626445.10507  20052901.67507 -11372014.51249  20052899.64749       162.22000
 -10049845.27307  22006668.57307  -7821324.29347  22006666.34347       570.32200
   1871432.87507  20923051.13607   1465081.52348  20923048.16348     -1182.26900
 -11306862.09007  21737816.47907  -8781686.53148  21737812.46048      3022.43200
  -4329784.61705  23637432.61205  -3368334.12546  23637429.74946      -249.74900
  -8399025.28107  21552954.13607  -6523748.22348  21552949.81548     -1185.65900
  -8299208.90606  22709997.17506  -6444405.46947  22709995.45247      2922.30200
  11927275.08206  23058261.08106   9291247.76247  23058260.08147     -2860.89800
 08 11  4  1 30 29.9990000  0  9  3  6 13 16 19 21 23 25 31
 -21483247.32808  19799129.02608 -16707068.31349  19799126.65149      1235.61200
 -14630829.49607  20052067.61207 -11375430.91848  20052065.81248       146.14600
 -10066332.69907  22003530.90907  -7834171.64147  22003528.45647       549.58100
   1907074.98407  20929833.70607   1492854.57448  20929830.31548     -1188.07000
 -11397182.80507  21720628.83907  -8852066.28148  21720625.49948      3010.69000
  -4321808.19906  23638950.05806  -3362118.68846  23638946.93346      -265.88100
  -8362904.58207  21559827.22907  -6495602.23448  21559823.30448     -1204.02300
  -8386692.35906  22693350.19806  -6512574.38347  22693347.57347      2916.11500
  12013347.29306  23074641.25306   9358316.97347  23074638.42947     -2869.07400
 08 11  4  1 30 59.9990000  0  9  3  6 13 16 19 21 23 25 31
 -21519786.86707  19792175.77607 -16735540.68049  19792173.89049      1217.98500
 -14634728.05507  20051325.56507 -11378468.74249  20051323.74549       129.95200
 -10082193.94907  22000513.10407  -7846531.09447  22000510.62447       528.70800
   1942894.01207  20936649.72907   1520765.49648  20936646.77648     -1193.96800
 -11487146.09807  21703509.38607  -8922167.52748  21703505.52248      2998.77600
  -4313343.92206  23640560.67506  -3355523.15246  23640557.72246      -282.14300
  -8326231.49607  21566805.87807  -6467025.83648  21566801.65948     -1222.43600
  -8473984.37106  22676739.16706  -6580594.13747  22676736.30047      2909.73400
  12099666.94906  23091066.47906   9425578.98447  23091064.78047     -2877.32200
 08 11  4  1 31 29.9990000  0  9  3  6 13 16 19 21 23 25 31
 -21555796.43407  19785323.24507 -16763600.06649  19785321.22249      1200.31900
 -14638141.72307  20050676.55807 -11381128.73448  20050674.33948       113.78900
 -10097428.35207  21997613.82307  -7858402.07047  21997611.49947       507.81300
   1978890.39507  20943499.74507   1548814.61748  20943496.60148     -1199.87900
 -11576749.45707  21686458.44807  -8991988.30148  21686453.53448      2986.77900
  -4304390.89106  23642264.87806  -3348546.80546  23642262.07346      -298.43400
  -8289007.31307  21573889.48707  -6438019.99648  21573885.12848     -1240.80600
  -8561082.20306  22660164.87806  -6648462.58247  22660162.42547      2903.26100
  12186233.67606  23107539.62806   9493033.53547  23107539.06547     -2885.55800
 08 11  4  1 31 59.9990000  0  9  3  6 13 16 19 21 23 25 31
 -21591277.50407  19778571.44007 -16791247.63349  19778569.66749      1182.70200
 -14641072.34807  20050118.60407 -11383412.32448  20050116.28848        97.68800
 -10112036.84406  21994834.05006  -7869785.29747  21994831.85147       486.95000
   2015062.61307  20950383.08907   1577000.74248  20950379.85448     -1205.74100
 -11665992.26607  21669475.65107  -9061528.11748  21669472.13648      2974.76000
  -4294950.59805  23644061.51905  -3341190.73847  23644058.64447      -314.67600
  -8251235.08207  21581077.58907  -6408587.10248  21581073.21448     -1259.07400
  -8647984.73806  22643628.09706  -6716178.80547  22643625.30847      2896.75100
  12273044.48006  23124059.45606   9560678.28547  23124058.93347     -2893.69300
 08 11  4  1 32 29.9990000  0  9  3  6 13 16 19 21 23 25 31
 -21626231.60507  19771920.22907 -16818484.59449  19771917.67949      1165.13700
 -14643522.09807  20049652.00307 -11385321.20348  20049650.33948        81.65800
 -10126021.06307  21992173.46407  -7880682.09048  21992170.91748       466.14100
   2051408.56307  20957299.38607   1605322.25448  20957295.74548     -1211.53200
 -11754874.95707  21652562.23707  -9130787.34848  21652558.19448      2962.75600
  -4285024.77006  23645950.17506  -3333456.32447  23645947.50347      -330.86100
  -8212918.89806  21588369.08106  -6378730.35248  21588364.53848     -1277.20600
  -8734691.63307  22627128.37807  -6783742.58647  22627125.83947      2890.23000
  12360096.69506  23140625.24506   9628511.11747  23140624.12847     -2901.74000
 08 11  4  1 32 59.9990000  0  9  3  6 13 16 19 21 23 25 31
 -21660654.94507  19765369.42507 -16845307.97749  19765367.14449      1147.44500
 -14645488.69107  20049278.20607 -11386853.61749  20049276.43749        65.55300
 -10139377.67607  21989630.99507  -7891089.85547  21989629.37447       445.22000
   2087931.30107  20964249.39407   1633781.51648  20964246.08148     -1217.42500
 -11843392.02707  21635718.01107  -9199761.68048  21635713.90148      2950.56900
  -4274609.74606  23647931.86206  -3325340.74247  23647929.19847      -347.16700
  -8174057.05106  21595763.97906  -6348448.38748  21595759.83948     -1295.39500
  -8821197.10506  22610666.68306  -6851149.41448  22610664.79248      2883.51600
  12447392.59806  23157237.08106   9696533.84048  23157236.84348     -2909.86300
 08 11  4  1 33 29.9990000  0  9  3  6 13 16 19 21 23 25 31
 -21694548.28908  19758919.80008 -16871718.36349  19758918.12049      1129.77800
 -14646974.13707  20048995.05007 -11388011.10949  20048993.23349        49.51500
 -10152107.52307  21987208.94807  -7901009.22347  21987206.65547       424.32800
   2124629.20707  20971232.76107   1662377.28548  20971229.98348     -1223.26400
 -11931543.02007  21618942.91707  -9268450.73048  21618939.04648      2938.36600
  -4263706.72306  23650006.35406  -3316844.87147  23650004.69847      -363.43400
  -8134653.27007  21603262.19007  -6317744.14548  21603258.39748     -1313.45900
  -8907500.27007  22594243.90107  -6918398.60947  22594242.07347      2876.77200
  12534929.53106  23173895.12806   9764744.37148  23173894.26948     -2917.89800
 08 11  4  1 33 59.9990000  0  9  3  6 13 16 19 21 23 25 31
 -21727916.75807  19752569.89407 -16897719.74249  19752567.73749      1112.28200
 -14647983.75407  20048803.20607 -11388797.82448  20048800.71848        33.65400
 -10164214.79707  21984904.75307  -7910443.45747  21984901.77647       403.57600
   2161497.96107  20978248.56507   1691106.17648  20978245.57348     -1228.95800
 -12019330.53506  21602237.46406  -9336856.56648  21602233.88648      2926.25100
  -4252320.05506  23652173.70606  -3307972.15646  23652170.92146      -379.55600
  -8094713.39807  21610862.31507  -6286622.19548  21610858.23348     -1331.32900
  -8993602.95306  22577859.13606  -6985491.58647  22577857.71047      2870.08900
  12622702.08606  23190597.56506   9833138.52348  23190595.53048     -2925.75200
 08 11  4  1 34 29.9990000  0  9  3  6 13 16 19 21 23 25 31
 -21760755.78908  19746320.61208 -16923308.59049  19746318.44049      1094.63400
 -14648514.42607  20048702.16707 -11389211.31648  20048699.91748        17.68900
 -10175695.47307  21982719.91707  -7919389.44147  21982717.72947       382.68900
   2198541.06307  20985297.63607   1719970.91048  20985295.13648     -1234.77000
 -12106749.18807  21585602.15907  -9404974.98048  21585598.71448      2913.95500
  -4240445.71906  23654432.88606  -3298719.41447  23654431.07347      -395.81100
  -8054235.75006  21618565.23706  -6255081.21148  21618560.67948     -1349.25500
  -9079499.23406  22561513.26106  -7052423.74647  22561511.85147      2863.20900
  12710712.91806  23207345.90106   9901718.32448  23207344.08948     -2933.69400
 08 11  4  1 34 59.9990000  0  9  3  6 13 16 19 21 23 25 31
 -21793062.31307  19740173.18307 -16948482.50449  19740171.14049      1076.88400
 -14648564.33607  20048692.46407 -11389250.19549  20048690.98349         1.66400
 -10186547.27307  21980655.36207  -7927845.41047  21980652.61647       361.72700
   2235760.58207  20992380.21407   1748973.12148  20992377.90548     -1240.65100
 -12193794.65207  21569038.19007  -9472802.59848  21569034.46848      2901.51500
  -4228081.17606  23656785.69806  -3289084.74646  23656782.60846      -412.15100
  -8013220.32407  21626370.43307  -6223121.14848  21626365.71448     -1367.18100
  -9165184.14106  22545207.90906  -7119191.18047  22545206.81547      2856.16400
  12798963.23806  23224139.21406   9970484.75848  23224137.53048     -2941.67700
 08 11  4  1 35 29.9990000  0  9  3  6 13 16 19 21 23 25 31
 -21824844.73007  19734124.85407 -16973248.02349  19734123.26949      1059.41400
 -14648142.17207  20048772.84707 -11388921.23848  20048771.08948       -14.07200
 -10196777.81607  21978708.71407  -7935817.27047  21978705.28847       341.01800
   2273148.25807  20999495.24507   1778106.36348  20999492.27248     -1246.25600
 -12280472.59806  21552543.90106  -9540343.84848  21552539.76948      2889.26500
  -4215234.13306  23659230.68306  -3279074.04746  23659228.57346      -428.23500
  -7971676.62506  21634276.05806  -6190749.46548  21634270.97648     -1384.79000
  -9250663.10906  22528941.96406  -7185798.15647  22528940.23347      2849.29900
  12887443.99606  23240976.36206  10039430.77348  23240974.33948     -2949.35900
 08 11  4  1 35 59.9990000  0  9  3  6 13 16 19 21 23 25 31
 -21856099.96107  19728177.62007 -16997602.74249  19728175.37849      1041.84100
 -14647246.53507  20048943.26107 -11388223.34448  20048940.64448       -29.85500
 -10206384.87106  21976880.42506  -7943303.29347  21976876.82347       320.23500
   2310706.33207  21006642.15107   1807372.37948  21006638.71448     -1251.93600
 -12366779.36707  21536120.14407  -9607595.84848  21536115.72648      2876.89200
  -4201902.41806  23661768.15106  -3268685.67247  23661765.55047      -444.39000
  -7929604.23407  21642281.94007  -6157965.79348  21642277.87048     -1402.41300
  -9335931.72306  22512715.58906  -7252241.25047  22512712.72947      2842.28700
  12976156.40206  23257857.81506  10108557.26647  23257854.99147     -2957.08000
 08 11  4  1 36 29.9990000  0  9  3  6 13 16 19 21 23 25 31
 -21886833.32407  19722329.10407 -17021550.80149  19722326.89049      1024.44500
 -14645883.68407  20049203.12007 -11387161.36349  20049200.88249       -45.42800
 -10215373.71107  21975170.21407  -7950307.60247  21975167.80847       299.62800
   2348429.55507  21013820.74507   1836767.08648  21013817.92948     -1257.44100
 -12452718.58606  21519767.10406  -9674561.46148  21519762.75348      2864.64100
  -4188091.25806  23664395.75306  -3257923.77047  23664392.29647      -460.37200
  -7887010.85207  21650387.20607  -6124776.14848  21650383.88248     -1419.77900
  -9420992.88306  22496529.32306  -7318522.67647  22496527.32347      2835.37200
  13065093.79306  23274781.71406  10177859.08647  23274779.37447     -2964.58000
 08 11  4  1 36 59.9990000  0 10  3  6  7 13 16 19 21 23 25 31
 -21917040.54707  19716580.61207 -17045088.89149  19716578.75749      1006.90700
 -14644049.91407  20049551.49507 -11385732.43849  20049549.91749       -61.12600
   -115696.96914  23950741.55804    -65261.44956  23950741.43346         0.00000
 -10223739.51207  21973577.23707  -7956826.41447  21973576.24547       278.86000
   2386322.15207  21021031.44807   1866293.78548  21021028.39048     -1263.08700
 -12538283.79307  21503484.15907  -9741235.62548  21503480.22948      2852.17400
  -4173796.12506  23667116.62806  -3246784.75447  23667114.33547      -476.50400
  -7843893.88707  21658591.85407  -6091178.49648  21658587.81248     -1437.23200
  -9505839.60506  22480383.19006  -7384636.99647  22480381.88247      2828.22400
  13154259.35906  23291748.62006  10247338.67647  23291747.65947     -2972.18600
 08 11  4  1 37 29.9990000  0 10  3  6  7 13 16 19 21 23 25 31
 -21946727.35207  19710931.46407 -17068221.46949  19710929.73349       989.56000
 -14641751.48407  20049989.29207 -11383941.46148  20049986.74148       -76.61400
   -222101.29305  23930494.30005   -148173.85946  23930493.39046      3546.81100
 -10231488.31606  21972103.09706  -7962864.44147  21972100.00747       258.29300
   2424378.17607  21028273.38607   1895947.83248  21028270.11248     -1268.53400
 -12623478.51607  21487271.73707  -9807621.10948  21487267.48348      2839.82400
  -4159022.37906  23669927.26906  -3235272.68847  23669925.51947      -492.45800
  -7800261.59407  21666894.65907  -6057179.33648  21666890.22248     -1454.41000
  -9590475.30106  22464277.97906  -7450586.87947  22464276.03847      2821.19000
  13243646.54306  23308758.68306  10316990.97747  23308757.25747     -2979.57300
 08 11  4  1 37 59.9990000  0 10  3  6  7 13 16 19 21 23 25 31
 -21975894.24607  19705381.30007 -17090948.91049  19705379.37449       972.23000
 -14638990.35507  20050514.55807 -11381789.92248  20050511.74148       -92.03800
   -328442.55804  23910256.82304   -231037.11846  23910257.25746      3544.70900
 -10238620.75407  21970745.40907  -7968422.19947  21970742.60147       237.74800
   2462596.78907  21035545.72907   1925728.55948  21035542.45648     -1273.95400
 -12708302.42607  21471130.51107  -9873717.64548  21471126.07348      2827.46400
  -4143771.05506  23672829.99506  -3223388.53146  23672826.65546      -508.37700
  -7756116.80107  21675295.58907  -6022780.82048  21675290.74548     -1471.49300
  -9674898.19106  22448213.22906  -7516370.94148  22448210.88648      2814.09600
  13333253.18805  23325810.40105  10386814.31647  23325809.23347     -2986.88800
 08 11  4  1 38 29.9990000  0 10  3  6  7 13 16 19 21 23 25 31
 -22004536.59007  19699930.71407 -17113267.60949  19699928.94449       954.74500
 -14635763.13707  20051128.39407 -11379275.19549  20051126.05449      -107.57400
   -434714.05103  23890034.40903   -313846.04346  23890033.98346      3542.38300
 -10245132.86707  21969506.97207  -7973496.56647  21969504.29247       217.07000
   2500981.92207  21042850.62807   1955639.04348  21042847.42148     -1279.50400
 -12792749.37107  21455060.83107  -9939520.43848  21455056.95648      2814.89800
  -4128038.11706  23675823.70606  -3211129.10946  23675819.70246      -524.43100
  -7711457.13707  21683793.96407  -5987981.09848  21683790.23748     -1488.65500
  -9759101.83206  22432189.48706  -7581984.16447  22432187.40547      2806.78800
  13423082.35905  23342905.00305  10456811.00447  23342903.45247     -2994.30600
 08 11  4  1 38 59.9990000  0 10  3  6  7 13 16 19 21 23 25 31
 -22032655.21507  19694579.94807 -17135178.21549  19694577.83949       937.28800
 -14632071.44907  20051831.24507 -11376398.55149  20051829.63249      -123.05600
   -540914.87904  23869825.90104   -396599.89546  23869824.03446      3540.02800
 -10251025.22706  21968385.36206  -7978088.02347  21968383.58147       196.41200
   2539532.68807  21050186.01907   1985678.60248  21050183.23348     -1285.02600
 -12876818.74606  21439063.12806 -10005029.04348  21439058.96048      2802.31300
  -4111824.26606  23678908.88606  -3198494.94146  23678906.68746      -540.46200
  -7666285.80907  21692389.89407  -5952782.67248  21692385.65148     -1505.71100
  -9843084.54706  22416208.19806  -7647425.20348  22416207.12848      2799.42400
  13513131.79305  23360041.15105  10526979.34447  23360039.65147     -3001.64800
 08 11  4  1 39 29.9990000  0 10  3  6  7 13 16 19 21 23 25 31
 -22060247.26607  19689329.29207 -17156678.51249  19689327.42149       919.73500
 -14627913.18007  20052622.47907 -11373158.33248  20052620.42148      -138.60900
   -647039.31305  23849631.05005   -479294.26246  23849629.30046      3537.48100
 -10256295.26206  21967382.56506  -7982194.57447  21967379.51547       175.66800
   2578251.90207  21057554.47907   2015849.39548  21057550.74148     -1290.64000
 -12960505.69906  21423137.69806 -10070239.64148  21423134.12448      2789.56500
  -4095126.96506  23682086.26106  -3185484.00846  23682083.10146      -556.57700
  -7620602.00007  21701083.33107  -5917184.92248  21701079.40148     -1522.79400
  -9926841.00406  22400269.76906  -7712689.95348  22400267.92148      2791.88200
  13603403.43805  23377219.09705  10597320.81647  23377217.28847     -3009.05500
 08 11  4  1 39 59.9990000  0 10  3  6  7 13 16 19 21 23 25 31
 -22087317.68407  19684177.96407 -17177772.34049  19684176.02649       902.34700
 -14623294.52707  20053500.87807 -11369559.37549  20053498.89449      -153.95500
   -753090.31303  23829450.89403   -561931.41446  23829448.89046      3535.03300
 -10260948.14107  21966497.13607  -7985820.20347  21966493.58947       155.09600
   2617134.26207  21064953.20607   2046147.34048  21064950.46048     -1296.07900
 -13043813.54707  21407284.72207 -10135154.81648  21407281.28448      2776.92800
  -4077951.30106  23685354.63606  -3172100.38746  23685350.58946      -572.52200
  -7574412.79707  21709872.74507  -5881193.32448  21709869.20648     -1539.64000
 -10010373.80906  22384373.37806  -7777780.46947  22384370.96047      2784.42700
  13693890.77006  23394438.97906  10667830.38747  23394435.44047     -3016.24400
 08 11  4  1 40 29.9990000  0 10  3  6  7 13 16 19 21 23 25 31
 -22113866.84007  19679126.04207 -17198459.97749  19679124.26949       884.97200
 -14618216.07007  20054467.47907 -11365602.13748  20054465.55448      -169.28200
   -859065.66402  23809284.14402   -644509.55946  23809283.11646      3532.51200
 -10264984.01607  21965729.58107  -7988965.02047  21965727.25747       134.52900
   2656179.66407  21072383.19807   2076572.32848  21072380.90548     -1301.51300
 -13126740.73807  21391504.32307 -10199773.40248  21391499.87448      2764.24000
  -4060297.29706  23688713.42506  -3158344.03146  23688712.05846      -588.46700
  -7527720.34807  21718757.94807  -5844809.62148  21718753.67948     -1556.41500
 -10093680.63306  22368520.51106  -7842694.82848  22368519.06548      2776.89400
  13784592.72706  23411698.87806  10738507.21147  23411696.31947     -3023.39900
 08 11  4  1 40 59.9990000  0 10  3  6  7 13 16 19 21 23 25 31
 -22139890.02307  19674173.91707 -17218737.77049  19674172.19449       867.43900
 -14612674.58207  20055522.13607 -11361284.08649  20055520.03849      -184.71600
   -964958.43401  23789131.78401   -727023.26246  23789132.41746      3529.75900
 -10268398.35507  21965079.05807  -7991625.57447  21965077.97647       113.81100
   2695392.60207  21079845.43307   2107127.83648  21079842.91748     -1307.09800
 -13209280.85206  21375797.53406 -10264090.34848  21375793.31548      2751.33700
  -4042160.24206  23692166.10406  -3144211.28546  23692163.18346      -604.56800
  -7480522.70707  21727738.90107  -5808032.24248  21727734.42148     -1573.25500
 -10176754.35506  22352712.40906  -7907427.58648  22352710.94848      2769.12400
  13875512.87505  23429000.48705  10809354.05547  23428998.60147     -3030.67200
 08 11  4  1 41 29.9990000  0 10  3  6  7 13 16 19 21 23 25 31
 -22165398.36707  19669319.76907 -17238614.40649  19669317.68349       850.27800
 -14606682.24207  20056662.37007 -11356614.71949  20056660.47649      -199.74500
  -1070777.94504  23768995.48704   -809479.98046  23768995.35146      3527.31700
 -10271203.14807  21964545.76907  -7993811.12547  21964543.14447        93.49300
   2734761.36307  21087337.24507   2137804.77748  21087334.21848     -1312.29200
 -13291443.68806  21360162.27606 -10328113.28948  21360158.85148      2738.76100
  -4023551.65206  23695706.60406  -3129711.06346  23695700.92946      -620.28600
  -7432833.34407  21736814.26907  -5770871.72348  21736810.24548     -1589.64500
 -10259604.25406  22336946.69806  -7971985.94547  22336944.83947      2761.66300
  13966637.98806  23446340.49506  10880360.59847  23446339.11647     -3037.50400
 08 11  4  1 41 59.9990000  0 10  3  6  7 13 16 19 21 23 25 31
 -22190387.78507  19664564.34707 -17258086.66049  19664562.29249       832.98100
 -14600235.78507  20057888.60407 -11351591.49648  20057887.14048      -214.88200
  -1176517.19105  23748874.81505   -891874.18446  23748873.64446      3524.64200
 -10273394.24207  21964128.55007  -7995518.44147  21964125.83947        73.03600
   2774290.45307  21094859.63607   2168606.66048  21094856.38648     -1317.63600
 -13373223.57406  21344600.19006 -10391837.86748  21344596.21448      2725.99600
  -4004468.01605  23699338.33905  -3114840.71546  23699334.84746      -636.12100
  -7384650.41407  21745983.21407  -5733326.59448  21745979.08548     -1606.09800
 -10342223.54706  22321225.12806  -8036364.63347  22321222.72947      2753.97600
  14057971.21506  23463720.64406  10951529.29747  23463718.60847     -3044.44100
 08 11  4  1 42 29.9990000  0 10  3  6  7 13 16 19 21 23 25 31
 -22214861.66407  19659907.32307 -17277157.19949  19659905.25349       815.79600
 -14593339.20707  20059201.42507 -11346217.53548  20059199.72648      -229.88600
  -1282177.05106  23728768.30006   -974206.53147  23728767.63647      3521.99500
 -10274974.98406  21963827.86206  -7996750.24647  21963825.07347        52.69100
   2813976.47707  21102411.35407   2199530.83648  21102408.76948     -1322.86700
 -13454621.82806  21329110.39406 -10455265.05548  21329106.70648      2713.27500
  -3984911.91806  23703059.44806  -3099602.15646  23703058.53846      -651.87000
  -7335979.21907  21755245.31507  -5695400.98848  21755241.00348     -1622.37300
 -10424612.81306  22305547.24506  -8100564.05148  22305545.05848      2746.30900
  14149508.39106  23481139.40106  11022856.90247  23481138.19847     -3051.23900
 08 11  4  1 42 59.9990000  0 10  3  6  7 13 16 19 21 23 25 31
 -22238819.75407  19655347.91707 -17295825.83249  19655346.27249       798.60300
 -14585993.20307  20060599.15907 -11340493.37549  20060597.14749      -244.86700
  -1387754.70706  23708677.62006  -1056474.80147  23708676.66347      3519.25500
 -10275945.33607  21963643.60407  -7997506.37547  21963641.36647        32.34500
   2853819.68807  21109993.35407   2230577.48048  21109990.44048     -1328.10700
 -13535636.82406  21313693.93306 -10518393.59448  21313690.35148      2700.50000
  -3964883.53506  23706870.87006  -3083995.64146  23706866.91346      -667.61300
  -7286821.75007  21764599.45607  -5657096.49648  21764595.91348     -1638.58200
 -10506769.23006  22289912.63606  -8164582.00447  22289910.37047      2738.54700
  14241248.53906  23498596.84706  11094342.65647  23498595.96047     -3058.00500
 08 11  4  1 43 29.9990000  0 10  3  6  7 13 16 19 21 23 25 31
 -22262259.47307  19650887.41707 -17314090.54349  19650885.63249       781.32400
 -14578196.36307  20062082.99507 -11334417.92249  20062081.19049      -259.89500
  -1493245.77006  23688602.71406  -1138675.58647  23688602.44047      3516.36900
 -10276303.47707  21963575.01107  -7997785.43447  21963572.87447        11.93800
   2893822.16807  21117605.99507   2261748.24648  21117602.24148     -1333.41600
 -13616264.02306  21298351.26106 -10581219.98448  21298347.34748      2687.57300
  -3944380.88705  23710771.99505  -3068019.61346  23710768.12046      -683.42200
  -7237178.16007  21774046.43307  -5618413.21948  21774043.10448     -1654.78600
 -10588688.18806  22274324.19006  -8228414.93048  22274321.07748      2730.63200
  14333192.68405  23516093.40905  11165987.39147  23516092.95647     -3064.80500
 08 11  4  1 43 59.9990000  0 10  3  6  7 13 16 19 21 23 25 31
 -22285181.39507  19646525.87807 -17331951.77749  19646523.45649       764.06400
 -14569950.22707  20063652.36207 -11327992.35549  20063650.33949      -274.87100
  -1598648.40206  23668544.92506  -1220807.49246  23668544.73346      3513.42100
 -10276049.79706  21963623.59706  -7997587.77747  21963621.20247        -8.45600
   2933983.31607  21125247.76107   2293042.64848  21125245.10148     -1338.70500
 -13696502.53107  21283082.05807 -10643743.46148  21283078.24548      2674.61700
  -3923404.53106  23714764.77606  -3051674.39847  23714763.08947      -699.21200
  -7187050.83607  21783585.11207  -5579352.98448  21783581.14048     -1670.91100
 -10670367.57007  22258781.04207  -8292061.18448  22258778.05048      2722.64600
  14425339.28505  23533628.54205  11237789.83647  23533628.22647     -3071.55300
 08 11  4  1 44 29.9990000  0 10  3  6  7 13 16 19 21 23 25 31
 -22307586.92607  19642262.05807 -17349410.61749  19642259.96449       746.85100
 -14561256.47307  20065306.84707 -11321217.97748  20065304.38248      -289.79200
  -1703960.60205  23648504.80805  -1302868.93847  23648504.17147      3510.40700
 -10275185.91807  21963787.88607  -7996914.64847  21963784.81247       -28.79600
   2974302.60207  21132920.39407   2324460.25448  21132917.00348     -1343.97600
 -13776351.59407  21267887.02607 -10705963.48448  21267883.15148      2661.63500
  -3901954.96106  23718846.26106  -3034960.39546  23718844.48346      -714.98600
  -7136443.09407  21793215.83107  -5539918.38748  21793211.12048     -1686.92500
 -10751805.61706  22243283.94006  -8355519.39548  22243281.09748      2714.60200
  14517685.83606  23551201.48706  11309748.09047  23551200.39047     -3078.21800
 08 11  4  1 44 59.9990000  0 10  3  6  7 13 16 19 21 23 25 31
 -22329477.22707  19638096.46407 -17366467.98049  19638094.44849       729.67700
 -14552117.49207  20067045.64407 -11314096.69548  20067043.74548      -304.63300
  -1809181.62906  23628482.26906  -1384859.31647  23628481.40147      3507.36800
 -10273713.21907  21964067.99507  -7995767.09047  21964065.93347       -49.09000
   3014778.69907  21140622.93307   2356000.07048  21140619.30448     -1349.20300
 -13855810.83607  21252766.61207 -10767879.75448  21252762.87048      2648.64100
  -3880034.34006  23723017.15906  -3017879.42646  23723011.98746      -730.68700
  -7085358.57807  21802936.76907  -5500112.28548  21802932.43348     -1702.81700
 -10833001.14106  22227832.89406  -8418788.64148  22227830.03048      2706.51700
  14610230.21506  23568812.30806  11381860.51647  23568811.11247     -3084.81300
 08 11  4  1 45 29.9990000  0 10  3  6  7 13 16 19 21 23 25 31
 -22350847.12507  19634029.91707 -17383119.84449  19634027.97649       712.33000
 -14542529.13307  20068870.06507 -11306625.25448  20068868.30448      -319.61200
  -1914303.72706  23608478.60406  -1466772.60547  23608476.76947      3504.07000
 -10271627.02306  21964465.07306  -7994141.47747  21964462.80047       -69.54000
   3055416.52707  21148355.89407   2387665.91448  21148352.51548     -1354.59400
 -13934873.71907  21237721.33107 -10829487.18448  21237717.63248      2635.42900
  -3857637.79305  23727279.44005  -3000427.59446  23727274.78046      -746.55200
  -7033794.60907  21812748.66707  -5459932.57048  21812745.29648     -1718.79900
 -10913946.82006  22212429.50306  -8481863.18848  22212426.73348      2698.18900
  14702975.96506  23586461.40906  11454129.85947  23586460.17947     -3091.52500
 08 11  4  1 45 59.9990000  0 10  3  6  7 13 16 19 21 23 25 31
 -22371701.94507  19630061.31507 -17399370.34849  19630058.91749       695.16100
 -14532497.50007  20070779.15107 -11298808.39149  20070777.62449      -334.38800
  -2019329.50006  23588492.62806  -1548610.85547  23588490.49147      3500.85900
 -10268932.97707  21964978.00307  -7992042.21547  21964975.43747       -89.80200
   3096210.88707  21156118.75307   2419453.71148  21156115.36248     -1359.81200
 -14013543.64806  21222751.08906 -10890788.42648  21222746.90948      2622.33100
  -3834770.64806  23731631.15906  -2982609.03947  23731629.96047      -762.23800
  -6981758.67607  21822650.98707  -5419385.09448  21822647.10148     -1734.53100
 -10994645.05906  22197073.17506  -8544744.93848  22197071.05048      2689.94100
  14795916.96106  23604147.67506  11526551.34447  23604145.77247     -3098.03300
 08 11  4  1 46 29.9990000  0 10  3  6  7 13 16 19 21 23 25 31
 -22392039.46907  19626191.47907 -17415217.76249  19626189.14449       677.91700
 -14522021.27007  20072772.51907 -11290645.06648  20072770.73748      -349.20800
  -2124254.11305  23568525.35405  -1630370.23047  23568522.77247      3497.48700
 -10265629.10507  21965606.53407  -7989467.80547  21965603.49147      -110.12900
   3137164.18007  21163912.08107   2451365.33648  21163908.63648     -1365.11000
 -14091816.76207  21207856.21407 -10951780.43848  21207852.30448      2609.10400
  -3811429.57406  23736071.97206  -2964421.18046  23736069.41346      -778.03600
  -6929250.69107  21832643.24507  -5378469.79348  21832639.42948     -1750.26600
 -11075091.04706  22181764.97206  -8607430.11348  22181763.20248      2681.53300
  14889054.13706  23621870.85406  11599125.70347  23621869.08547     -3104.57300
 08 11  4  1 46 59.9990000  0 10  3  6  7 13 16 19 21 23 25 31
 -22411855.36308  19622420.75308 -17430658.70749  19622418.58149       660.53000
 -14511096.83607  20074851.89407 -11282132.52348  20074849.48348      -364.14800
  -2229070.51205  23548579.54205  -1712045.30546  23548576.23746      3493.88000
 -10261711.26206  21966351.76106  -7986414.95747  21966349.49547      -130.59500
   3178281.00407  21171735.92507   2483404.42648  21171732.94448     -1370.56100
 -14169686.60507  21193038.26907 -11012458.23048  21193034.77248      2595.66100
  -3787612.21905  23740604.22205  -2945862.19546  23740598.47646      -793.91200
  -6876268.44107  21842725.08907  -5337184.94948  21842721.11648     -1766.07500
 -11155277.66806  22166505.51106  -8669913.16048  22166503.81948      2672.88700
  14982390.79306  23639632.05806  11671855.47347  23639630.32747     -3111.22200
 08 11  4  1 47 29.9990000  0 10  3  6  7 13 16 19 21 23 25 31
 -22431150.72307  19618748.44807 -17445694.04349  19618746.41749       643.17900
 -14499726.52707  20077015.14407 -11273272.53948  20077013.62848      -379.01000
  -2333777.41405  23528654.97205  -1793635.09847  23528651.43747      3490.23000
 -10257181.24207  21967214.37007  -7982885.07847  21967212.08947      -151.00100
   3219560.20707  21179591.50307   2515570.02748  21179588.55448     -1375.97300
 -14247153.05106  21178296.49506 -11072821.68048  21178293.18348      2582.21500
  -3763319.26606  23745227.10406  -2926932.67246  23745224.07346      -809.76500
  -6822815.51207  21852897.43307  -5295533.34848  21852892.56548     -1781.76400
 -11235203.61706  22151296.27606  -8732193.10948  22151293.47648      2664.19800
  15075924.89106  23657431.05806  11744739.14147  23657428.64747     -3117.80300
 08 11  4  1 47 59.9990000  0 10  3  6  7 13 16 19 21 23 25 31
 -22449921.99207  19615176.86207 -17460321.00849  19615174.26149       625.70900
 -14487907.15607  20079264.65107 -11264062.64148  20079262.68348      -393.97900
  -2438368.64105  23508752.15905  -1875134.73047  23508748.30047      3486.37400
 -10252035.41807  21968193.43307  -7978875.33247  21968191.51147      -171.52700
   3261005.88707  21187477.93307   2547865.35548  21187475.58148     -1381.52300
 -14324210.43406  21163633.19806 -11132866.38348  21163628.72648      2568.57900
  -3738547.09406  23749941.83106  -2907629.65646  23749939.48346      -825.73900
  -6768890.35507  21863158.86207  -5253513.78148  21863154.54248     -1797.50500
 -11314862.27006  22136137.15906  -8794264.77748  22136135.21048      2655.28800
  15169658.69106  23675267.76106  11817778.41447  23675265.64047     -3124.46000
 08 11  4  1 48 29.9990000  0 10  3  6  7 13 16 19 21 23 25 31
 -22468167.10207  19611704.69807 -17474537.98049  19611702.21049       608.17000
 -14475637.70707  20081599.37807 -11254502.03148  20081597.05048      -408.98200
  -2542839.07804  23488872.21404  -1956540.22747  23488868.42947      3482.34800
 -10246272.11707  21969289.95607  -7974384.45347  21969287.32747      -192.11000
   3302620.09807  21195396.83107   2580292.00448  21195394.24548     -1387.14000
 -14400855.02007  21149048.41707 -11192589.43048  21149044.17548      2554.82000
  -3713293.72705  23754746.29205  -2887951.69946  23754743.32346      -841.77900
  -6714493.17207  21873510.47907  -5211126.36348  21873505.84348     -1813.23900
 -11394248.97306  22121030.65906  -8856124.53148  22121028.66748      2646.22300
  15263593.20306  23693143.47906  11890974.08247  23693140.97247     -3131.15000
 08 11  4  1 48 59.9990000  0 10  3  6  7 13 16 19 21 23 25 31
 -22485886.91407  19608332.47207 -17488345.61349  19608330.83949       590.66000
 -14462919.71507  20084019.55007 -11244591.90649  20084017.54649      -423.93300
  -2647186.53504  23469015.58104  -2037849.90647  23469012.12847      3478.24900
 -10239892.48006  21970503.78406  -7969413.32047  21970501.36247      -212.65500
   3344402.41807  21203348.29207   2612849.65248  21203344.81248     -1392.74400
 -14477085.85506  21134541.95606 -11251990.05948  21134537.79648      2541.02800
  -3687559.93406  23759644.08906  -2867899.48046  23759638.87446      -857.79300
  -6659627.00807  21883950.77607  -5168373.52348  21883947.18348     -1828.87200
 -11473361.64806  22105976.06506  -8917770.76648  22105973.96848      2637.08900
  15357726.69906  23711056.84706  11964324.77047  23711055.05847     -3137.78300
 08 11  4  1 49 29.9990000  0 10  3  6  7 13 16 19 21 23 25 31
 -22503088.32007  19605059.48707 -17501749.29749  19605057.32349       573.38000
 -14449760.89807  20086523.61207 -11234338.27048  20086521.74148      -438.62700
  -2751415.56305  23449180.76105  -2119067.32447  23449178.01547      3474.30100
 -10232903.80107  21971834.24507  -7963967.61747  21971831.80047      -232.95600
   3386346.18007  21211329.68307   2645533.09448  21211326.42548     -1398.12500
 -14552908.28106  21120113.43306 -11311072.44548  21120109.81248      2527.41400
  -3661352.69105  23764631.13605  -2847478.25446  23764629.44446      -873.57500
  -6604300.87907  21894478.79207  -5125262.27348  21894475.22948     -1844.20400
 -11552204.60206  22090973.09706  -8979206.82848  22090970.53448      2628.09800
  15452051.25006  23729006.37806  12037824.32847  23729004.07347     -3144.15200
 08 11  4  1 49 59.9990000  0 10  3  6  7 13 16 19 21 23 25 31
 -22519769.09007  19601884.95607 -17514747.30949  19601882.81949       556.02600
 -14436160.13307  20089111.47207 -11223740.27048  20089109.68748      -453.35900
  -2855521.22305  23429370.07305  -2200188.52047  23429367.84347      3470.18900
 -10225304.25406  21973280.33106  -7958045.91447  21973278.34347      -253.31800
   3428453.89507  21219342.55807   2678344.29348  21219338.42148     -1403.59000
 -14628318.21906  21105763.59706 -11369833.41848  21105760.00748      2513.66500
  -3634670.03106  23769709.15906  -2826686.49246  23769707.07346      -889.42200
  -6548514.80507  21905094.97907  -5081792.60548  21905090.88248     -1859.53600
 -11630772.82806  22076021.65106  -9040428.81648  22076019.57348      2618.94100
  15546567.61305  23746992.23705  12111473.34447  23746991.04647     -3150.54500
 08 11  4  1 50 29.9990000  0 10  3  6  7 13 16 19 21 23 25 31
 -22535931.06307  19598809.66707 -17527341.05149  19598807.47649       538.73200
 -14422119.96907  20091783.13607 -11212799.88748  20091780.98348      -468.00500
  -2959502.47705  23409583.51905  -2281212.83247  23409581.48747      3466.04200
 -10217096.32806  21974841.90906  -7951650.14847  21974839.18747      -273.59800
   3470723.96507  21227386.52607   2711281.98848  21227383.23348     -1409.00200
 -14703315.74607  21091492.13607 -11428273.04348  21091488.17148      2499.91800
  -3607514.30106  23774876.69806  -2805526.27346  23774872.32746      -905.19100
  -6492273.05107  21915796.94807  -5037967.87948  21915793.66748     -1874.72500
 -11709065.41006  22061123.36206  -9101436.01648  22061121.25748      2609.75300
  15641273.26206  23765013.94006  12185269.91447  23765013.14447     -3156.85500
 08 11  4  1 50 59.9990000  0 10  3  6  7 13 16 19 21 23 25 31
 -22551576.49207  19595832.72907 -17539532.28549  19595830.51949       521.51400
 -14407643.00807  20094537.90107 -11201519.12148  20094535.67948      -482.56500
  -3063358.54705  23389820.58905  -2362139.61747  23389817.42547      3461.86900
 -10208282.23807  21976519.10407  -7944782.05147  21976516.40547      -293.80300
   3513154.93806  21235460.51906   2744345.07448  21235458.02248     -1414.36600
 -14777901.01607  21077298.77607 -11486391.42648  21077294.44848      2486.17600
  -3579887.57005  23780133.10405  -2783998.99246  23780129.74546      -920.89100
  -6435579.81606  21926585.18306  -4993791.35547  21926581.08547     -1889.77400
 -11787081.34806  22046277.47206  -9162227.66848  22046275.33548      2600.53100
  15736165.29306  23783071.03406  12259211.69147  23783070.06947     -3163.06800
 08 11  4  1 51 29.9990000  0 10  3  6  7 13 16 19 21 23 25 31
 -22566704.67207  19592953.24507 -17551320.46949  19592951.57749       504.27300
 -14392729.74207  20097376.39407 -11189898.39549  20097374.19049      -497.10900
  -3167085.80105  23370081.52605  -2442966.05547  23370079.08547      3457.57500
 -10198861.80106  21978312.11206  -7937441.45747  21978309.67547      -314.01500
   3555747.49207  21243565.51907   2777534.06648  21243562.75348     -1419.75200
 -14852072.09407  21063184.25307 -11544187.05948  21063180.67148      2472.36900
  -3551789.25406  23785480.54206  -2762104.09847  23785479.05447      -936.61100
  -6378436.54707  21937460.00307  -4949264.16047  21937455.83547     -1904.77600
 -11864817.44506  22031484.49506  -9222801.23448  22031482.09748      2591.20300
  15831242.95306  23801163.52606  12333298.09047  23801162.92547     -3169.25500
 08 11  4  1 51 59.9990000  0 10  3  6  7 13 16 19 21 23 25 31
 -22581316.44507  19590173.16707 -17562706.27749  19590170.91749       487.05900
 -14377381.91407  20100296.83907 -11177939.04749  20100295.37849      -511.59400
  -3270682.49206  23350367.94806  -2523690.72347  23350365.21047      3453.22300
 -10188836.39806  21980219.83906  -7929629.44147  21980218.17547      -334.18000
   3598500.95307  21251701.33107   2810848.44148  21251698.62048     -1425.11500
 -14925827.89107  21049149.58907 -11601659.10948  21049146.02648      2458.52700
  -3523220.28906  23790917.14406  -2739842.59047  23790915.74947      -952.29900
  -6320846.41007  21948418.85407  -4904388.77748  21948415.05848     -1919.67100
 -11942271.75806  22016746.01906  -9283155.24648  22016743.19448      2581.81000
  15926504.51606  23819291.36206  12407527.78947  23819290.27247     -3175.38500
 08 11  4  1 52 29.9990000  0 10  3  6  7 13 16 19 21 23 25 31
 -22595413.46907  19587490.55807 -17573690.96949  19587488.50749       469.90100
 -14361601.93807  20103299.69807 -11165642.96549  20103297.86649      -525.99900
  -3374147.26606  23330678.83106  -2604312.59447  23330677.48347      3448.82600
 -10178208.25406  21982242.38606  -7921347.77347  21982240.18747      -354.27100
   3641414.16407  21259867.75307   2844287.29748  21259864.03848     -1430.44000
 -14999168.35907  21035192.46407 -11658807.50848  21035188.98348      2444.68200
  -3494182.56606  23796442.83106  -2717215.82846  23796438.69846      -967.92400
  -6262813.46507  21959462.03407  -4859168.33648  21959457.85848     -1934.43200
 -12019443.17206  22002060.30806  -9343288.79748  22002057.58148      2572.38000
  16021946.88306  23837453.77606  12481898.38747  23837452.40947     -3181.41200
 08 11  4  1 52 59.9990000  0 10  3  6  7 13 16 19 21 23 25 31
 -22608999.77307  19584904.87807 -17584277.69549  19584902.58149       452.87700
 -14345394.35207  20106383.68307 -11153013.67649  20106381.51149      -540.25300
  -3477480.89806  23311015.05006  -2684832.27747  23311013.39447      3444.45400
 -10166981.46106  21984378.71406  -7912599.66047  21984375.64447      -374.22600
   3684483.52707  21268063.24507   2877847.82848  21268060.61248     -1435.64500
 -15072095.43407  21021315.19007 -11715633.79348  21021310.93748      2430.90200
  -3464680.23006  23802056.90106  -2694227.02347  23802054.76947      -983.41100
  -6204343.76207  21970588.62007  -4813607.56348  21970584.46848     -1948.99000
 -12096332.49206  21987428.58106  -9403202.55148  21987425.86648      2562.97700
  16117565.75806  23855649.49506  12556406.54747  23855648.24147     -3187.29600
 08 11  4  1 53 29.9990000  0 10  3  6  7 13 16 19 21 23 25 31
 -22622071.53508  19582417.86208 -17594463.47749  19582415.24149       435.72500
 -14328756.27007  20109549.83107 -11140048.91848  20109548.11248      -554.60300
  -3580676.57406  23291377.64406  -2765244.48047  23291375.90547      3439.85600
 -10155152.77706  21986629.51906  -7903382.52047  21986625.92147      -394.28900
   3727713.59007  21276289.67507   2911533.57448  21276287.26148     -1441.00200
 -15144603.64507  21007517.58107 -11772133.67248  21007513.53048      2416.94000
  -3434709.44105  23807759.59705  -2670873.14146  23807758.00346      -999.02600
  -6145435.58607  21981798.33107  -4767705.11348  21981794.74548     -1963.60600
 -12172933.02306  21972851.78406  -9462891.27748  21972849.55848      2553.35100
  16213363.78106  23873880.40106  12631054.27047  23873878.39447     -3193.26700
 08 11  4  1 53 59.9990000  0 10  3  6  7 13 16 19 21 23 25 31
 -22634630.94907  19580027.50307 -17604250.02349  19580024.93749       418.64700
 -14311690.60507  20112797.33107 -11126750.99248  20112795.47248      -568.85500
  -3683733.76606  23271766.80006  -2845548.78147  23271765.09347      3435.24000
 -10142724.50006  21988994.01106  -7893698.15647  21988992.27247      -414.27600
   3771102.76607  21284546.43307   2945343.32048  21284543.91748     -1446.30600
 -15216693.33207  20993799.47907 -11828307.44948  20993795.62848      2402.99000
  -3404272.66805  23813551.53405  -2647156.21146  23813548.55446     -1014.55900
  -6086093.25807  21993090.91707  -4721464.32848  21993087.48748     -1978.07800
 -12249243.95307  21958330.56507  -9522354.32048  21958328.52248      2543.69800
  16309337.84806  23892143.13606  12705839.15647  23892141.55847     -3199.13600
 08 11  4  1 54 29.9990000  0 10  3  6  7 13 16 19 21 23 25 31
 -22646680.01207  19577735.06507 -17613638.90249  19577732.33149       401.63500
 -14294200.18407  20116125.57307 -11113122.10548  20116123.81948      -583.01400
  -3786651.44906  23252181.83906  -2925744.36747  23252179.48347      3430.58900
 -10129699.68807  21991473.10407  -7883548.98047  21991471.33147      -434.16000
   3814649.07407  21292832.89407   2979275.48848  21292830.18348     -1451.54400
 -15288364.90607  20980160.69007 -11884155.41448  20980156.56948      2389.05200
  -3373371.81306  23819431.42506  -2623077.62547  23819429.06247     -1030.02900
  -6026321.07007  22004465.25307  -4674888.60548  22004460.80448     -1992.40600
 -12325264.53507  21943864.70607  -9581591.15248  21943862.40548      2534.01900
  16405484.91006  23910439.55806  12780758.86347  23910437.31547     -3204.90200
 08 11  4  1 54 59.9990000  0 10  3  6  7 13 16 19 21 23 25 31
 -22658218.17607  19575539.08907 -17622629.67649  19575536.94849       384.60500
 -14276285.36307  20119534.72907 -11099162.50849  20119532.56949      -597.16100
  -3889426.61305  23232624.76105  -3005828.91047  23232622.40947      3425.83900
 -10116078.34806  21994065.37006  -7872934.94947  21994062.81547      -454.04500
   3858353.48407  21301149.56507   3013330.85948  21301146.96848     -1456.81400
 -15359616.18807  20966602.30007 -11939675.88348  20966597.58948      2375.04300
  -3342006.86306  23825400.24506  -2598637.41447  23825398.39447     -1045.49800
  -5966120.78907  22015921.09707  -4627979.34848  22015916.74548     -2006.67600
 -12400991.39507  21929454.11207  -9640599.09048  21929451.85848      2524.22900
  16501804.39506  23928767.55006  12855812.94147  23928767.40947     -3210.64900
 08 11  4  1 55 29.9990000  0 10  3  6  7 13 16 19 21 23 25 31
 -22669246.72707  19573440.37007 -17631223.35549  19573438.28449       367.61800
 -14257947.96107  20123024.13607 -11084873.60949  20123022.24949      -611.24700
  -3992056.41405  23213093.84705  -3085800.16047  23213092.79247      3420.99300
 -10101861.72306  21996770.14406  -7861857.07847  21996767.46847      -473.88700
   3902215.44507  21309496.29207   3047509.01648  21309493.05448     -1462.06500
 -15430446.46907  20953123.38607 -11994868.29749  20953119.73749      2361.00900
  -3310179.13306  23831457.40106  -2573836.59047  23831454.85147     -1060.92400
  -5905495.57807  22027457.80807  -4580738.93448  22027453.46848     -2020.84000
 -12476422.71106  21915099.72906  -9699376.72748  21915096.85848      2514.37700
  16598294.26205  23947129.81505  12930999.73846  23947129.42146     -3216.32900
 08 11  4  1 55 59.9990000  0  9  3  6  7 13 16 19 21 23 25
 -22679764.07007  19571438.90907 -17639418.67649  19571436.53049       350.57800
 -14239186.68807  20126594.37807 -11070254.45349  20126592.73749      -625.37600
  -4094536.47705  23193593.53405  -3165654.69947  23193591.65947      3416.00200
 -10087048.59806  21999589.77606  -7850314.38347  21999588.34747      -493.77100
   3946237.70307  21317873.46407   3081812.05548  21317870.60848     -1467.40900
 -15500851.92207  20939725.37007 -12049729.67648  20939722.29248      2346.84800
  -3277886.89806  23837602.31506  -2548673.83247  23837598.57347     -1076.40800
  -5844446.30907  22039075.30007  -4533168.12147  22039070.64447     -2034.97600
 -12551553.44907  21900803.16707  -9757920.15648  21900800.39748      2504.35800
 08 11  4  1 56 29.9990000  0  9  3  6  7 13 16 19 21 23 25
 -22689770.05907  19569534.89407 -17647215.53948  19569532.62448       333.53300
 -14220003.09407  20130245.03407 -11055306.19948  20130242.80048      -639.45300
  -4196863.98405  23174121.23705  -3245390.38347  23174119.26147      3410.91700
 -10071639.95306  22002521.58906  -7838307.65647  22002519.86647      -513.62100
   3990419.89107  21326281.19807   3116239.72348  21326277.80848     -1472.74000
 -15570831.61707  20926408.90907 -12104259.28948  20926404.91748      2332.65700
  -3245130.69906  23843836.05806  -2523149.55147  23843833.32747     -1091.87300
  -5782975.37106  22050772.38606  -4485268.71947  22050768.67147     -2049.03100
 -12626381.33207  21886563.69807  -9816227.57448  21886561.90548      2494.26300
 08 11  4  1 56 59.9990000  0  9  3  6  7 13 16 19 21 23 25
 -22699267.77707  19567727.80807 -17654616.35549  19567725.64749       316.59100
 -14200400.19507  20133975.38607 -11040031.21948  20133973.41748      -653.43000
  -4299038.17606  23154678.27606  -3325006.58647  23154676.12047      3405.80600
 -10055638.60906  22005566.91706  -7825839.09047  22005564.58547      -533.37800
   4034760.39107  21334718.76107   3150790.77048  21334715.97948     -1478.01700
 -15640385.95707  20913172.93307 -12158457.46548  20913168.91348      2318.47800
  -3211913.00006  23850156.49506  -2497265.62147  23850155.32347     -1107.25700
  -5721087.09006  22062548.72206  -4437044.06647  22062546.10447     -2062.94300
 -12700905.60207  21872382.34707  -9874298.41448  21872379.95648      2484.14200
 08 11  4  1 57 29.9990000  0  9  3  6  7 13 16 19 21 23 25
 -22708250.71507  19566018.22207 -17661616.04749  19566016.23349       299.43100
 -14180372.36307  20137786.06507 -11024425.11348  20137784.51548      -667.59400
  -4401049.82006  23135265.94806  -3404496.16847  23135263.94847      3400.38800
 -10039039.14506  22008725.27606  -7812904.49647  22008722.56247      -553.31500
   4079266.02307  21343188.37007   3185470.43848  21343185.12848     -1483.52100
 -15709506.85907  20900020.13607 -12212317.89548  20900015.93348      2304.03000
  -3178227.75806  23856567.30006  -2471017.37546  23856563.70646     -1122.84100
  -5658777.42606  22074406.61206  -4388491.07047  22074403.58947     -2076.98900
 -12775116.97307  21858260.37007  -9932125.48048  21858257.72948      2473.71200
 08 11  4  1 57 59.9990000  0  9  3  6  7 13 16 19 21 23 25
 -22716721.98807  19564406.21407 -17668217.02749  19564404.23349       282.37600
 -14159923.62507  20141677.65907 -11008491.03948  20141675.99148      -681.62500
  -4502899.03505  23115884.01105  -3483859.15247  23115882.32747      3394.97400
 -10021845.21906  22011996.97206  -7799506.64547  22011995.10447      -573.13100
   4123933.84007  21351688.37007   3220276.52048  21351684.81948     -1488.92700
 -15778195.91807  20886948.87007 -12265841.81648  20886945.11648      2289.63500
  -3144078.53106  23863065.00306  -2444407.65246  23863060.97246     -1138.30800
  -5596052.04307  22086342.96407  -4339614.18447  22086339.39447     -2090.84600
 -12849015.75007  21844197.83907  -9989708.94148  21844195.44848      2463.29300
 08 11  4  1 58 29.9990000  0  9  3  6  7 13 16 19 21 23 25
 -22724685.92207  19562890.92507 -17674422.67648  19562888.29648       265.46400
 -14139058.73807  20145648.31507 -10992232.68049  20145646.43349      -695.49600
  -4604586.42605  23096533.50305  -3563096.05947  23096532.35847      3389.58000
 -10004061.35206  22015381.33106  -7785649.09047  22015380.03847      -592.79600
   4168760.92607  21360218.34707   3255206.69148  21360215.53048     -1494.23600
 -15846455.19107  20873959.63607 -12319030.85948  20873955.57348      2275.30900
  -3109469.32406  23869651.25306  -2417439.42247  23869647.77247     -1153.64000
  -5532916.93807  22098356.92507  -4290418.03947  22098352.62047     -2104.50400
 -12922602.79707  21830194.68307 -10047049.48448  21830192.77648      2452.90200
 08 11  4  1 58 59.9990000  0  9  3  6  7 13 16 19 21 23 25
 -22732141.77707  19561471.44807 -17680232.42649  19561469.08549       248.52900
 -14117777.64507  20149697.50307 -10975650.01248  20149695.77248      -709.37000
  -4706107.91805  23077214.79205  -3642203.70747  23077212.70247      3384.05000
  -9985687.38706  22018878.12806  -7771331.69547  22018876.73347      -612.46500
   4213748.71507  21368779.37807   3290262.09048  21368776.83148     -1499.59300
 -15914282.44107  20861052.12007 -12371883.23448  20861047.56948      2260.90800
  -3074399.42206  23876324.38606  -2390112.22347  23876322.30447     -1168.99700
  -5469373.53506  22110448.98706  -4240903.72347  22110444.46847     -2118.11300
 -12995874.16807  21816251.73707 -10104144.05548  21816249.71048      2442.37900
 08 11  4  1 59 29.9990000  0  9  3  6  7 13 16 19 21 23 25
 -22739094.77007  19560148.81507 -17685650.34849  19560146.40549       231.76600
 -14096086.55107  20153825.47907 -10958747.87548  20153823.58548      -723.03600
  -4807465.96905  23057926.66705  -3721183.98047  23057925.22647      3378.60200
  -9966729.29306  22022485.00306  -7756559.17247  22022482.52647      -631.93600
   4258892.31307  21377369.86207   3325438.93048  21377366.78448     -1504.78700
 -15981681.00407  20848226.68307 -12424401.58248  20848222.76948      2246.61900
  -3038874.84006  23883084.56506  -2362430.75447  23883082.53847     -1184.15300
  -5405429.60907  22122617.24507  -4191077.30547  22122612.88647     -2131.46400
 -13068832.51207  21802368.30807 -10160994.70748  21802365.87848      2431.94500
 08 11  4  1 59 59.9990000  0  9  3  6  7 13 16 19 21 23 25
 -22745542.51207  19558921.73707 -17690674.55149  19558919.70249       214.92500
 -14073983.72307  20158031.51907 -10941524.89549  20158029.98349      -736.76100
  -4908654.92605  23038670.68305  -3800032.48847  23038668.89747      3372.96500
  -9947185.11306  22026204.70606  -7741329.97747  22026201.99947      -651.47300
   4304194.74607  21385990.80807   3360739.50848  21385987.73348     -1510.08100
 -16048646.88307  20835483.83907 -12476582.77748  20835479.77248      2232.19600
  -3002893.05106  23889931.79206  -2334392.99647  23889929.09747     -1199.39300
  -5341084.66407  22134861.87807  -4140938.40648  22134857.26148     -2144.83200
 -13141472.14507  21788545.17507 -10217597.00448  21788542.58148      2421.32100
 08 11  4  2  0 29.9990000  0 10  3  6  7 13 16 19 21 23 25 27
 -22751489.99607  19557789.79207 -17695308.94949  19557787.67549       198.24900
 -14051474.46907  20162314.98707 -10923985.21548  20162312.83148      -750.30800
  -5009676.12905  23019447.95605  -3878750.28547  23019445.88647      3367.37300
  -9927060.55906  22030034.58106  -7725648.51647  22030031.51947      -670.81800
   4349651.88307  21394641.02607   3396160.67648  21394637.80448     -1515.23800
 -16115183.18407  20822821.84707 -12528429.24248  20822817.90948      2217.87700
  -2966459.09006  23896865.01106  -2306002.91847  23896862.54647     -1214.46500
  -5276345.73007  22147181.01907  -4090492.52048  22147176.60848     -2157.96400
 -13213794.73807  21774782.94807 -10273952.25848  21774780.22948      2410.75300
   -106674.36314  24424515.11204    -57460.50656  24424515.03046         0.00000
 08 11  4  2  0 59.9990000  0 10  3  6  7 13 16 19 21 23 25 27
 -22756939.68807  19556753.13607 -17699555.48049  19556750.52649       181.65600
 -14028562.12107  20166674.70607 -10906131.43449  20166673.13249      -763.74500
  -5110528.98806  23000256.26106  -3957336.89147  23000253.80447      3361.76200
  -9906358.63306  22033973.87006  -7709517.16847  22033971.97647      -690.06400
   4395261.80107  21403320.30807   3431700.85248  21403317.21848     -1520.33100
 -16181290.64507  20810241.72907 -12579941.52348  20810238.53048      2203.58200
  -2929575.66806  23903883.27606  -2277262.62546  23903881.12846     -1229.44700
  -5211217.59007  22159574.37807  -4039743.33248  22159570.90948     -2170.93800
 -13285799.82007  21761080.68307 -10330060.10948  21761078.67548      2400.16900
   -205376.98404  24405732.22904   -134371.61346  24405732.84346      3290.08700
 08 11  4  2  1 29.9990000  0 10  3  6  7 13 16 19 21 23 25 27
 -22761895.87907  19555810.01107 -17703417.44948  19555807.22248       165.20600
 -14005252.10207  20171110.48707 -10887967.78948  20171108.67948      -777.00100
  -5211214.78106  22981095.72906  -4035793.32047  22981093.38647      3356.19300
  -9885084.66406  22038022.04206  -7692940.05147  22038019.43347      -709.13200
   4441020.66807  21412027.68307   3467357.10248  21412024.78048     -1525.29600
 -16246971.93807  20797743.63607 -12631121.74649  20797740.31949      2189.37600
  -2892247.51605  23910987.03405  -2248175.75046  23910982.97646     -1244.27200
  -5145707.27007  22172040.30807  -3988696.35548  22172036.47948     -2183.67700
 -13357488.84007  21747438.56507 -10385921.67248  21747436.81548      2389.63400
   -304030.00004  24386959.34704   -211244.05146  24386959.81246      3288.43400
 08 11  4  2  1 59.9990000  0 10  3  6  7 13 16 19 21 23 25 27
 -22766363.12507  19554959.97207 -17706898.40649  19554957.12849       148.90800
 -13981548.92607  20175621.47207 -10869497.78549  20175619.36649      -790.10600
  -5311733.89506  22961968.21406  -4114119.87547  22961965.54647      3350.63700
  -9863242.90606  22042177.97906  -7675920.51247  22042175.70647      -728.05900
   4486926.02707  21420763.38607   3503127.50048  21420760.21048     -1530.17900
 -16312228.98407  20785325.81507 -12681971.39849  20785322.26549      2175.23500
  -2854478.62906  23918174.09706  -2218745.53946  23918171.25346     -1258.96300
  -5079820.09007  22184578.35407  -3937355.76648  22184573.64748     -2196.23900
 -13428862.41407  21733856.78407 -10441537.43848  21733854.64448      2379.11900
   -402634.17603  24368194.93303   -288078.41446  24368195.78446      3286.80600
 08 11  4  2  2 29.9990000  0 10  3  6  7 13 16 19 21 23 25 27
 -22770342.77707  19554202.26907 -17709999.43849  19554199.85449       132.65500
 -13957454.87507  20180206.10407 -10850723.18849  20180204.17949      -803.13500
  -5412084.85906  22942872.10406  -4192315.40247  22942868.89447      3345.03200
  -9840836.07406  22046442.30806  -7658460.65647  22046439.31547      -746.89400
   4532976.16007  21429526.58907   3539010.68848  21429523.06948     -1535.00400
 -16377062.19907  20772988.47907 -12732490.77748  20772984.37048      2161.10700
  -2816271.23005  23925444.33105  -2188973.55146  23925443.03846     -1273.58000
  -5013560.52307  22197187.22907  -3885724.97348  22197183.69448     -2208.65200
 -13499919.34807  21720334.96407 -10496906.48848  21720332.59748      2368.56400
   -501188.71103  24349440.15103   -364874.15246  24349441.25346      3285.15100
 08 11  4  2  2 59.9990000  0 10  3  6  7 13 16 19 21 23 25 27
 -22773831.15607  19553538.81507 -17712717.67249  19553536.39749       116.27900
 -13932966.99207  20184866.00307 -10831641.73849  20184864.06949      -816.26300
  -5512260.50806  22923808.52606  -4270374.31647  22923806.26947      3339.18800
  -9817861.03506  22050814.12806  -7640558.04747  22050812.15547      -765.83500
   4579175.69107  21438318.07307   3575010.31348  21438315.01548     -1539.98400
 -16441465.91807  20760732.96407 -12782675.48048  20760728.19448      2146.79100
  -2777621.47705  23932799.57305  -2158856.84046  23932796.96846     -1288.32500
  -4946926.72707  22209867.33107  -3833802.55148  22209863.73748     -2221.12700
 -13570652.58207  21706874.81507 -10552023.28548  21706872.78048      2357.77400
   -599686.74603  24330697.38603   -441625.91446  24330697.10146      3283.26800
 08 11  4  2  3 29.9990000  0 10  3  6  7 13 16 19 21 23 25 27
 -22776828.89807  19552968.33107 -17715053.56649  19552966.05449        99.92500
 -13908086.45707  20189600.87007 -10812254.30948  20189598.74548      -829.35100
  -5612257.86706  22904780.33906  -4348294.31347  22904777.69447      3333.24500
  -9794318.91006  22055294.09706  -7622213.55947  22055292.22647      -784.73700
   4625525.01607  21447137.82307   3611126.68048  21447135.05048     -1544.97700
 -16505438.80507  20748559.08107 -12832524.47748  20748554.80848      2132.43000
  -2738530.26606  23940238.39406  -2128396.20746  23940234.25346     -1303.04000
  -4879921.50807  22222617.99507  -3781590.75048  22222614.35448     -2233.50700
 -13641059.55907  21693477.15107 -10606885.85548  21693474.22948      2346.89900
   -698126.12904  24311964.13604   -518331.88346  24311964.17546      3281.31300
 08 11  4  2  3 59.9990000  0 10  3  6  7 13 16 19 21 23 25 27
 -22779337.85207  19552490.78407 -17717008.58249  19552488.66349        83.63200
 -13882815.66007  20194409.88607 -10792562.77349  20194407.57749      -842.36000
  -5712075.39506  22885785.64406  -4426074.19547  22885782.22947      3327.25100
  -9770211.88306  22059881.44006  -7603428.86747  22059879.10447      -803.56800
   4672023.33207  21455985.98707   3647359.12148  21455982.91748     -1549.94400
 -16568980.91407  20736467.28407 -12882037.79748  20736463.46048      2118.07000
  -2698999.25805  23947760.73705  -2097592.85946  23947757.19446     -1317.70000
  -4812548.54707  22235438.47207  -3729092.36348  22235435.47248     -2245.76500
 -13711138.71907  21680141.38607 -10661492.98848  21680138.47948      2335.97200
   -796505.56303  24293242.90103   -594991.19945  24293243.35445      3279.31400
 08 11  4  2  4 29.9990000  0 10  3  6  7 13 16 19 21 23 25 27
 -22781355.91407  19552106.44007 -17718581.09049  19552104.66749        67.26900
 -13857153.27007  20199292.80807 -10772566.10948  20199291.10148      -855.41300
  -5811707.70706  22866825.90106  -4503709.75847  22866823.72247      3321.07700
  -9745538.88706  22064576.92506  -7584203.18847  22064573.60847      -822.43300
   4718673.23807  21464863.08107   3683709.68448  21464860.58948     -1554.99700
 -16632088.75007  20724458.35407 -12931212.73848  20724454.86248      2103.59500
  -2659026.94905  23955367.69805  -2066445.60546  23955364.30846     -1332.41000
  -4744808.14107  22248329.05007  -3676307.68048  22248325.57748     -2258.01400
 -13780884.90607  21666869.28407 -10715840.65248  21666865.69048      2324.87300
   -894820.09802  24274534.76902   -671599.85545  24274533.94045      3277.15100
 08 11  4  2  4 59.9990000  0 10  3  6  7 13 16 19 21 23 25 27
 -22782880.04307  19551816.29207 -17719768.73848  19551814.65148        50.80400
 -13831096.43407  20204251.42507 -10752262.09448  20204249.52248      -868.56100
  -5911148.02006  22847903.22906  -4581195.71947  22847900.65147      3314.67700
  -9720297.21906  22069380.44806  -7564534.34047  22069377.54647      -841.38900
   4765479.28507  21473770.41707   3720181.92248  21473767.96448     -1560.20200
 -16694756.96507  20712532.97907 -12980045.10949  20712529.12849      2088.94000
  -2618609.99206  23963058.11206  -2034951.85546  23963057.35446     -1347.23200
  -4676699.10907  22261289.92507  -3623235.73047  22261285.62047     -2270.30100
 -13850291.61307  21653661.53407 -10769923.80148  21653658.47648      2313.55700
   -993063.37104  24255840.22204   -748153.01646  24255837.12046      3274.77600
 08 11  4  2  5 29.9990000  0 10  3  6  7 13 16 19 21 23 25 27
 -22783909.32807  19551621.14407 -17720570.77749  19551618.67549        34.31000
 -13804645.16007  20209285.23707 -10731650.70348  20209282.58548      -881.70900
  -6010391.85206  22829017.72206  -4658528.55547  22829015.68347      3308.12800
  -9694486.99606  22074291.97906  -7544422.49247  22074289.27647      -860.34100
   4812442.87907  21482707.02607   3756776.91048  21482704.64448     -1565.45300
 -16756982.81307  20700692.07307 -13028532.77748  20700687.71848      2074.19500
  -2577747.90205  23970834.60405  -2003111.28946  23970831.50746     -1362.07000
  -4608222.73007  22274320.83107  -3569877.52347  22274316.78847     -2282.54600
 -13919354.86707  21640519.12807 -10823739.32848  21640516.24948      2302.10800
  -1091231.63305  24237159.82305   -824647.75846  24237155.61646      3272.27500
 08 11  4  2  5 59.9990000  0 10  3  6  7 13 16 19 21 23 25 27
 -22784445.89807  19551519.04207 -17720988.88349  19551516.51549        17.88600
 -13777802.34407  20214393.08107 -10710734.22348  20214390.78048      -894.76100
  -6109438.18006  22810169.91706  -4735707.51247  22810167.42947      3301.54400
  -9668111.28506  22079310.88606  -7523869.98047  22079308.74947      -879.19000
   4859562.71507  21491674.00307   3793493.62548  21491670.10848     -1570.66100
 -16818766.98007  20688934.27607 -13076676.26649  20688930.54649      2059.47200
  -2536443.04305  23978693.83905  -1970925.73046  23978690.14046     -1376.82900
  -4539383.32807  22287420.13607  -3516236.41847  22287416.82747     -2294.64700
 -13988073.71907  21627442.53407 -10877286.49248  21627439.66748      2290.62800
  -1189324.38306  24218493.32306   -901083.64846  24218489.89446      3269.75800
 08 11  4  2  6 29.9990000  0 10  3  6  7 13 16 19 21 23 25 27
 -22784485.36307  19551510.72907 -17721019.64148  19551508.83548         1.31500
 -13750563.99207  20219576.30807 -10689509.53949  20219574.34749      -907.94500
  -6208279.03506  22791360.95606  -4812726.37547  22791357.84747      3294.69500
  -9641166.12906  22084438.44006  -7502873.76647  22084435.60847      -898.17200
   4906844.10907  21500671.09707   3830336.26248  21500667.74548     -1576.04600
 -16880103.40207  20677262.54207 -13124470.86348  20677258.51548      2044.54700
  -2494691.33605  23986640.16705  -1938391.94946  23986637.22946     -1391.72400
  -4470178.62907  22300589.79207  -3462310.70347  22300585.40947     -2306.82300
 -14056440.37907  21614432.98707 -10930559.21948  21614429.71448      2278.88900
  -1287333.96106  24199843.01906   -977454.70346  24199839.80046      3266.98600
 08 11  4  2  6 59.9990000  0 10  3  6  7 13 16 19 21 23 25 27
 -22784032.55507  19551597.51107 -17720666.82049  19551594.85849       -15.09400
 -13722935.10207  20224834.08107 -10667980.55149  20224832.40149      -920.96300
  -6306914.79706  22772590.98706  -4889585.36747  22772588.08147      3287.85900
  -9613656.43406  22089673.22906  -7481437.65647  22089670.47947      -916.99000
   4954284.00407  21509698.40907   3867302.39848  21509695.53048     -1581.33000
 -16940994.55507  20665675.19807 -13171918.52048  20665671.30848      2029.70500
  -2452496.75805  23994668.71405  -1905513.07446  23994667.43346     -1406.48600
  -4400614.88307  22313826.83907  -3408105.20347  22313821.81947     -2318.79200
 -14124455.91007  21601489.85407 -10983558.32848  21601486.99948      2267.18400
  -1385261.68806  24181206.80806  -1053761.95346  24181205.25346      3264.25800
 08 11  4  2  7 29.9990000  0 10  3  6  7 13 16 19 21 23 25 27
 -22783087.63707  19551777.16707 -17719930.51249  19551775.12449       -31.49700
 -13694916.59407  20230165.40107 -10646147.96149  20230163.88649      -933.95000
  -6405342.43806  22753861.44006  -4966282.22347  22753858.20647      3280.92100
  -9585583.40606  22095015.12806  -7459562.61347  22095013.24147      -935.76800
   5001882.83607  21518756.41707   3904392.36348  21518753.51148     -1586.62800
 -17001438.96107  20654173.14407 -13219018.04748  20654168.92148      2014.81400
  -2409860.50805  24002782.12005  -1872290.05146  24002779.50746     -1421.20800
  -4330694.57807  22327132.58907  -3353621.87947  22327127.68347     -2330.67700
 -14192117.34007  21588613.81507 -11036281.49648  21588611.13648      2255.38100
  -1483104.89506  24162588.48706  -1130003.39847  24162586.67147      3261.44000
 08 11  4  2  7 59.9990000  0 10  3  6  7 13 16 19 21 23 25 27
 -22781651.16407  19552050.71407 -17718811.18449  19552048.58549       -47.88200
 -13666510.33207  20235571.21407 -10624013.21148  20235568.81948      -946.87500
  -6503559.78106  22735170.54206  -5042815.19147  22735168.29247      3273.91100
  -9556948.89806  22100464.24506  -7437250.01247  22100462.39747      -954.48400
   5049640.17207  21527844.20607   3941605.83648  21527841.30048     -1591.91100
 -17061435.89507  20642756.09707 -13265768.88349  20642751.87049      1999.89800
  -2366783.91405  24010978.75305  -1838723.89546  24010976.13646     -1435.88600
  -4260420.96107  22340505.37807  -3298863.25047  22340501.44847     -2342.45400
 -14259422.67207  21575806.09707 -11088727.21548  21575803.44048      2243.51100
  -1580861.47706  24143986.34706  -1206177.33647  24143985.20247      3258.55300
 08 11  4  2  8 29.9990000  0 10  3  6  7 13 16 19 21 23 25 27
 -22779725.59807  19552417.04207 -17717310.74249  19552414.56549       -64.18600
 -13637718.41807  20241050.05007 -10601577.94948  20241047.36248      -959.73000
  -6601564.82006  22716520.69806  -5119182.73847  22716518.47247      3266.83500
  -9527755.55106  22106019.68306  -7414501.93447  22106017.83547      -973.11200
   5097555.58207  21536962.24507   3978942.51248  21536959.08948     -1597.18000
 -17120985.35907  20631424.31507 -13312171.05948  20631420.75348      1984.98200
  -2323268.55906  24019260.53406  -1804815.85946  24019257.16746     -1450.51200
  -4189797.66407  22353944.58907  -3243832.15247  22353940.65147     -2354.11000
 -14326370.27007  21563066.62807 -11140894.18448  21563064.05848      2231.58700
  -1678530.11706  24125400.00306  -1282282.71947  24125400.10847      3255.62100
 08 11  4  2  8 59.9990000  0 10  3  6  7 13 16 19 21 23 25 27
 -22777315.43407  19552875.59707 -17715432.69149  19552873.29249       -80.33900
 -13608546.09007  20246601.67507 -10578846.27748  20246599.41748      -972.41100
  -6699358.55906  22697911.52606  -5195385.61347  22697910.17147      3259.79100
  -9498008.68806  22111680.33906  -7391322.59447  22111677.56947      -991.56200
   5145625.32807  21546109.58907   4016399.44948  21546107.07748     -1602.32500
 -17180090.41807  20620177.15907 -13358226.93448  20620172.85448      1970.16900
  -2279318.89105  24027623.90905  -1770569.43846  24027621.59746     -1464.98900
  -4118831.77706  22367448.80806  -3188534.09047  22367444.55447     -2365.53000
 -14392961.45307  21550395.00307 -11192783.41448  21550392.47648      2219.70600
  -1776112.45306  24106831.01906  -1358320.85247  24106830.63647      3252.74500
 08 11  4  2  9 29.9990000  0 10  3  6  7 13 16 19 21 23 25 27
 -22774417.57007  19553427.37007 -17713174.62549  19553425.22949       -96.59500
 -13578990.97307  20252225.55007 -10555816.31349  20252223.12449      -985.17100
  -6796934.17605  22679343.68305  -5271418.55147  22679340.15147      3252.52100
  -9467706.00406  22117446.91706  -7367710.13347  22117444.10147     -1010.08900
   5193853.55507  21555287.39407   4053979.87548  21555284.89748     -1607.60800
 -17238746.10907  20609015.34707 -13403932.66448  20609010.78848      1955.19000
  -2234932.76206  24036070.41706  -1735982.87146  24036067.65546     -1479.53800
  -4047522.04306  22381018.55806  -3132968.07047  22381015.82347     -2376.99100
 -14459189.88307  21537792.08107 -11244389.96548  21537789.28048      2207.61400
  -1873602.08606  24088279.10406  -1434286.76647  24088278.24947      3249.65400
 08 11  4  2  9 59.9990000  0 10  3  6  7 13 16 19 21 23 25 27
 -22771034.90207  19554070.82307 -17710538.77349  19554068.42549      -112.75600
 -13549056.88307  20257921.64407 -10532491.04349  20257919.98349      -997.80300
  -6894291.44906  22660817.05806  -5347281.32447  22660815.17547      3245.24200
  -9436851.71906  22123318.30006  -7343667.85947  22123315.97647     -1028.47600
   5242237.85507  21564494.47907   4091681.91848  21564491.80448     -1612.81000
 -17296954.11707  20597938.69807 -13449289.52748  20597934.77248      1940.26700
  -2190113.87105  24044599.04205  -1701059.13346  24044595.76146     -1493.96300
  -3975873.86306  22394652.66706  -3077138.35547  22394649.74147     -2388.27300
 -14525055.56607  21525257.99507 -11295713.87148  21525254.93348      2195.52300
  -1970999.19506  24069744.71406  -1510180.60247  24069743.59347      3246.57000
 08 11  4  2 10 29.9990000  0 10  3  6  7 13 16 19 21 23 25 27
 -22767167.73407  19554806.59707 -17707525.39149  19554804.46449      -128.90600
 -13518744.02007  20263690.14407 -10508870.64848  20263688.28448     -1010.42900
  -6991426.49606  22642332.81506  -5422970.93447  22642330.87447      3237.83500
  -9405446.40206  22129294.22906  -7319196.17647  22129292.55047     -1046.84400
   5290779.60907  21573731.47907   4129506.65248  21573728.38648     -1618.05800
 -17354712.36307  20586947.20607 -13494295.95348  20586943.32748      1925.27500
  -2144861.62906  24053210.66706  -1665797.71546  24053206.99546     -1508.40800
  -3903889.08206  22408351.47906  -3021046.38346  22408347.04246     -2399.49300
 -14590554.80107  21512793.90907 -11346752.22348  21512791.00348      2183.30800
  -2068300.40605  24051228.90905  -1585999.71547  24051227.22247      3243.37400
 08 11  4  2 10 59.9990000  0 10  3  6  7 13 16 19 21 23 25 27
 -22762817.57807  19555634.36207 -17704135.66849  19555631.70649      -145.00500
 -13488054.61307  20269530.08107 -10484956.84448  20269527.55848     -1022.98000
  -7088337.11706  22623891.34706  -5498485.68847  22623889.01147      3230.35400
  -9373492.16406  22135375.12806  -7294296.79347  22135372.66347     -1065.14100
   5339478.43007  21582999.00307   4167453.76248  21582995.38648     -1623.29400
 -17412020.85507  20576041.71407 -13538951.88748  20576037.37848      1910.28300
  -2099177.63306  24061904.01106  -1630199.81646  24061901.46446     -1522.80000
  -3831571.60205  22422112.18305  -2964695.13746  22422108.89046     -2410.58300
 -14655685.94107  21500399.96407 -11397503.77348  21500397.33948      2171.03800
  -2165503.84005  24032731.90105  -1661742.64147  24032729.81947      3240.11400
 08 11  4  2 11 29.9990000  0 10  3  6  7 13 16 19 21 23 25 27
 -22757979.52307  19556555.19807 -17700365.75049  19556552.78449      -161.26800
 -13456984.09407  20275442.56507 -10460746.05548  20275440.63248     -1035.68400
  -7185014.27706  22605494.84706  -5573818.56347  22605490.90147      3222.57200
  -9340985.24606  22141560.57306  -7268966.75847  22141558.91347     -1083.56400
   5388340.49607  21592297.18307   4205528.07448  21592293.76548     -1628.73600
 -17468872.68807  20565223.28407 -13583252.00449  20565219.08549      1895.06100
  -2053057.22706  24070679.84706  -1594261.87546  24070677.70246     -1537.34700
  -3758917.90206  22435938.03406  -2908081.87946  22435935.56546     -2421.79000
 -14720440.69907  21488077.36207 -11447962.02348  21488074.87848      2158.49200
  -2262601.42205  24014254.86205  -1737403.05946  24014251.96046      3236.58600
 08 11  4  2 11 59.9990000  0 10  3  6  7 13 16 19 21 23 25 27
 -22752652.82807  19557568.48707 -17696215.08249  19557566.48749      -177.55700
 -13425532.35207  20281427.94007 -10436238.20748  20281425.49948     -1048.39100
  -7281453.95306  22587142.69806  -5648966.33648  22587141.07748      3214.65600
  -9307925.50806  22147851.90106  -7243205.94947  22147850.44847     -1101.99100
   5437367.48407  21601626.49507   4243730.92248  21601623.55048     -1634.23300
 -17525265.46507  20554492.22207 -13627194.41049  20554488.30049      1879.75900
  -2006500.14106  24079539.80006  -1557983.69146  24079536.27646     -1551.90300
  -3685929.45705  22449827.10405  -2851207.80946  22449824.20646     -2432.94800
 -14784814.83607  21475827.59707 -11498123.68448  21475824.40948      2145.80500
  -2359588.96105  23995798.22905  -1812977.75446  23995796.16746      3232.91800
 08 11  4  2 12 29.9990000  0 10  3  6  7 13 16 19 21 23 25 27
 -22746844.46907  19558673.95607 -17691689.07849  19558671.65149      -193.61200
 -13393707.05107  20287483.86207 -10411439.25848  20287481.72648     -1060.84300
  -7377659.41406  22568835.35406  -5723931.61748  22568834.39748      3206.84900
  -9274320.73806  22154246.72206  -7217020.43847  22154243.92147     -1120.15900
   5486553.09007  21610986.12007   4282057.35548  21610982.89448     -1639.52000
 -17581204.41807  20543847.24507 -13670783.20349  20543843.73749      1864.63200
  -1959513.71106  24088481.06506  -1521370.90247  24088478.04647     -1566.21400
  -3612615.84006  22463778.85406  -2794080.36346  22463774.27646     -2443.78700
 -14848812.27707  21463648.98707 -11547991.80548  21463646.81548      2133.24800
  -2456470.71905  23977362.14405  -1888470.00846  23977359.54646      3229.39200
 08 11  4  2 12 59.9990000  0 10  3  6  7 13 16 19 21 23 25 27
 -22740557.71107  19559870.19807 -17686790.31649  19559868.23749      -209.55900
 -13361511.80107  20293610.40107 -10386352.07048  20293608.22648     -1073.17500
  -7473630.17606  22550572.26106  -5798713.99247  22550570.92947      3199.02500
  -9240175.39506  22160744.44806  -7190413.71147  22160741.39047     -1138.17800
   5535895.66007  21620376.08907   4320506.09048  21620372.84348     -1644.75200
 -17636691.01607  20533288.76907 -13714019.51649  20533285.37049      1849.55300
  -1912101.15205  24097504.03405  -1484426.07047  24097500.99147     -1580.41900
  -3538981.95706  22477791.40106  -2736703.30546  22477787.23746     -2454.46300
 -14912432.82407  21451542.24507 -11597566.25848  21451539.71048      2120.68500
  -2553246.53505  23958946.62805  -1963879.71947  23958944.74947      3225.86100
 08 11  4  2 13 29.9990000  0 10  3  6  7 13 16 19 21 23 25 27
 -22733790.81307  19561158.01107 -17681517.41849  19561155.42949      -225.56300
 -13328945.43007  20299807.66707 -10360975.70348  20299805.56248     -1085.54600
  -7569360.49606  22532355.77606  -5873309.05147  22532353.23747      3191.01100
  -9205488.33206  22167345.30806  -7163384.83247  22167343.46447     -1156.23500
   5585398.01607  21629795.91707   4359079.34848  21629793.55448     -1650.07900
 -17691721.93007  20522816.59707 -13756900.72349  20522812.41349      1834.36400
  -1864260.87906  24106606.89406  -1447148.02047  24106604.97947     -1594.67600
  -3465028.03106  22491863.58906  -2679076.87946  22491861.25746     -2465.13100
 -14975671.26207  21439508.69807 -11646842.98048  21439506.21048      2107.94800
  -2649911.19505  23940552.37005  -2039202.83246  23940550.06246      3222.15500
 08 11  4  2 13 59.9990000  0 10  3  6  7 13 16 19 21 23 25 27
 -22726550.00407  19562536.08907 -17675875.22349  19562533.88649      -241.36000
 -13296014.62507  20306074.51107 -10335315.34448  20306072.35848     -1097.69300
  -7664853.08607  22514184.69807  -5947718.86747  22514180.75347      3183.08600
  -9170266.64806  22174047.57306  -7135939.36747  22174045.85847     -1174.05600
   5635055.07007  21639245.41707   4397773.13348  21639242.88648     -1655.23500
 -17746301.55507  20512430.54207 -13799430.28549  20512426.59349      1819.32100
  -1815999.80106  24115790.94006  -1409541.99246  24115788.79646     -1608.70300
  -3390762.23806  22505995.90906  -2621207.53145  22505990.78445     -2475.52600
 -15038530.57407  21427546.97207 -11695824.26648  21427543.96848      2095.31000
  -2746467.80105  23922177.81505  -2114441.71546  23922176.23746      3218.55400
 08 11  4  2 14 29.9990000  0 10  3  6  7 13 16 19 21 23 25 27
 -22718833.03907  19564004.34707 -17669862.00449  19564001.92549      -257.23200
 -13262717.38707  20312410.91707 -10309369.43048  20312408.67548     -1109.90800
  -7760101.51606  22496058.97206  -6021938.39547  22496055.19047      3174.94800
  -9134508.67206  22180852.30006  -7108075.99247  22180849.59747     -1191.93300
   5684870.45707  21648724.58107   4436590.28948  21648721.44048     -1660.51300
 -17800425.80507  20502131.22907 -13841605.02749  20502127.00749      1804.14200
  -1767315.23006  24125055.55006  -1371605.97746  24125052.42146     -1622.81900
  -3316184.20706  22520188.14406  -2563094.80946  22520181.75746     -2485.93400
 -15101004.88307  21415658.70607 -11744505.53548  21415656.12848      2082.47700
  -2842910.21905  23903825.56505  -2189591.62546  23903824.70646      3214.74700
 08 11  4  2 14 59.9990000  0 10  3  6  7 13 16 19 21 23 25 27
 -22710650.05507  19565561.71407 -17663485.65249  19565559.47949      -272.76600
 -13229064.28507  20318814.55007 -10283146.23848  20318812.31248     -1121.77000
  -7855112.17606  22477979.08106  -6095972.67247  22477975.44047      3167.02200
  -9098225.71906  22187756.61206  -7079803.58247  22187754.10447     -1209.43200
   5734835.30907  21658232.97907   4475523.92648  21658229.99148     -1665.49500
 -17854103.40607  20491916.90907 -13883431.72749  20491912.06549      1789.25300
  -1718217.69506  24134398.36206  -1333348.21546  24134396.18346     -1636.58500
  -3241306.00806  22534436.70606  -2504748.13746  22534432.71046     -2495.94000
 -15163100.91407  21403842.05007 -11792892.04748  21403839.22648      2069.86800
  -2939245.53505  23885493.22205  -2264658.06347  23885492.62047      3211.17700
 08 11  4  2 15 29.9990000  0 10  3  6  7 13 16 19 21 23 25 27
 -22701998.94507  19567207.66707 -17656744.53549  19567205.43749      -288.37000
 -13195053.71507  20325286.50307 -10256644.50848  20325284.17948     -1133.68600
  -7949878.80906  22459945.94806  -6169816.77347  22459942.53847      3158.88800
  -9061416.36706  22194762.08106  -7051120.96947  22194759.07747     -1226.97800
   5784952.85507  21667769.90907   4514576.56348  21667766.96848     -1670.58500
 -17907330.02707  20481787.68307 -13924906.98849  20481783.97649      1774.22100
  -1668705.08205  24143820.62805  -1294767.04346  24143818.30446     -1650.42000
  -3166127.69105  22548743.19005  -2446167.60245  22548738.58145     -2505.94400
 -15224813.16407  21392098.63607 -11840979.52048  21392096.19048      2057.07500
  -3035468.11704  23867182.13604  -2339636.66047  23867181.51947      3207.41900
 08 11  4  2 15 59.9990000  0 10  3  6  7 13 16 19 21 23 25 27
 -22692879.29307  19568943.23707 -17649638.30949  19568941.33149      -303.98800
 -13160685.93007  20331826.26107 -10229864.42248  20331824.08548     -1145.59300
  -8044397.39806  22441959.53406  -6243467.62947  22441956.07747      3150.62000
  -9024081.22705  22201865.76105  -7022028.66447  22201863.68347     -1244.50500
   5835224.69107  21677335.92507   4553749.39548  21677333.46048     -1675.72800
 -17960103.57407  20471745.62007 -13966029.25049  20471740.98749      1759.11800
  -1618777.36705  24153321.27605  -1255862.38746  24153319.45646     -1664.25700
  -3090650.72705  22563104.75305  -2387354.43445  22563100.34345     -2515.89900
 -15286137.77307  21380428.76907 -11888764.94148  21380426.72948      2044.15400
  -3131574.00405  23848894.43305  -2414524.39546  23848891.61246      3203.53000
 08 11  4  2 16 29.9990000  0 10  3  6  7 13 16 19 21 23 25 27
 -22683299.04707  19570766.48707 -17642173.18448  19570763.92148      -319.34200
 -13125969.00407  20338433.04207 -10202812.27748  20338430.53048     -1157.23100
  -8138671.92206  22424019.61206  -6316928.29748  22424016.95248      3142.48400
  -8986228.99206  22209068.33106  -6992533.42647  22209066.66747     -1261.74100
   5885644.23007  21686930.61207   4593037.31648  21686927.97948     -1680.65100
 -18012430.46907  20461787.98707 -14006803.44149  20461784.10849      1744.23000
  -1568442.40205  24162899.33105  -1216640.42646  24162896.89046     -1677.83200
  -3014885.02704  22577523.73704  -2328316.25445  22577518.85845     -2525.52300
 -15347079.22307  21368832.02607 -11936251.78548  21368829.60848      2031.38200
  -3227567.82405  23830627.45605  -2489324.77747  23830624.52647      3199.79400
 08 11  4  2 16 59.9990000  0  9  3  6  7 13 16 19 23 25 27
 -22673256.50007  19572677.33907 -17634347.83649  19572675.03849      -334.75200
 -13090901.38707  20345105.63607 -10175486.87148  20345103.74148     -1168.92100
  -8232696.63706  22406127.37806  -6390194.28948  22406123.91748      3134.15700
  -8947858.64506  22216370.87806  -6962634.51247  22216367.86247     -1279.01200
   5936214.81607  21696554.12807   4632442.96948  21696551.34748     -1685.68600
 -18064306.89107  20451915.60407 -14047226.61349  20451911.44449      1729.21400
  -2938830.38305  22591997.28405  -2269053.01245  22591992.12045     -2535.15500
 -15407632.16407  21357309.26907 -11983435.88348  21357306.40148      2018.43100
  -3323444.20305  23812382.50305  -2564033.62147  23812380.07347      3195.87900
 08 11  4  2 17 29.9990000  0  9  3  6  7 13 16 19 23 25 27
 -22662752.12507  19574676.38607 -17626162.59449  19574674.42149      -350.14600
 -13055484.66407  20351845.25307 -10147889.43448  20351843.71848     -1180.55700
  -8326468.48407  22388283.08907  -6463263.23848  22388279.83948      3125.72800
  -8908972.28906  22223770.71406  -6932333.46947  22223767.93747     -1296.21200
   5986936.61307  21706206.21407   4671966.42248  21706204.16348     -1690.72700
 -18115732.12907  20442129.94007 -14087298.21549  20442125.89749      1714.17500
  -2862490.13305  22606523.80805  -2209567.15245  22606519.64045     -2544.67500
 -15467794.15607  21345861.21407 -12030315.36348  21345858.01148      2005.40000
  -3419200.68005  23794161.40105  -2638649.01247  23794158.14047      3191.88300
 08 11  4  2 17 59.9990000  0  9  3  6  7 13 16 19 23 25 27
 -22651785.89507  19576763.15107 -17617617.47749  19576761.05849      -365.54100
 -13019718.71107  20358651.44007 -10120019.85948  20358649.56948     -1192.19800
  -8419983.32806  22370487.77606  -6536131.90647  22370484.68747      3117.16100
  -8869570.02006  22231268.26906  -6901630.42647  22231266.08547     -1313.40900
   6037811.44107  21715887.20607   4711609.10548  21715884.81948     -1695.82800
 -18166704.05107  20432430.27607 -14127016.58649  20432426.67149      1699.06400
  -2785865.39503  22621104.44003  -2149859.57845  22621100.43345     -2554.15800
 -15527561.33207  21334487.48707 -12076887.17248  21334485.03848      1992.23900
  -3514833.21506  23775962.74506  -2713167.84447  23775960.80047      3187.75100
 08 11  4  2 18 29.9990000  0  9  3  6  7 13 16 19 23 25 27
 -22640358.08207  19578937.85407 -17608712.69549  19578935.60149      -380.92700
 -12983604.34007  20365524.18307 -10091878.79748  20365521.58148     -1203.81200
  -8513237.25006  22352741.83906  -6608797.28547  22352738.86247      3108.46400
  -8829653.33206  22238864.52606  -6870526.51247  22238862.17947     -1330.55600
   6088839.96907  21725597.47907   4751371.55148  21725594.74148     -1700.95100
 -18217221.74207  20422817.33907 -14166381.02749  20422813.62449      1683.92300
  -2708958.51604  22635739.68304  -2089932.11345  22635734.91745     -2563.56300
 -15586930.65607  21323189.84707 -12123148.98448  21323187.38648      1978.97700
  -3610338.86706  23757788.76906  -2787587.82447  23757787.98747      3183.52200
 08 11  4  2 18 59.9990000  0  9  3  6  7 13 16 19 23 25 27
 -22628467.92207  19581200.56507 -17599447.64549  19581198.28449      -396.33900
 -12947141.27307  20372462.69007 -10063466.02348  20372460.94848     -1215.43600
  -8606225.70706  22335046.94806  -6681255.83248  22335044.42948      3099.61500
  -8789222.35906  22246558.33106  -6839021.87947  22246555.60847     -1347.69900
   6140024.44507  21735337.77607   4791255.56648  21735334.54648     -1706.14900
 -18267282.44907  20413291.12807 -14205389.37149  20413287.49549      1668.69000
  -2631770.85905  22650428.04205  -2029785.95745  22650424.65145     -2572.92200
 -15645897.87507  21311968.44807 -12169097.45748  21311965.98748      1965.57400
  -3705713.11705  23739639.40105  -2861905.40647  23739638.92947      3179.14200
 08 11  4  2 19 29.9990000  0  9  3  6  7 13 16 19 23 25 27
 -22616118.39507  19583550.42507 -17589824.64549  19583547.90949      -411.65100
 -12910332.42607  20379467.51107 -10034783.80548  20379464.57748     -1226.96200
  -8698947.19506  22317402.05806  -6753506.32848  22317400.34748      3090.71600
  -8748280.89506  22254349.17506  -6807119.44547  22254346.75747     -1364.71500
   6191363.71507  21745107.66707   4831260.17248  21745104.54248     -1711.30900
 -18316887.06307  20403851.51907 -14244042.30949  20403847.75749      1653.48700
  -2554306.87504  22665168.40904  -1969424.50045  22665165.69845     -2582.13300
 -15704462.20707  21300824.51107 -12214731.99648  21300821.89048      1952.14400
  -3800955.19106  23721515.77606  -2936119.98847  23721514.82347      3174.73600
 08 11  4  2 19 59.9990000  0  9  3  6  7 13 16 19 23 25 27
 -22603314.50407  19585986.82307 -17579847.57849  19585984.69449      -426.79600
 -12873183.76607  20386536.06507 -10005836.79748  20386534.41348     -1238.28900
  -8791403.27706  22299808.51106  -6825550.00048  22299806.72948      3081.86900
  -8706835.27707  22262235.76107  -6774824.19548  22262233.95648     -1381.52100
   6242853.51207  21754905.44807   4871382.07448  21754902.28448     -1716.32700
 -18366039.27307  20394498.09707 -14282342.71949  20394493.85849      1638.40700
  -2476573.89103  22679960.60403  -1908853.37945  22679958.21045     -2591.09900
 -15762625.65207  21289756.52607 -12260054.14848  21289753.74948      1938.78200
  -3896067.09406  23703416.67506  -3010233.14147  23703415.58947      3170.39700
 08 11  4  2 20 29.9990000  0  9  3  6  7 13 16 19 23 25 27
 -22590055.84407  19588509.96407 -17569516.15249  19588507.85849      -441.95500
 -12835694.87507  20393670.11207  -9976624.68448  20393668.55448     -1249.63000
  -8883589.44906  22282266.09706  -6897383.37148  22282264.35148      3072.87200
  -8664885.91006  22270218.60406  -6742136.38347  22270217.01547     -1398.31200
   6294495.85207  21764732.75307   4911622.83248  21764728.89448     -1721.41100
 -18414737.05107  20385231.28407 -14320289.03949  20385226.80049      1623.25900
  -2398573.36304  22694803.84704  -1848073.80545  22694801.43345     -2600.01800
 -15820384.15607  21278765.34707 -12305060.79348  21278763.23748      1925.28300
  -3991044.62506  23685342.41706  -3084241.56647  23685341.80447      3165.91800
 08 11  4  2 20 59.9990000  0  9  3  6  7 13 16 19 23 25 27
 -22576341.50007  19591119.34707 -17558829.66449  19591117.28849      -457.14500
 -12797865.43407  20400868.58107  -9947147.20748  20400866.64748     -1260.98100
  -8975500.90206  22264775.87806  -6969002.69148  22264773.56948      3063.71500
  -8622432.71906  22278297.51906  -6709055.98847  22278294.61647     -1415.10600
   6346293.03907  21774589.58107   4951984.26248  21774585.81948     -1726.57300
 -18462977.80507  20376051.02607 -14357879.23849  20376047.70649      1608.02500
  -2320306.09404  22709697.59704  -1787086.32445  22709695.37445     -2608.90900
 -15877733.42207  21267852.00307 -12349748.52748  21267850.11648      1911.64200
  -4085883.25005  23667296.20605  -3158141.76647  23667293.11247      3161.28700
 08 11  4  2 21 29.9990000  0  9  3  6  7 13 16 19 23 25 27
 -22562170.22307  19593816.44807 -17547787.12949  19593814.33149      -472.37600
 -12759694.41007  20408132.55807  -9917403.57448  20408130.26148     -1272.36700
  -9067132.07806  22247338.83906  -7040403.61748  22247336.67948      3054.37300
  -8579475.54706  22286471.54206  -6675582.89547  22286469.49147     -1431.90600
   6398247.69107  21784476.15107   4992468.37548  21784473.49548     -1731.82200
 -18510758.22307  20366959.21407 -14395110.71949  20366954.98749      1592.68100
  -2241772.65604  22724642.37804  -1725891.44945  22724639.85845     -2617.78100
 -15934668.62507  21257017.63607 -12394113.61348  21257014.96848      1897.84000
  -4180578.08606  23649276.02606  -3231929.94147  23649273.33547      3156.49500
 08 11  4  2 21 59.9990000  0  9  3  6  7 13 16 19 23 25 27
 -22547542.69107  19596600.02607 -17536389.05949  19596598.03449      -487.58400
 -12721182.84807  20415461.22907  -9887394.56648  20415458.71848     -1283.71900
  -9158479.75806  22229955.68306  -7111583.58248  22229954.78448      3044.92300
  -8536016.00806  22294741.55006  -6641718.32047  22294739.51547     -1448.65100
   6450360.51207  21794393.15907   5033075.74248  21794390.42548     -1737.09400
 -18558077.61307  20357954.47907 -14431982.95749  20357950.32349      1577.31300
  -2162975.78503  22739637.08903  -1664491.36745  22739634.49145     -2626.56200
 -15991187.02707  21246262.20607 -12438153.93048  21246259.93348      1883.94700
  -4275126.29706  23631284.37806  -3305603.85947  23631280.99147      3151.60700
 08 11  4  2 22 29.9990000  0  9  3  6  7 13 16 19 23 25 27
 -22532463.58207  19599469.40907 -17524639.09049  19599467.24549      -502.63700
 -12682335.80507  20422853.67507  -9857124.14148  20422851.18748     -1294.90100
  -9249544.52306  22212627.15906  -7182543.14548  22212624.54648      3035.49200
  -8492059.73006  22303106.50306  -6607466.66447  22303104.07347     -1465.20900
   6502628.30907  21804339.27607   5073803.87948  21804336.27248     -1742.26000
 -18604939.05907  20349037.12007 -14468498.36749  20349033.09749      1562.04800
  -2083921.96902  22754680.47202         0.00000         0.00000     -2635.12700
 -16047289.90607  21235586.49507 -12481870.44948  21235584.22248      1870.09600
  -4369528.93806  23613320.11206  -3379164.34847  23613317.85147      3146.75500
 08 11  4  2 22 59.9990000  0  9  3  6  7 13 16 19 23 25 27
 -22516931.75807  19602424.90907 -17512536.37149  19602422.66749      -517.72700
 -12643152.40607  20430309.75307  -9826591.62548  20430308.11648     -1306.11300
  -9340321.00406  22195352.89406  -7253278.07048  22195350.04648      3025.88300
  -8447606.43006  22311565.51906  -6572827.72747  22311563.70647     -1481.77700
   6555053.91007  21814315.75307   5114654.98448  21814312.54648     -1747.52000
 -18651339.50807  20340207.40107 -14504654.57449  20340203.47249      1546.68200
  -2004612.11302  22769771.48702         0.00000         0.00000     -2643.66200
 -16102972.39507  21224990.50307 -12525259.39848  21224988.04248      1856.08300
  -4463781.00405  23595383.66705  -3452607.46547  23595382.32347      3141.73600
 08 11  4  2 23 29.9990000  0  9  3  6  7 13 16 19 23 25 27
 -22500951.23007  19605465.93307 -17500084.02349  19605464.03049      -532.68400
 -12603637.33207  20437829.45607  -9795800.66448  20437827.51148     -1317.16900
  -9430809.91406  22178133.27606  -7323788.88348  22178130.64448      3016.29700
  -8402661.66806  22320118.60406  -6537805.85547  22320116.69847     -1498.15900
   6607633.98807  21824321.19007   5155626.45348  21824318.56948     -1752.66900
 -18697281.90207  20331464.49507 -14540453.81649  20331460.99549      1531.41300
  -1925052.10204  22784911.66704         0.00000         0.00000     -2652.00000
 -16158235.65607  21214474.03407 -12568321.68448  21214471.83148      1842.10900
  -4557883.32406  23577476.52606  -3525933.89147  23577475.23347      3136.74400
 08 11  4  2 23 59.9990000  0  9  3  6  7 13 16 19 23 25 27
 -22484524.52307  19608592.00307 -17487284.00849  19608589.64749      -547.55700
 -12563793.03907  20445411.53407  -9764753.18848  20445409.19848     -1328.14300
  -9521008.59407  22160969.72207  -7394073.53148  22160966.16348      3006.62300
  -8357228.54306  22328763.96406  -6502403.46147  22328761.32347     -1514.43800
   6660368.08207  21834356.30007   5196717.92248  21834352.65948     -1757.80300
 -18742766.40207  20322809.52607 -14575896.29349  20322805.13249      1516.15000
  -1845245.74603  22800099.46403         0.00000         0.00000     -2660.21200
 -16213078.07407  21204038.06507 -12611056.02048  21204035.34348      1828.08100
  -4651834.30906  23559598.47906  -3599142.43447  23559596.96447      3131.69900
 08 11  4  2 24 29.9990000  0  9  3  6  7 13 16 19 23 25 27
 -22467655.56307  19611802.06507 -17474139.36349  19611799.72949      -562.29900
 -12523623.74607  20453055.33907  -9733452.44948  20453053.51148     -1338.97600
  -9610917.06607  22143860.45607  -7464132.07448  22143856.77248      2996.94900
  -8311312.28906  22337501.40106  -6466624.59847  22337499.32347     -1530.54200
   6713253.94907  21844420.29207   5237927.68448  21844416.78048     -1762.86200
 -18787795.57007  20314240.75307 -14610983.95749  20314236.22249      1500.97200
  -1765199.18403  22815331.22903         0.00000         0.00000     -2668.21900
 -16267500.30507  21193681.75307 -12653462.94948  21193679.35848      1814.07400
  -4745634.16406  23541748.68306  -3672233.23047  23541747.45247      3126.66200
 08 11  4  2 24 59.9990000  0  9  3  6  7 13 16 19 23 25 27
 -22450349.48007  19615094.99507 -17460654.09849  19615092.96049      -576.86900
 -12483134.64807  20460760.10407  -9701902.51648  20460758.49548     -1349.63700
  -9700536.68007  22126806.11207  -7533965.53548  22126803.10848      2987.32000
  -8264918.76206  22346330.02606  -6430473.84047  22346328.22947     -1546.45100
   6766287.43007  21854511.88607   5279252.44948  21854508.99948     -1767.78300
 -18832372.74207  20305757.94007 -14645719.40249  20305753.40549      1485.90600
  -1684919.20702  22830607.72202         0.00000         0.00000     -2675.99900
 -16321503.92607  21183405.11207 -12695543.68848  21183402.50748      1800.12100
  -4839284.14805  23523927.47905  -3745207.23847  23523925.96847      3121.66600
 08 11  4  2 25 29.9990000  0  9  3  6  7 13 16 19 23 25 27
 -22432601.92607  19618472.53407 -17446824.85249  19618469.66749      -591.58500
 -12442322.45707  20468526.44807  -9670100.81648  20468524.15948     -1360.40600
  -9789859.25807  22109808.90107  -7603567.53948  22109805.10448      2977.41900
  -8218045.18405  22355249.88605  -6393948.94946  22355247.22946     -1562.45300
   6819474.15607  21864632.67507   5320696.62148  21864629.99548     -1772.89100
 -18876492.48407  20297361.82307 -14680098.39849  20297358.05849      1470.65800
  -1604403.76204  22845929.78404         0.00000         0.00000     -2683.84800
 -16375081.57407  21173209.74507 -12737292.50048  21173207.33148      1785.92200
  -4932777.10506  23506136.69006  -3818058.85547  23506134.52647      3116.43200
 08 11  4  2 25 59.9990000  0  9  3  6  7 13 16 19 23 25 27
 -22414423.22707  19621931.94007 -17432659.62949  19621929.80449      -605.95700
 -12401197.39107  20476352.18307  -9638055.31348  20476350.14448     -1370.83600
  -9878890.57406  22092866.45606  -7672942.57848  22092863.34748      2967.71100
  -8170702.57406  22364258.43306  -6357058.60246  22364255.84746     -1578.08700
   6872805.50807  21874781.52607   5362253.53148  21874778.90548     -1777.71200
 -18920163.29707  20289052.01107 -14714127.60949  20289047.74949      1455.69400
  -1523664.71902  22861293.74502         0.00000         0.00000     -2691.30100
 -16428239.87107  21163094.11207 -12778714.55148  21163091.74148      1771.94300
  -5026119.03906  23488374.71406  -3890792.80147  23488372.27247      3111.39800
 08 11  4  2 26 29.9990000  0  9  3  6  7 13 16 19 23 25 27
 -22395814.69907  19625473.11207 -17418159.48449  19625471.18749      -620.28400
 -12359761.10207  20484237.97207  -9605767.30948  20484235.69048     -1381.21000
  -9967627.74207  22075980.58107  -7742088.39148  22075977.31548      2957.90600
  -8122893.14506  22373356.23706  -6319804.51246  22373353.28446     -1593.64800
   6926281.80507  21884958.29207   5403923.34048  21884955.53048     -1782.54300
 -18963384.76207  20280827.34707 -14747806.68049  20280823.58949      1440.71500
  -1442705.16801  22876699.97201         0.00000         0.00000     -2698.65200
 -16480976.54307  21153058.72907 -12819808.06648  21153055.63248      1757.88900
  -5119307.50806  23470641.16706  -3963407.19147  23470640.13247      3106.28200
 08 11  4  2 26 59.9990000  0  9  3  6  7 13 16 19 23 25 27
 -22376776.75007  19629095.58907 -17403324.72349  19629093.72949      -634.59800
 -12318013.77307  20492181.68307  -9573236.92248  20492179.39048     -1391.57800
 -10056066.87507  22059151.56507  -7811001.99248  22059148.27648      2947.97100
  -8074618.21106  22382543.38606  -6282187.70746  22382540.69446     -1609.16400
   6979904.66007  21895162.22907   5445707.36348  21895159.69848     -1787.42900
 -19006155.17207  20272688.19807 -14781134.26249  20272684.10149      1425.68000
  -1361526.71901  22892148.48701         0.00000         0.00000     -2705.94800
 -16533288.23007  21143103.94807 -12860570.41048  21143101.39748      1743.72300
  -5212338.74606  23452936.96406  -4035899.06647  23452936.37047      3101.04100
 08 11  4  2 27 29.9990000  0  9  3  6  7 13 16 19 23 25 27
 -22357310.41807  19632799.94007 -17388156.16449  19632797.81249      -648.87800
 -12275957.22707  20500184.86207  -9540465.58248  20500183.02648     -1401.88500
 -10144205.34007  22042378.43307  -7879681.27748  22042376.39448      2937.94900
  -8025880.67606  22391817.55006  -6244210.44147  22391815.61247     -1624.58500
   7033673.87906  21905393.59706   5487605.43047  21905390.19047     -1792.30700
 -19048474.74207  20264634.87807 -14814110.53549  20264630.89749      1410.65200
  -1280133.00001  22907638.29201         0.00000         0.00000     -2713.12400
 -16585173.07007  21133230.67507 -12901000.16048  21133228.12048      1729.49500
  -5305210.57406  23435264.83906  -4108266.69947  23435263.97647      3095.72800
 08 11  4  2 27 59.9990000  0  8  3  6  7 13 16 19 25 27
 -22337414.21107  19636585.99507 -17372652.62149  19636583.77649      -663.20700
 -12233590.17607  20508246.74507  -9507452.30148  20508245.02248     -1412.23500
 -10232037.37907  22025664.22207  -7948121.78948  22025662.12848      2927.73500
  -7976679.83206  22401179.75306  -6205872.10947  22401178.12447     -1640.02800
   7087592.60206  21915654.15906   5529619.97348  21915650.53448     -1797.29100
 -19090340.51207  20256668.06507 -14846733.19549  20256663.76549      1395.52600
 -16636625.88707  21123439.78407 -12941093.28148  21123437.10448      1715.09400
  -5397917.55506  23417623.45606  -4180505.90247  23417621.88647      3090.23300
 08 11  4  2 28 29.9990000  0  8  3  6  7 13 16 19 25 27
 -22317092.11707  19640453.20607 -17356817.21949  19640451.09749      -677.40300
 -12190916.61707  20516367.32307  -9474200.19148  20516365.28848     -1422.45200
 -10319562.32806  22009009.11206  -8016323.02748  22009006.68348      2917.49800
  -7927020.20306  22410630.23706  -6167176.31347  22410627.98347     -1655.32100
   7141658.71907  21925942.73707   5571749.40648  21925939.28448     -1802.20400
 -19131754.28907  20248787.28407 -14879003.68849  20248782.97649      1380.45900
 -16687646.94507  21113730.69007 -12980849.94948  21113728.44048      1700.70200
  -5490459.51606  23400013.31506  -4252616.51647  23400011.27247      3084.73200
 08 11  4  2 28 59.9990000  0  8  3  6  7 13 16 19 25 27
 -22296341.10507  19644402.01107 -17340647.60249  19644399.84349      -691.70000
 -12147933.73007  20524546.89407  -9440707.04348  20524544.49148     -1432.76300
 -10406773.01607  21992413.72207  -8084279.41048  21992411.01548      2907.02300
  -7876900.09406  22420167.00306  -6128121.71947  22420164.69447     -1670.67000
   7195876.97706  21936260.43306   5613997.39148  21936257.51148     -1807.27500
 -19172711.21907  20240993.58107 -14910918.18849  20240989.60849      1365.23100
 -16738229.82407  21104104.92507 -13020265.17248  21104102.62848      1686.09600
  -5582829.83206  23382435.98706  -4324593.37947  23382433.33947      3079.01100
 08 11  4  2 29 29.9990000  0  8  3  6  7 13 16 19 25 27
 -22275166.46107  19648431.71407 -17324147.89149  19648429.36249      -705.82100
 -12104646.99607  20532784.18307  -9406977.12948  20532781.85148     -1442.89100
 -10493670.72707  21975877.34707  -8151991.89148  21975874.16748      2896.59000
  -7826325.84406  22429791.55006  -6088713.26247  22429788.50347     -1685.80800
   7250243.41006  21946606.37006   5656360.82048  21946603.53848     -1812.21400
 -19213215.31307  20233285.94807 -14942479.77749  20233281.90149      1350.13600
 -16788376.18807  21094562.29207 -13059340.25448  21094560.21048      1671.54500
  -5675029.80906  23364890.54206  -4396437.48047  23364888.58547      3073.33300
 08 11  4  2 29 59.9990000  0  8  3  6  7 13 16 19 25 27
 -22253563.60507  19652542.40907 -17307314.48849  19652540.16349      -720.09500
 -12061052.48807  20541079.86207  -9373007.38748  20541077.91348     -1453.15000
 -10580247.20707  21959402.32307  -8219454.08648  21959399.66748      2885.88300
  -7775294.53905  22439501.93305  -6048948.61747  22439500.17547     -1701.04300
   7304763.48807  21956981.26107   5698843.96148  21956978.15948     -1817.33600
 -19253261.01607  20225665.49507 -14973684.21949  20225660.91349      1334.85700
 -16838078.67607  21085104.21407 -13098069.47348  21085101.27648      1656.75000
  -5767051.60206  23347379.90906  -4468142.78147  23347377.16347      3067.39300
 08 11  4  2 30 29.9990000  0  8  3  6  7 13 16 19 25 27
 -22231533.62907  19656734.63607 -17290148.27349  19656732.24949      -734.33300
 -12017151.59407  20549433.89407  -9338798.89148  20549431.65148     -1463.36300
 -10666498.94107  21942989.64407  -8286663.21948  21942986.69048      2875.05800
  -7723808.36705  22449299.95605  -6008829.53947  22449297.87447     -1716.20600
   7359438.16006  21967384.88606   5741447.57048  21967381.92148     -1822.48900
 -19292847.69907  20218132.43307 -15004530.98849  20218127.16349      1319.55600
 -16887334.81307  21075731.67507 -13136450.88348  21075728.49148      1641.87100
  -5858892.29306  23329902.94806  -4539706.93847  23329900.33947      3061.35600
 08 11  4  2 30 59.9990000  0  8  3  6  7 13 16 19 25 27
 -22209082.99207  19661006.76907 -17272654.26249  19661004.69849      -748.35500
 -11972950.39107  20557845.07307  -9304356.39148  20557842.98348     -1473.37300
 -10752428.05107  21926637.64407  -8353620.93848  21926634.82348      2864.30400
  -7671874.74206  22459182.84706  -5968361.83647  22459180.49547     -1731.12100
   7414262.98406  21977817.53406   5784168.18847  21977814.65547     -1827.49400
 -19331979.59007  20210685.80807 -15035023.37549  20210681.64449      1304.39600
 -16936147.15207  21066442.50307 -13174486.46548  21066440.24548      1627.07800
  -5950554.08606  23312460.42506  -4611131.69147  23312458.15547      3055.39300
 08 11  4  2 31 29.9990000  0  8  3  6  7 13 16 19 25 27
 -22186210.23007  19665359.57307 -17254831.35249  19665357.21849      -762.42500
 -11928447.91807  20566313.16707  -9269679.15648  20566311.58948     -1483.41600
 -10838028.57407  21910347.41707  -8420322.61748  21910345.76948      2853.35100
  -7619492.98406  22469150.31506  -5927544.88347  22469148.21047     -1746.05900
   7469240.58206  21988279.13606   5827007.85547  21988277.41347     -1832.58700
 -19370654.27707  20203326.19007 -15065159.47749  20203322.12049      1289.15600
 -16984510.89107  21057239.21407 -13212172.50448  21057236.74148      1612.12500
  -6042031.85906  23295052.81506  -4682413.06347  23295050.66347      3049.25900
 08 11  4  2 31 59.9990000  0  8  3  6  7 13 16 19 25 27
 -22162917.54307  19669791.93307 -17236681.21949  19669789.37449      -776.42300
 -11883646.71107  20574838.91707  -9234769.12948  20574836.99948     -1493.37400
 -10923299.00807  21894121.69007  -8486767.10948  21894118.65948      2842.34800
  -7566666.58606  22479202.40106  -5886381.46946  22479201.11646     -1760.88000
   7524370.38706  21998770.12006   5869966.09447  21998767.52647     -1837.66000
 -19408872.32007  20196053.84707 -15094939.77049  20196049.45649      1273.93500
 -17032424.93007  21048121.15107 -13249508.09848  21048119.18348      1597.13500
  -6133324.07006  23277680.03406  -4753549.81647  23277678.04647      3043.07400
 08 11  4  2 32 29.9990000  0  8  3  6  7 13 16 19 25 27
 -22139206.86707  19674303.86207 -17218205.35248  19674301.77248      -790.35600
 -11838548.34807  20583421.05807  -9199627.56348  20583418.89448     -1503.27900
 -11008236.37907  21877959.22207  -8552952.07448  21877956.87048      2831.24600
  -7513398.26605  22489339.47205  -5844873.68046  22489337.90546     -1775.61100
   7579652.60906  22009290.57306   5913043.12947  22009287.42547     -1842.74100
 -19446633.74607  20188868.00307 -15124364.25849  20188863.36649      1258.71400
 -17079887.31607  21039089.57307 -13286491.77048  21039087.13248      1582.08000
  -6224428.01206  23260344.00306  -4824539.90247  23260341.93347      3036.79800
 08 11  4  2 32 59.9990000  0  8  3  6  7 13 16 19 25 27
 -22115080.91007  19678895.05007 -17199405.91449  19678892.95249      -804.19900
 -11793156.38707  20592058.99507  -9164257.21148  20592056.74548     -1513.06500
 -11092839.92207  21861859.56507  -8618876.89848  21861857.46848      2820.11800
  -7459692.58606  22499559.35406  -5803025.10946  22499555.83546     -1790.18900
   7635085.54706  22019839.33906   5956237.57847  22019835.99947     -1847.76500
 -19483940.52307  20181768.97907 -15153434.47749  20181763.96049      1243.55900
 -17126898.07007  21030143.84707 -13323123.53548  21030140.92148      1567.02500
  -6315343.52306  23243042.98706  -4895383.11747  23243041.22947      3030.51700
 08 11  4  2 33 29.9990000  0  8  3  6  7 13 16 19 25 27
 -22090535.46107  19683565.33907 -17180279.59449  19683563.73349      -818.18200
 -11747466.45707  20600753.22207  -9128654.66848  20600751.21448     -1522.99800
 -11177100.87907  21845825.45607  -8684534.78548  21845822.62048      2808.69900
  -7405546.47706  22509863.59706  -5760833.30146  22509860.01546     -1804.87000
   7690675.33606  22030417.22206   5999554.28548  22030414.56248     -1852.99300
 -19520786.41407  20174757.15107 -15182145.55149  20174752.37849      1228.19600
 -17173449.06607  21021285.53407 -13359397.04748  21021283.23748      1551.70000
  -6406062.23806  23225779.24506  -4966072.98847  23225778.24947      3023.95700
 08 11  4  2 33 59.9990000  0  8  3  6  7 13 16 19 25 27
 -22065578.72707  19688314.87007 -17160832.78549  19688312.70249      -831.89100
 -11701486.72707  20609503.05807  -9092826.31648  20609501.14048     -1532.65800
 -11261022.92207  21829855.46407  -8749928.59448  21829853.02648      2797.40100
  -7350968.87906  22520248.80006  -5718305.31346  22520246.73346     -1819.25300
   7746415.61706  22041023.92506   6042988.25048  22041021.99148     -1858.00900
 -19557178.11307  20167831.81507 -15210502.70349  20167827.40149      1213.05700
 -17219545.09407  21012513.65907 -13395316.03948  21012510.98748      1536.53400
  -6496588.01606  23208553.19806  -5036612.51247  23208551.49947      3017.52600
 08 11  4  2 34 29.9990000  0  8  3  6  7 13 16 19 25 27
 -22040208.16007  19693142.80007 -17141063.51649  19693140.08949      -845.68600
 -11655215.21507  20618307.95607  -9056770.60248  20618305.93348     -1542.38400
 -11344599.51607  21813950.91707  -8815053.19148  21813948.26148      2785.88600
  -7295959.23006  22530716.95606  -5675440.65246  22530714.58146     -1833.65500
   7802310.24206  22051661.01106   6086542.48848  22051658.22648     -1863.15400
 -19593111.71507  20160993.85407 -15238502.92249  20160989.86649      1197.78700
 -17265180.41007  21003829.51907 -13430876.03148  21003827.40548      1521.17700
  -6586914.58206  23191364.44806  -5106996.83647  23191361.71847      3010.88600
 08 11  4  2 34 59.9990000  0  8  3  6  7 13 16 19 25 27
 -22014426.41007  19698048.86207 -17120973.84449  19698046.34349      -859.39200
 -11608654.73007  20627168.05807  -9020489.70748  20627166.05048     -1552.01600
 -11427829.01207  21798113.40907  -8879907.34448  21798110.36648      2774.31700
  -7240520.53105  22541266.62805  -5632241.69546  22541264.91346     -1847.95700
   7858358.12107  22062326.72907   6130216.14548  22062323.38248     -1868.26300
 -19628588.52307  20154242.94007 -15266147.19949  20154238.80449      1182.56000
 -17310354.28907  20995232.98707 -13466076.44948  20995230.92948      1505.79600
  -6677040.81306  23174214.34706  -5177225.06347  23174211.71847      3004.20800
 08 11  4  2 35 29.9990000  0  8  3  6  7 13 16 19 25 27
 -21988232.32007  19703033.19807 -17100562.85548  19703030.70648      -873.13600
 -11561803.73007  20636083.56507  -8983982.45748  20636082.09748     -1561.70000
 -11510705.65207  21782342.19807  -8944486.53548  21782339.39448      2762.55500
  -7184652.77305  22551897.48705  -5588708.40246  22551895.78446     -1862.25900
   7914562.75407  22073021.85407   6174011.93448  22073020.00748     -1873.48800
 -19663605.51207  20147579.26107 -15293433.14549  20147574.94049      1167.23300
 -17355061.68807  20986725.58107 -13500913.39148  20986723.11248      1490.24700
  -6766961.19906  23157102.31506  -5247292.88347  23157100.91747      2997.34600
 08 11  4  2 35 59.9990000  0  8  3  6  7 13 16 19 25 27
 -21961629.27007  19708095.76907 -17079833.21548  19708093.36248      -886.76800
 -11514666.27007  20645053.84707  -8947251.98448  20645051.65948     -1571.24900
 -11593229.16807  21766638.39407  -9008790.55148  21766636.44448      2750.78400
  -7128361.03106  22562609.22906  -5544844.75047  22562606.28847     -1876.39100
   7970921.79306  22083746.43306   6217928.00847  22083743.26547     -1878.63500
 -19698165.09407  20141002.91707 -15320362.69149  20140998.74549      1151.98600
 -17399303.18807  20978306.37007 -13535387.28148  20978304.40948      1474.71700
  -6856675.76206  23140030.81506  -5317200.30147  23140029.62447      2990.48500
 08 11  4  2 36 29.9990000  0  8  3  6  7 13 16 19 25 27
 -21934621.83207  19713235.25307 -17058788.46149  19713232.71049      -900.24800
 -11467247.10507  20654077.20607  -8910301.98448  20654074.27648     -1580.63900
 -11675399.57407  21751002.37007  -9072819.41048  21751000.02248      2739.01400
  -7071650.99606  22573401.63606  -5500655.17647  22573399.07747     -1890.33500
   8027432.32406  22094500.51106   6261962.18047  22094496.85447     -1883.68400
 -19732270.20307  20134512.77607 -15346938.10549  20134508.91349      1136.83700
 -17443079.65607  20969976.41707 -13569498.82848  20969973.60448      1459.21600
  -6946184.78506  23122997.62006  -5386947.57047  23122996.77647      2983.63400
 08 11  4  2 36 59.9990000  0  9  3  6  7 13 16 19 23 25 27
 -21907212.85507  19718450.99507 -17037430.82849  19718448.69449      -913.63300
 -11419548.82407  20663154.11207  -8873134.49648  20663152.36248     -1589.94300
 -11757215.23007  21735432.92507  -9136571.87148  21735430.47648      2727.18900
  -7014527.03106  22584272.37006  -5456143.02047  22584270.22647     -1904.13200
   8084093.36306  22105282.62006   6306113.61348  22105279.60848     -1888.70100
 -19765922.73807  20128109.33907 -15373160.85549  20128104.62049      1121.75100
    135307.14811  23209056.59701         0.00000         0.00000         0.00000
 -17486390.68807  20961734.54207 -13603247.69548  20961732.15548      1443.70100
  -7035487.20706  23106004.14406  -5456533.87547  23106001.70247      2976.74700
 08 11  4  2 37 29.9990000  0  8  3  6  7 13 16 19 25 27
 -21879403.89107  19723742.62007 -17015761.50448  19723740.62448      -926.96500
 -11371573.23407  20672283.47207  -8835750.94548  20672281.97648     -1599.18600
 -11838673.80907  21719931.47207  -9200046.07448  21719928.96048      2715.28600
  -6956991.29706  22595220.94806  -5411309.99247  22595218.78047     -1917.85800
   8140905.28106  22116093.68306   6350382.62148  22116091.26948     -1893.73100
 -19799121.87907  20121791.72207 -15399030.30549  20121787.33549      1106.63800
 -17529234.23807  20953581.84707 -13636632.28548  20953579.37848      1428.11800
  -7124580.34006  23089050.01906  -5525957.10247  23089048.15947      2969.77100
 08 11  4  2 37 59.9990000  0  9  3  6  7 13 16 19 23 25 27
 -21851196.79307  19729110.08107 -16993781.95748  19729108.21448      -940.23700
 -11323322.04307  20681465.38607  -8798152.60948  20681463.74948     -1608.37300
 -11919772.39807  21704499.11207  -9263239.77348  21704496.60848      2703.28600
  -6899047.01206  22606246.67506  -5366158.59047  22606244.90947     -1931.47600
   8197867.72706  22126933.47206   6394768.88747  22126930.05047     -1898.74800
 -19831868.45307  20115560.32307 -15424547.11749  20115555.69049      1091.55200
         0.00000  23241477.11201         0.00000         0.00000         0.00000
 -17571608.76207  20945518.16707 -13669651.38348  20945515.49148      1412.48400
  -7213462.11306  23072136.45606  -5595215.60947  23072133.86647      2962.72600
 08 11  4  2 38 29.9990000  0  9  3  6  7 13 16 19 23 25 27
 -21822590.21507  19734553.92507 -16971491.12148  19734551.14048      -953.55300
 -11274794.12507  20690699.55807  -8760338.66448  20690698.14048     -1617.59700
 -12000505.11707  21689136.21407  -9326148.37148  21689133.56248      2691.09100
  -6840693.94506  22617350.95606  -5320688.69147  22617349.58547     -1945.10200
   8254983.65206  22137802.25306   6439274.78147  22137798.99947     -1903.86400
 -19864159.44907  20109415.38607 -15449708.93049  20109410.53049      1076.36700
    122930.66811  23257731.89401         0.00000         0.00000         0.00000
 -17613509.64507  20937544.63607 -13702301.41448  20937542.16748      1396.69600
  -7302127.20306  23055264.68306  -5664305.29347  23055261.57747      2955.50300
 08 11  4  2 38 59.9990000  0  9  3  6  7 13 16 19 23 25 27
 -21793579.68407  19740074.72207 -16948885.50448  19740071.93348      -967.01800
 -11225985.32407  20699987.91707  -8722305.84848  20699985.77648     -1626.96000
 -12080863.85207  21673845.07307  -9388765.55548  21673842.18348      2678.62400
  -6781928.96906  22628533.67506  -5274897.82047  22628531.70647     -1958.83300
   8312259.57006  22148701.17506   6483905.35247  22148699.05847     -1909.19700
 -19895989.13707  20103358.05807 -15474511.27349  20103353.58949      1060.99000
         0.00000  23274012.96401         0.00000         0.00000         0.00000
 -17654929.08607  20929662.76907 -13734576.30148  20929660.50348      1380.64800
  -7390567.15606  23038434.31506  -5733219.49647  23038432.54247      2947.99800
 08 11  4  2 39 29.9990000  0  9  3  6  7 13 16 19 23 25 27
 -21764167.64107  19745671.31507 -16925967.02348  19745669.02248      -980.40100
 -11176898.35507  20709328.62807  -8684056.25448  20709326.51548     -1636.23200
 -12160847.00007  21658624.34707  -9451090.07448  21658621.22248      2666.10500
  -6722756.18406  22639793.71406  -5228789.18847  22639791.88647     -1972.42600
   8369694.28906  22159630.46406   6528659.66047  22159627.76147     -1914.49100
 -19927358.87507  20097388.93307 -15498955.21949  20097384.69449      1045.65800
    294211.75001  23290327.72901         0.00000         0.00000         0.00000
 -17695866.45707  20921872.70607 -13766475.58248  20921869.88248      1364.57900
  -7478780.57806  23021648.08106  -5801957.23047  23021646.17547      2940.44700
 08 11  4  2 39 59.9990000  0  9  3  6  7 13 16 19 23 25 27
 -21734355.32407  19751344.20607 -16902736.66449  19751342.43749      -993.74400
 -11127534.32807  20718722.41707  -8645590.78948  20718720.61248     -1645.46800
 -12240451.00807  21643475.91707  -9513119.18048  21643473.27248      2653.46700
  -6663177.94107  22651131.52607  -5182364.61747  22651129.20647     -1985.94100
   8427288.44506  22170590.29206   6573538.19147  22170587.41747     -1919.80500
 -19958268.55107  20091506.87007 -15523040.66849  20091502.96849      1030.32300
    380071.34811  23306665.66701         0.00000         0.00000         0.00000
 -17736319.62507  20914174.92507 -13797997.53948  20914172.62048      1348.43900
  -7566764.56606  23004905.57306  -5870516.19947  23004903.65947      2932.80000
 08 11  4  2 40 29.9990000  0  8  3  6  7 13 16 19 25 27
 -21704148.40607  19757092.65907 -16879198.81649  19757090.72249     -1006.89700
 -11077898.79707  20728167.76907  -8606913.76248  20728165.81548     -1654.51800
 -12319677.32007  21628399.56507  -9574853.95348  21628397.40148      2640.87700
  -6603201.08206  22662544.79206  -5135629.44147  22662542.00347     -1999.22900
   8485038.51206  22181580.07306   6618538.23048  22181577.39048     -1925.00200
 -19988722.18807  20085711.94007 -15546770.77349  20085707.11649      1015.12100
 -17776290.60907  20906568.62007 -13829143.74248  20906566.08948      1332.36600
  -7654520.63706  22988206.30806  -5938897.52347  22988203.56947      2925.20200
 08 11  4  2 40 59.9990000  0  8  3  6  7 13 16 19 25 27
 -21673549.95307  19762915.80807 -16855355.87949  19762913.25749     -1019.94800
 -11027995.07407  20737664.16707  -8568027.74248  20737662.44448     -1663.45700
 -12398524.70707  21613395.69007  -9636293.46948  21613392.69848      2628.24600
  -6542829.72306  22674032.85406  -5088586.84447  22674031.19447     -2012.37900
   8542942.60206  22192599.01106   6663658.26247  22192596.56247     -1930.13600
 -20018721.79707  20080002.95607 -15570147.09049  20079998.93349       999.98700
 -17815779.16407  20899054.15907 -13859914.06648  20899051.35848      1316.28500
  -7742047.82006  22971550.12006  -6007100.52347  22971547.23747      2917.57300
 08 11  4  2 41 29.9990000  0  8  3  6  7 13 16 19 25 27
 -21642562.43807  19768812.01107 -16831209.75448  19768809.95648     -1032.91700
 -10977825.92207  20747211.02607  -8528934.91448  20747209.08148     -1672.30500
 -12476991.62907  21598463.40907  -9697436.52048  21598460.64048      2615.56400
  -6482068.08206  22685595.29206  -5041240.09847  22685593.74947     -2025.38800
   8600999.91406  22203646.80006   6708897.70747  22203643.49147     -1935.24400
 -20048268.32407  20074380.32307 -15593170.34849  20074376.16349       984.88400
 -17854784.89807  20891631.58107 -13890308.14548  20891628.96848      1300.19100
  -7829344.95706  22954937.55806  -6075124.26647  22954935.19447      2909.90500
 08 11  4  2 41 59.9990000  0  9  3  6  7 13 16 19 23 25 27
 -21611188.44907  19774782.49507 -16806762.48448  19774779.64048     -1045.80000
 -10927393.55107  20756808.02607  -8489636.98448  20756805.87848     -1681.07900
 -12555075.71907  21583605.20607  -9758281.25848  21583601.21448      2602.80300
  -6420919.57806  22697231.14406  -4993591.91447  22697229.77647     -2038.28300
   8659210.29306  22214724.05006   6754256.39147  22214720.61647     -1940.34600
 -20077362.91007  20068844.21407 -15615841.42649  20068839.74149       969.82000
     32824.82411  23372295.91701         0.00000         0.00000         0.00000
 -17893306.53507  20884301.36207 -13920324.99648  20884298.26948      1284.05500
  -7916410.09806  22938370.30806  -6142967.21547  22938367.48747      2902.17100
 08 11  4  2 42 29.9990000  0  8  3  6  7 13 16 19 25 27
 -21579421.71507  19780827.37007 -16782009.18848  19780824.80848     -1058.89100
 -10876692.19107  20766456.04207  -8450129.42648  20766453.76548     -1690.04500
 -12632766.97707  21568821.09707  -9818819.91048  21568817.97648      2589.70900
  -6359379.75006  22708942.62806  -4945638.82847  22708939.75747     -2051.32800
   8717580.82406  22225831.29206   6799739.91047  22225828.93347     -1945.68400
 -20105998.46507  20063394.66707 -15638154.83649  20063390.49149       954.51800
 -17931335.13707  20877064.62007 -13949957.68848  20877062.42148      1267.62000
  -8003233.40606  22921848.12806  -6210621.75047  22921845.56247      2894.11000
 08 11  4  2 42 59.9990000  0  8  3  6  7 13 16 19 25 27
 -21547273.25407  19786944.93307 -16756958.44949  19786943.40549     -1071.61500
 -10825732.39807  20776153.24507  -8410420.52048  20776151.40948     -1698.66000
 -12710071.85507  21554110.37807  -9879057.48448  21554107.24948      2576.82900
  -6297460.29305  22720725.09705  -4897389.90647  22720723.08547     -2063.98200
   8776102.99606  22236967.70606   6845341.57447  22236965.02247     -1950.73900
 -20134183.78907  20058031.28407 -15660117.43449  20058027.06549       939.51100
 -17968877.81607  20869920.58907 -13979211.71548  20869918.00748      1251.42300
  -8089821.11306  22905371.08906  -6278092.69147  22905368.65547      2886.25700
 08 11  4  2 43 29.9990000  0  8  3  6  7 13 16 19 25 27
 -21514743.71107  19793135.42507 -16731610.75849  19793133.42549     -1084.31800
 -10774515.25807  20785899.59707  -8370511.08648  20785898.17148     -1707.23800
 -12786986.93407  21539473.97207  -9938991.30548  21539471.31948      2563.83600
  -6235163.72706  22732579.87006  -4848847.12147  22732578.12047     -2076.55200
   8834777.52706  22248133.09706   6891061.95347  22248130.85147     -1955.81800
 -20161918.70707  20052753.04207 -15681729.05549  20052749.20649       924.49700
 -18005932.43407  20862869.30007 -14008085.43848  20862866.69048      1235.15400
  -8176170.43406  22888939.08106  -6345377.86347  22888936.55447      2878.31100
 08 11  4  2 43 59.9990000  0  8  3  6  7 13 16 19 25 27
 -21481828.23807  19799398.80807 -16705962.34049  19799396.41349     -1097.18200
 -10723036.05907  20795695.90107  -8330397.43448  20795693.49548     -1715.97300
 -12863502.92207  21524913.51107  -9998614.13748  21524910.43348      2550.53300
  -6172486.64506  22744506.78406  -4800007.84247  22744504.83147     -2089.23600
   8893610.90206  22259328.93306   6936906.12147  22259326.35147     -1961.11300
 -20189197.27307  20047562.39407 -15702985.06349  20047558.07749       909.28600
 -18042490.85907  20855912.19807 -14036572.52348  20855909.69848      1218.61400
  -8262272.36706  22872554.74506  -6412470.26247  22872552.34747      2870.06400
 08 11  4  2 44 29.9990000  0  8  3  6  7 13 16 19 25 27
 -21448529.41807  19805735.30807 -16680015.22748  19805732.82348     -1109.96100
 -10671297.01207  20805541.62807  -8290081.30948  20805539.91348     -1724.63500
 -12939618.06607  21510429.08907 -10057924.62948  21510425.65948      2537.17100
  -6109432.40606  22756505.62806  -4750874.67247  22756504.25747     -2101.80800
   8952602.73006  22270554.65906   6982873.73447  22270552.03447     -1966.39400
 -20216020.43407  20042458.41707 -15723886.20749  20042453.94849       894.10500
 -18078552.19507  20849049.90907 -14064672.27348  20849047.32348      1202.04500
  -8348125.10206  22856217.67506  -6479368.47347  22856216.06947      2861.75800
 08 11  4  2 44 59.9990000  0  8  3  6  7 13 16 19 25 27
 -21414846.38307  19812144.87007 -16653768.70348  19812142.28048     -1122.76800
 -10619297.38307  20815436.94807  -8249562.13348  20815434.69448     -1733.32100
 -13015327.03907  21496022.08907 -10116918.62148  21496018.55848      2523.63200
  -6046001.83206  22768576.29206  -4701448.29747  22768574.40547     -2114.35200
   9011755.53506  22281811.66706   7028966.83647  22281808.60147     -1971.76000
 -20242386.48807  20037441.26907 -15744431.16849  20037437.08549       878.86800
 -18114112.39807  20842283.40107 -14092381.52748  20842280.60848      1185.34000
  -8433723.73806  22839928.55006  -6546068.70747  22839926.67947      2853.28800
 08 11  4  2 45 29.9990000  0  8  3  6  7 13 16 19 25 27
 -21380775.47308  19818628.70608 -16627219.94148  19818626.11248     -1135.69700
 -10567033.59407  20825382.37007  -8208837.09848  20825380.67148     -1742.12600
 -13090622.12107  21481694.01107 -10175590.12548  21481690.85848      2509.83600
  -5982192.02006  22780719.23706  -4651726.42247  22780717.11247     -2126.99400
   9071074.86706  22293098.76106   7075189.64147  22293096.47647     -1977.31100
 -20268290.06307  20032511.69807 -15764615.79349  20032507.89449       863.45200
 -18149164.59007  20835612.95607 -14119694.91848  20835610.26548      1168.40600
  -8519060.73006  22823689.25306  -6612565.06647  22823686.71847      2844.56600
 08 11  4  2 45 59.9990000  0  8  3  6  7 13 16 19 25 27
 -21346320.78507  19825185.01107 -16600372.13749  19825182.65549     -1148.49000
 -10514509.57807  20835377.18307  -8167909.30548  20835375.11648     -1750.80100
 -13165503.13707  21467444.31507 -10233938.96548  21467442.03448      2496.03400
  -5918008.77306  22792932.47906  -4601713.50847  22792930.65147     -2139.44200
   9130558.15606  22304418.35406   7121540.23447  22304415.22647     -1982.77600
 -20293733.74207  20027670.08107 -15784442.02049  20027665.53049       848.12300
 -18183709.60507  20829039.67507 -14146613.11748  20829036.64048      1151.50100
  -8604136.07006  22807500.19006  -6678857.50847  22807497.72947      2835.84500
 08 11  4  2 46 29.9990000  0  8  3  6  7 13 16 19 25 27
 -21311485.72308  19831814.05008 -16573227.93848  19831812.07748     -1161.16900
 -10461728.89807  20845421.30807  -8126781.52048  20845419.22648     -1759.35600
 -13239969.32007  21453273.76107 -10291964.53948  21453271.78048      2482.20600
  -5853456.98006  22805216.74506  -4551413.44147  22805213.85447     -2151.72600
   9190203.65606  22315768.59706   7168017.21147  22315765.87447     -1988.18300
 -20318720.23008  20022915.41708 -15803911.98849  20022910.51949       832.88300
 -18217747.98407  20822562.19007 -14173136.53548  20822559.10448      1134.61300
  -8688949.27306  22791360.03406  -6744945.66847  22791358.27647      2827.10700
 08 11  4  2 46 59.9990000  0  8  3  6  7 13 16 19 25 27
 -21276274.04308  19838514.47208 -16545790.27748  19838512.56548     -1173.72300
 -10408695.50007  20855513.20607  -8085456.79748  20855511.14748     -1767.78000
 -13314019.86307  21439182.77607 -10349666.25048  21439180.66348      2468.35100
  -5788541.46506  22817569.74506  -4500829.96547  22817567.71447     -2163.85100
   9250009.85206  22327149.24506   7214619.38747  22327146.64047     -1993.54000
 -20343252.15207  20018246.98707 -15823027.77749  20018242.16349       817.73100
 -18251279.99607  20816180.95607 -14199265.37548  20816178.69848      1117.73400
  -8773499.38706  22775271.13606  -6810828.88347  22775268.02647      2818.33700
 08 11  4  2 47 29.9990000  0  8  3  6  7 13 16 19 25 27
 -21240689.39807  19845285.90107 -16518062.00048  19845283.13648     -1186.15500
 -10355412.54707  20865652.68307  -8043937.61748  20865651.29248     -1776.09800
 -13387653.98807  21425170.13607 -10407043.46948  21425167.97648      2454.47100
  -5723267.35206  22829990.16706  -4449967.04347  22829988.41747     -2175.80400
   9309974.57006  22338560.41706   7261345.14147  22338557.61647     -1998.82400
 -20367331.80507  20013664.83907 -15841791.15249  20013660.80449       802.65500
 -18284305.93407  20809896.33107 -14224999.87148  20809894.06948      1100.86500
  -8857786.20706  22759232.01906  -6876506.94147  22759229.29647      2809.56100
 08 11  4  2 47 59.9990000  0  8  3  6  7 13 16 19 25 27
 -21204737.55508  19852127.65908 -16490047.57848  19852125.71048     -1198.39500
 -10301886.31607  20875838.00307  -8002228.88348  20875836.37048     -1784.20800
 -13460873.61307  21411237.16707 -10464097.72748  21411234.21048      2440.65400
  -5657641.90606  22842478.86206  -4398830.33647  22842475.88647     -2187.51500
   9370093.77306  22350000.62006   7308191.24247  22349998.17147     -2003.97300
 -20390963.44907  20009167.77607 -15860205.39549  20009163.46849       787.72100
 -18316829.04707  20803707.43307 -14250342.54748  20803705.14748      1084.10400
  -8941811.57407  22743241.33107  -6941981.23847  22743240.22947      2800.84600
 08 11  4  2 48 29.9990000  0  8  3  6  7 13 16 19 25 27
 -21168421.91008  19859038.37808 -16461749.67648  19859035.52648     -1210.52100
 -10248119.85507  20886069.60407  -7960332.93048  20886067.76548     -1792.21500
 -13533677.61307  21397383.44807 -10520828.12148  21397380.10848      2426.80000
  -5591669.75406  22855033.37806  -4347423.49647  22855030.43347     -2199.07200
   9430365.51206  22361469.87006   7355156.19947  22361467.60847     -2009.05800
 -20414149.39508  20004755.40108 -15878272.35249  20004751.20649       772.86500
 -18348849.18407  20797614.18307 -14275293.30948  20797611.71448      1067.33800
  -9025574.62906  22727302.72906  -7007251.14547  22727300.71447      2792.10200
 08 11  4  2 48 59.9990000  0  8  3  6  7 13 16 19 25 27
 -21131744.79707  19866017.51907 -16433170.12548  19866015.16348     -1222.57000
 -10194115.55907  20896346.21407  -7918251.68848  20896344.29248     -1800.14300
 -13606064.28907  21383608.79207 -10577233.31648  21383606.37048      2412.88900
  -5525354.74206  22867652.44006  -4295749.48447  22867650.51147     -2210.50000
   9490789.81606  22372968.66706   7402240.02347  22372966.09347     -2014.14300
 -20436891.06607  20000427.70607 -15895993.14149  20000423.66349       758.05600
 -18380365.77707  20791616.76107 -14299851.69148  20791614.16348      1050.55300
  -9109073.65606  22711413.15106  -7072315.32047  22711411.92147      2783.30100
 08 11  4  2 49 29.9990000  0  8  3  6  7 13 16 19 25 27
 -21094710.49607  19873064.44807 -16404312.23048  19873062.85848     -1234.47700
 -10139877.78507  20906667.58107  -7875988.50448  20906665.19048     -1807.92600
 -13678033.68407  21369913.14407 -10633313.34448  21369910.71048      2398.98000
  -5458702.39106  22880336.13606  -4243812.58647  22880334.42147     -2221.74500
   9551363.95706  22384495.52606   7449440.61747  22384493.40147     -2019.13800
 -20459191.26607  19996184.15107 -15913369.91449  19996179.97649       743.34000
 -18411379.77307  20785715.33107 -14324018.46548  20785712.88248      1033.80000
  -9192308.97706  22695574.02606  -7137173.98447  22695572.30047      2774.51100
 08 11  4  2 49 59.9990000  0  8  3  6  7 13 16 19 25 27
 -21057320.18807  19880180.15907 -16375176.92648  19880177.71448     -1246.34400
 -10085407.84807  20917032.44807  -7833544.41448  20917030.70248     -1815.66500
 -13749582.78107  21356298.12007 -10689065.89548  21356294.20248      2384.97000
  -5391715.56606  22893083.32306  -4191615.07847  22893081.15947     -2232.89400
   9612088.12506  22396050.91706   7496758.13347  22396049.06947     -2024.13900
 -20481050.43007  19992024.76107 -15930403.01649  19992020.85849       728.63900
 -18441889.82807  20779909.02607 -14347792.53148  20779906.52648      1017.00200
  -9275277.78906  22679785.66706  -7201824.99247  22679783.62847      2765.62700
 08 11  4  2 50 29.9990000  0  8  3  6  7 13 16 19 25 27
 -21019570.02707  19887363.90107 -16345761.23048  19887361.43748     -1258.33900
 -10030701.71507  20927443.06507  -7790916.28548  20927441.31548     -1823.53800
 -13820703.30907  21342764.15107 -10744484.48048  21342761.47248      2370.68400
  -5324391.86706  22905894.51106  -4139155.11747  22905892.28447     -2244.12300
   9672968.23406  22407635.57306   7544197.14547  22407633.85447     -2029.33700
 -20502463.35907  19987949.95607 -15947088.40249  19987945.80449       713.76400
 -18471888.71507  20774200.47207 -14371168.29348  20774197.77648       999.96300
  -9357972.07406  22664048.98706  -7266262.08247  22664047.29647      2756.47600
 08 11  4  2 50 59.9990000  0  8  3  6  7 13 16 19 25 27
 -20981458.59407  19894616.26107 -16316064.01248  19894614.20248     -1270.38100
  -9975757.60907  20937898.37007  -7748102.69148  20937896.12848     -1831.47000
 -13891389.25407  21329312.87007 -10799564.41848  21329310.64748      2356.19800
  -5256730.75405  22918769.40105  -4086432.17247  22918767.88647     -2255.37000
   9734008.06606  22419249.86206   7591760.59847  22419248.73747     -2034.66100
 -20523427.36707  19983960.71407 -15963424.00849  19983956.24149       698.80000
 -18501371.42207  20768590.30807 -14394141.84848  20768587.90948       982.75700
  -9440385.71906  22648366.47206  -7330480.49647  22648364.06247      2747.12100
 08 11  4  2 51 29.9990000  0  8  3  6  7 13 16 19 25 27
 -20942989.16407  19901936.43307 -16286087.82448  19901934.61248     -1282.31400
  -9920578.84407  20948398.28407  -7705106.26648  20948396.51148     -1839.29200
 -13961639.80907  21315944.69807 -10854305.12948  21315941.81948      2341.68500
  -5188737.07406  22931708.23706  -4033450.14146  22931706.54246     -2266.45600
   9795205.93806  22430897.05006   7639447.21147  22430894.31547     -2039.92900
 -20543944.28507  19980056.57307 -15979411.21149  19980052.00349       683.89700
 -18530338.50407  20763078.12807 -14416713.59848  20763075.71848       965.56900
  -9522518.17206  22632737.39406  -7394479.81347  22632735.19847      2737.74800
 08 11  4  2 51 59.9990000  0  8  3  6  7 13 16 19 25 27
 -20904165.89807  19909324.11207 -16255835.93448  19909321.40548     -1294.10900
  -9865169.66407  20958942.69807  -7661930.30148  20958941.15548     -1846.97300
 -14031455.17607  21302659.54207 -10908706.71148  21302656.80848      2327.17900
  -5120416.33205  22944709.23705  -3980213.23046  22944707.58146     -2277.35800
   9856559.21506  22442572.67506   7687254.93047  22442569.94447     -2045.10900
 -20564017.70307  19976236.52607 -15995052.82449  19976232.45649       669.11400
 -18558791.15607  20757663.60407 -14438884.48448  20757661.42948       948.42200
  -9604369.64106  22617161.87806  -7458260.17647  22617159.63647      2728.38200
 08 11  4  2 52 29.9990000  0  8  3  6  7 13 16 19 25 27
 -20864988.03107  19916779.45607 -16225307.73048  19916777.34348     -1305.92900
  -9809528.81307  20969530.94007  -7618573.81348  20969528.73348     -1854.69500
 -14100829.85507  21289457.56507 -10962764.90648  21289455.08548      2312.48900
  -5051768.78505  22957772.55005  -3926721.66446  22957771.30046     -2288.25200
   9918070.61306  22454277.24506   7735185.85947  22454274.85847     -2050.38000
 -20583645.13707  19972501.90107 -16010346.91449  19972497.32749       654.24800
 -18586725.29707  20752347.90107 -14460651.33648  20752345.23348       931.13800
  -9685934.63706  22601640.40106  -7521817.33247  22601638.46847      2718.83300
 08 11  4  2 52 59.9990000  0  8  3  6  7 13 16 19 25 27
 -20825459.18407  19924301.80807 -16194506.04748  19924299.42948     -1317.62800
  -9753660.70307  20980161.97907  -7575040.22748  20980160.14048     -1862.27000
 -14169764.08207  21276339.93307 -11016479.86748  21276336.33948      2297.80800
  -4982800.55506  22970897.67506  -3872980.24646  22970894.92146     -2298.94100
   9979737.83606  22466012.33106   7783238.21947  22466009.90147     -2055.57400
 -20602829.93807  19968850.79207 -16025296.11749  19968846.45649       639.49300
 -18614142.19907  20747130.69007 -14482015.17648  20747127.85848       913.89700
  -9767213.70306  22586173.54206  -7585151.67647  22586171.64047      2709.30200
 08 11  4  2 53 29.9990000  0  8  3  6  7 13 16 19 25 27
 -20785577.68407  19931890.90907 -16163429.55948  19931888.55848     -1329.38300
  -9697563.03107  20990837.41707  -7531327.77048  20990834.95648     -1869.92200
 -14238251.39807  21263307.10407 -11069846.61348  21263304.44448      2282.91100
  -4913510.79305  22984082.73705  -3818988.25846  22984080.24546     -2309.65900
  10041564.68406  22477777.58106   7831414.92647  22477775.19847     -2060.89500
 -20621568.93407  19965284.79207 -16039897.94149  19965280.95249       624.63300
 -18641036.96107  20742012.67507 -14502972.14148  20742010.18748       896.49200
  -9848200.66806  22570762.13606  -7648258.37947  22570759.88647      2699.56500
 08 11  4  2 53 59.9990000  0  8  3  6  7 13 16 19 25 27
 -20745350.33607  19939546.02607 -16132083.58248  19939544.26148     -1340.91200
  -9641242.41407  21001554.74507  -7487441.58248  21001552.91748     -1877.35400
 -14306294.26607  21250358.95607 -11122866.98848  21250356.74948      2268.09600
  -4843907.33205  22997327.56505  -3764751.80946  22997325.71846     -2320.11500
  10103546.48006  22489572.69806   7879712.38747  22489569.97647     -2066.06000
 -20639867.31607  19961802.91707 -16054156.41449  19961798.80449       609.94600
 -18667413.00807  20736993.49507 -14523524.90648  20736990.94448       879.20200
  -9928897.79306  22555405.46406  -7711139.24247  22555403.89747      2689.90400
 08 11  4  2 54 29.9990000  0  8  3  6  7 13 16 19 25 27
 -20704779.43007  19947266.31507 -16100469.88348  19947264.08948     -1352.36400
  -9584701.48407  21012313.92507  -7443383.71948  21012312.38648     -1884.69800
 -14373891.32807  21237496.13607 -11175540.04348  21237493.25348      2253.23500
  -4773994.46105  23010631.61205  -3710274.28546  23010629.34346     -2330.42900
  10165682.28506  22501396.40906   7928129.88347  22501393.76947     -2071.19300
 -20657727.05507  19958404.12007 -16068073.07849  19958399.62449       595.32500
 -18693270.31307  20732073.17507 -14543673.47348  20732070.53048       861.91000
 -10009303.68006  22540105.20606  -7773793.18447  22540103.08147      2680.19600
 08 11  4  2 54 59.9990000  0  8  3  6  7 13 16 19 25 27
 -20663865.13307  19955051.90907 -16068588.62148  19955050.07348     -1363.81000
  -9527940.20707  21023115.58107  -7399154.19148  21023113.12048     -1892.04300
 -14441038.47707  21224717.95607 -11227862.50048  21224715.31948      2238.23800
  -4703773.81305  23023994.10405  -3655556.93446  23023991.18346     -2340.68800
  10227973.58206  22513250.01906   7976668.52747  22513248.09347     -2076.37700
 -20675147.14807  19955089.29207 -16081647.17649  19955084.66749       580.67000
 -18718605.96107  20727251.86207 -14563415.53948  20727249.30848       844.52200
 -10089414.51206  22524860.74506  -7836217.22347  22524858.96847      2670.36100
 08 11  4  2 55 29.9990000  0  8  3  6  7 13 16 19 25 27
 -20622611.99607  19962902.23707 -16036443.34048  19962900.05448     -1375.10500
  -9470962.56607  21033957.98707  -7354756.03148  21033955.81548     -1899.25500
 -14507735.30507  21212025.86207 -11279834.05148  21212022.69048      2223.22800
  -4633250.63303  23037413.83103  -3600603.86345  23037411.00345     -2350.77300
  10290418.05906  22525132.97206   8025326.53947  22525130.25347     -2081.48300
 -20692130.64807  19951857.43307 -16094881.08249  19951852.80849       566.11700
 -18743420.99607  20722529.95607 -14582751.93449  20722527.59749       827.16800
 -10169229.89106  22509672.04206  -7898411.00847  22509670.57747      2660.51300
 08 11  4  2 55 59.9990000  0  8  3  6  7 13 16 19 25 27
 -20581019.04307  19970817.58107 -16004033.24648  19970814.72248     -1386.43200
  -9413767.53107  21044841.74507  -7310188.49648  21044839.69848     -1906.50100
 -14573977.03907  21199420.82307 -11331450.99248  21199417.62448      2208.05800
  -4562425.93004  23050892.65104  -3545415.87545  23050889.29245     -2360.82300
  10353018.75406  22537045.92506   8074106.26647  22537043.22247     -2086.69000
 -20708675.98007  19948708.95607 -16107773.54349  19948704.40549       551.51100
 -18767711.78107  20717907.44807 -14601679.82049  20717905.24549       809.69300
 -10248745.13706  22494540.83906  -7960370.93447  22494539.58947      2650.50800
 08 11  4  2 56 29.9990000  0  8  3  6  7 13 16 19 25 27
 -20539089.29707  19978796.20607 -15971360.72748  19978793.95248     -1397.65800
  -9356358.41007  21055766.22907  -7265454.12548  21055764.85148     -1913.63700
 -14639762.73407  21186902.15907 -11382712.56648  21186899.19448      2192.85700
  -4491304.40204  23064425.34704  -3489996.46145  23064423.86245     -2370.71800
  10415773.80506  22548987.98706   8123006.23447  22548984.89447     -2091.83500
 -20724784.80907  19945643.18307 -16120325.86349  19945638.98349       536.96100
 -18791478.77307  20713384.87007 -14620199.55149  20713382.57349       792.23300
 -10327959.44106  22479466.99506  -8022096.35547  22479465.08547      2640.47700
 08 11  4  2 56 59.9990000  0  9  3  6  7 11 13 16 19 25 27
 -20496825.97307  19986838.19007 -15938428.26248  19986836.62848     -1408.77700
  -9298738.35507  21066730.91707  -7220555.41848  21066728.99148     -1920.66800
 -14705091.59807  21174470.30007 -11433618.16848  21174467.28448      2177.62900
   -205920.41816  23687853.62806   -151935.27756  23687850.05846         0.00000
  -4419890.69904  23078015.76104  -3434349.40645  23078013.78845     -2380.45700
  10478681.81606  22560958.82306   8172025.45747  22560956.19847     -2096.93400
 -20740459.80507  19942660.76107 -16132540.14149  19942656.09349       522.50000
 -18814722.39107  20708961.94007 -14638311.45748  20708958.75748       774.78700
 -10406871.90206  22464450.45606  -8083586.56647  22464448.62047      2630.41500
 08 11  4  2 57 29.9990000  0  9  3  6  7 11 13 16 19 25 27
 -20454231.48007  19994943.69807 -15905237.76248  19994941.89448     -1419.81600
  -9240909.91007  21077735.43307  -7175494.30548  21077733.39048     -1927.61500
 -14769962.05107  21162126.09707 -11484166.58248  21162123.23748      2162.34800
   -323615.69106  23665456.76906   -243645.77346  23665453.10146      3923.17600
  -4348188.64505  23091659.91705  -3378477.71146  23091658.41746     -2390.06800
  10541741.93406  22572958.65106   8221163.19147  22572956.15547     -2102.00400
 -20755702.59407  19939760.26907 -16144417.65249  19939755.82749       508.09300
 -18837442.45707  20704638.05007 -14656015.41448  20704635.13248       757.33600
 -10485480.95306  22449491.66706  -8144840.39547  22449489.37847      2620.30200
 08 11  4  2 57 59.9990000  0  9  3  6  7 11 13 16 19 25 27
 -20411302.93007  20003113.01107 -15871786.95348  20003110.74948     -1430.95200
  -9182869.17607  21088780.76907  -7130267.76648  21088778.69448     -1934.69100
 -14834366.32407  21149870.32307 -11534351.71948  21149867.39448      2146.80900
   -441241.83606  23643073.70606   -335302.44546  23643069.95646      3920.87100
  -4276196.11704  23105359.86204  -3322379.67245  23105357.68745     -2399.75100
  10604959.87106  22584988.15906   8270423.87547  22584985.71047     -2107.26500
 -20770508.44107  19936942.65907 -16155954.66849  19936938.47949       493.52800
 -18859632.39507  20700415.42507 -14673306.27348  20700412.99148       739.66500
 -10563778.91806  22434591.87806  -8205851.78547  22434589.87847      2609.93200
 08 11  4  2 58 29.9990000  0  9  3  6  7 11 13 16 19 25 27
 -20368044.25807  20011345.02607 -15838078.91448  20011342.95248     -1441.95600
  -9124620.69507  21099864.55807  -7084879.35548  21099863.45648     -1941.61600
 -14898305.05107  21137703.78407 -11584174.10948  21137700.20648      2131.29100
   -558799.48006  23620702.83106   -426905.71946  23620700.01146      3918.58800
  -4203919.42204  23119114.28404  -3266060.14545  23119112.28845     -2409.22300
  10668332.35206  22597048.14406   8319805.00447  22597045.29247     -2112.41600
 -20784881.16007  19934207.51107 -16167154.18449  19934203.63249       479.09100
 -18881294.15607  20696293.35407 -14690185.57048  20696290.81248       722.05900
 -10641766.26606  22419751.55006  -8266621.13347  22419748.97647      2599.57800
 08 11  4  2 58 59.9990000  0  9  3  6  7 11 13 16 19 25 27
 -20324451.19507  20019640.33107 -15804110.29748  20019637.61248     -1453.10200
  -9066160.28507  21110989.48707  -7039325.80548  21110988.26948     -1948.68000
 -14961769.66007  21125626.37007 -11633627.05148  21125623.68748      2115.48700
   -676280.03906  23598346.49506   -518448.96546  23598344.18746      3916.01900
  -4131355.87104  23132922.44004  -3209517.17245  23132920.34345     -2418.78500
  10731865.73406  22609137.97206   8369311.48847  22609135.05047     -2117.77900
 -20798815.42207  19931555.55007 -16178012.05549  19931551.67549       464.47500
 -18902420.66407  20692273.21407 -14706647.79348  20692270.74548       704.21700
 -10719434.48806  22404972.35406  -8327141.81647  22404969.46447      2588.94100
 08 11  4  2 59 29.9990000  0  9  3  6  7 11 13 16 19 25 27
 -20280525.58607  20027999.33907 -15769882.57448  20027996.98748     -1464.18700
  -9007488.91807  21122154.13607  -6993607.87948  21122152.53848     -1955.71200
 -15024757.52707  21113640.33107 -11682708.49648  21113637.33948      2099.59600
   -793680.87506  23576006.96406   -609930.07846  23576003.87446      3913.36100
  -4058508.15202  23146784.70602         0.00000         0.00000     -2428.25700
  10795560.16006  22621258.93306   8418943.48847  22621255.44847     -2123.14800
 -20812311.55507  19928987.57307 -16188528.52349  19928982.77249       449.87100
 -18923010.49607  20688354.92507 -14722691.82848  20688352.64748       686.32800
 -10796780.96906  22390253.58906  -8387411.80948  22390251.65948      2578.21600
 08 11  4  2 59 59.9990000  0  9  3  6  7 11 13 16 19 25 27
 -20236267.40207  20036421.19807 -15735395.68048  20036419.03848     -1475.27300
  -8948606.93807  21133359.40107  -6947725.81648  21133357.37848     -1962.73300
 -15087264.59407  21101745.80807 -11731415.31348  21101742.82348      2083.56900
   -910997.50006  23553680.69806   -701345.55146  23553679.21046      3910.55400
  -3985378.02311  23160697.61201         0.00000         0.00000     -2437.73000
  10859417.17606  22633410.93306   8468702.16047  22633406.65547     -2128.56700
 -20825368.96507  19926503.29207 -16198703.10949  19926498.64449       435.24700
 -18943061.21907  20684539.55007 -14738315.75448  20684537.30848       668.35700
 -10873802.04306  22375597.20606  -8447428.21548  22375594.96848      2567.36900
 08 11  4  3  0 29.9990000  0  9  3  6  7 11 13 16 19 25 27
 -20191679.18407  20044905.76907 -15700651.62548  20044904.24148     -1486.27400
  -8889516.22307  21144603.30807  -6901681.10548  21144601.94848     -1969.69000
 -15149289.35207  21089942.47907 -11779746.28948  21089939.74948      2067.49200
  -1028228.05105  23531372.71405   -792693.95746  23531371.31546      3907.68500
  -3911968.87912  23174669.63602         0.00000         0.00000     -2447.20200
  10923436.60206  22645593.47206   8518587.39147  22645589.57747     -2133.98100
 -20837988.77708  19924101.50308 -16208536.71949  19924097.26949       420.66000
 -18962572.26207  20680826.88607 -14753519.16048  20680824.52248       650.36800
 -10950495.62906  22361002.87806  -8507189.45348  22361000.22648      2556.45300
 08 11  4  3  0 59.9990000  0  9  3  6  7 11 13 16 19 25 27
 -20146761.49207  20053453.47207 -15665650.83648  20053451.24948     -1497.25600
  -8830217.22707  21155887.65907  -6855474.12548  21155886.46048     -1976.63300
 -15210827.96907  21078231.71407 -11827698.46548  21078228.70248      2051.28700
  -1145368.95705  23509081.90105   -883972.52746  23509079.10846      3904.69700
  -3838283.03501  23188691.01101         0.00000         0.00000     -2456.19500
  10987619.67606  22657806.13606   8568600.10547  22657802.97647     -2139.43600
 -20850170.87107  19921783.02607 -16218029.26249  19921779.28449       406.07000
 -18981541.51207  20677216.80807 -14768300.40648  20677214.23348       632.30800
 -11026858.59806  22346471.62806  -8566693.07048  22346468.58148      2545.43200
 08 11  4  3  1 29.9990000  0  9  3  6  7 11 13 16 19 25 27
 -20101517.57807  20062063.40907 -15630395.82848  20062060.93348     -1508.13000
  -8770713.23807  21167211.27607  -6809107.38748  21167209.29648     -1983.46600
 -15271879.85907  21066614.26107 -11875271.37148  21066610.19048      2035.06300
  -1262419.60905  23486807.95605   -975180.80146  23486805.16346      3901.68800
  -3764325.53101  23202766.15101         0.00000         0.00000     -2465.25000
  11051964.49206  22670050.99506   8618738.88747  22670047.30447     -2144.82700
 -20861917.54707  19919547.97207 -16227182.52749  19919543.78449       391.55600
 -18999969.66807  20673710.50307 -14782660.02748  20673707.68748       614.27200
 -11102889.99606  22332002.79206  -8625938.31348  22332000.44848      2534.38000
 08 11  4  3  1 59.9990000  0  8  3  6  7 11 16 19 25 27
 -20055947.85207  20070735.02607 -15594886.94948  20070732.06548     -1518.99100
  -8711004.62507  21178573.15107  -6762581.20748  21178570.84748     -1990.28700
 -15332441.68807  21055089.87007 -11922462.41048  21055086.39048      2018.72800
  -1379376.09405  23464551.68305  -1066315.68846  23464549.31946      3898.54900
  11116472.23006  22682326.02606   8669004.66447  22682322.47647     -2150.25800
 -20873228.84807  19917395.86207 -16235996.50449  19917390.93749       377.04300
 -19017854.72307  20670306.98707 -14796596.45748  20670304.13648       596.16800
 -11178586.16006  22317598.32306  -8684922.32848  22317595.88648      2523.20500
 08 11  4  3  2 29.9990000  0  8  3  6  7 11 16 19 25 27
 -20010051.96107  20079468.61207 -15559123.93048  20079466.69048     -1529.86300
  -8651090.62107  21189974.69807  -6715894.99648  21189972.60848     -1997.13300
 -15392508.87907  21043659.45607 -11969268.02048  21043656.64448      2002.24000
  -1496233.61306  23442314.39406  -1157373.43846  23442312.20246      3895.25100
  11181145.55506  22694632.65906   8719399.38347  22694630.05047     -2155.77700
 -20884103.01607  19915326.50307 -16244469.86749  19915322.03449       362.47200
 -19035193.34007  20667007.47907 -14810107.07048  20667005.23748       577.95400
 -11253942.25806  22303258.41706  -8743641.36348  22303256.74148      2511.87000
 08 11  4  3  2 59.9990000  0  9  3  6  7 11 13 16 19 25 27
 -19963835.60907  20088263.37807 -15523111.21948  20088260.95248     -1540.54500
  -8590977.24207  21201413.81507  -6669053.41448  21201411.72948     -2003.77900
 -15452083.39507  21032322.39407 -12015689.73448  21032320.04248      1985.81700
  -1612993.97706  23420095.68306  -1248355.47346  23420093.65946      3892.01200
     32440.08201  23245295.01901         0.00000         0.00000         0.00000
  11245979.91406  22706970.78406   8769919.67647  22706967.81547     -2161.14500
 -20894545.52007  19913338.97207 -16252606.89149  19913334.83149       348.08300
 -19051989.09007  20663811.08907 -14823194.66048  20663808.48748       559.85800
 -11328960.59806  22288983.02606  -8802097.21548  22288981.14748      2500.61100
 08 11  4  3  3 29.9990000  0  9  3  6  7 11 13 16 19 25 27
 -19917300.52007  20097118.61207 -15486850.11348  20097116.60148     -1551.17000
  -8530665.68807  21212890.63607  -6622057.43048  21212888.56948     -2010.38500
 -15511162.74607  21021079.97207 -12061725.58248  21021077.58548      1969.31200
  -1729654.32806  23397896.00306  -1339259.60547  23397894.44047      3888.67800
    107455.94111  23259566.64401         0.00000         0.00000         0.00000
  11310975.73806  22719338.88606   8820565.71547  22719336.13647     -2166.52700
 -20904556.77007  19911434.12007 -16260407.86749  19911429.82349       333.70800
 -19068240.79307  20660718.82307 -14835858.33648  20660716.35148       541.72300
 -11403638.33206  22274772.33906  -8860287.66048  22274769.79248      2489.25800
 08 11  4  3  3 59.9990000  0  9  3  6  7 11 13 16 19 25 27
 -19870450.36707  20106033.96407 -15450343.50448  20106031.67948     -1561.67200
  -8470159.44507  21224404.79207  -6574909.73048  21224403.10148     -2016.87500
 -15569746.50407  21009932.37807 -12107375.24648  21009929.84748      1952.79200
  -1846214.10906  23375715.59706  -1430085.38747  23375714.51147      3885.32600
    182724.60201  23273891.91701         0.00000         0.00000     -2508.95500
  11376131.10906  22731737.68306   8871336.10247  22731736.10847     -2171.84600
 -20914139.53907  19909610.50307 -16267874.94149  19909606.26549       319.42600
 -19083949.53907  20657729.34707 -14848098.92248  20657728.00348       523.62500
 -11477975.18406  22260626.37806  -8918212.47748  22260623.90148      2477.89500
 08 11  4  3  4 29.9990000  0  9  3  6  7 11 13 16 19 25 27
 -19823285.75407  20115009.02607 -15413591.87148  20115006.85848     -1572.15400
  -8409459.00807  21235955.57307  -6527610.69548  21235953.97248     -2023.34800
 -15627831.36707  20998878.96407 -12152636.18048  20998876.47948      1936.16200
  -1962669.74606  23353555.05806  -1520830.00847  23353553.24147      3881.85500
    258244.39501  23288263.15101         0.00000         0.00000     -2517.32600
  11441447.10906  22744167.16706   8922231.64847  22744165.67147     -2177.20000
 -20923293.91807  19907868.27607 -16275008.21549  19907863.76549       305.14600
 -19099113.45707  20654843.90107 -14859914.95348  20654841.87848       505.46400
 -11551967.88306  22246546.11206  -8975869.10248  22246543.71848      2466.42300
 08 11  4  3  4 59.9990000  0  8  3  6  7 11 16 19 25 27
 -19775810.69107  20124043.19807 -15376598.31348  20124041.21848     -1582.50200
  -8348568.18807  21247542.33107  -6480163.30948  21247541.08148     -2029.69400
 -15685417.24607  20987920.58107 -12197508.30548  20987917.71848      1919.52900
  -2079021.09406  23331413.67506  -1611493.35547  23331411.93347      3878.37800
  11506921.68406  22756626.76906   8973250.74247  22756624.29647     -2182.48600
 -20932022.71507  19906207.26907 -16281809.87549  19906202.80049       290.96000
 -19113733.97307  20652061.70607 -14871307.57448  20652059.53848       487.35100
 -11625616.22706  22232530.90106  -9033257.40648  22232529.15548      2454.94500
 08 11  4  3  5 29.9990000  0  8  3  6  7 11 16 19 25 27
 -19728028.53107  20133135.85407 -15339365.46948  20133133.92148     -1592.73900
  -8287490.34807  21259165.37807  -6432570.21548  21259163.98348     -2035.92800
 -15742504.01607  20977057.56507 -12241991.50848  20977053.92948      1902.89200
  -2195267.32406  23309292.85406  -1702074.81347  23309290.29647      3874.87400
  11572552.78106  22769116.23706   9024391.82847  22769114.05847     -2187.70300
 -20940329.02308  19904626.96408 -16288282.33649  19904622.38249       276.87700
 -19127812.07807  20649382.58107 -14882277.53948  20649380.00348       469.27000
 -11698919.71106  22218582.33106  -9090377.02048  22218579.87448      2443.44900
 08 11  4  3  5 59.9990000  0  8  3  6  7 11 16 19 25 27
 -19679940.57007  20142286.80007 -15301894.33248  20142284.32348     -1602.93200
  -8226226.36707  21270823.75307  -6384832.05148  21270822.28848     -2042.13300
 -15799088.52307  20966289.77607 -12286083.32448  20966286.72248      1886.15000
  -2311405.21906  23287192.33106  -1792571.82846  23287189.87046      3871.26300
  11638340.91006  22781634.98706   9075655.26247  22781632.72647     -2192.93800
 -20948212.91008  19903126.69808 -16294425.60249  19903122.84349       262.79600
 -19141346.50007  20646807.56507 -14892823.84048  20646805.24148       451.14700
 -11771875.62106  22204699.01906  -9147225.78148  22204696.69048      2431.86400
 08 11  4  3  6 29.9990000  0  8  3  6  7 11 16 19 25 27
 -19631544.29707  20151496.54207 -15264182.98048  20151493.49948     -1613.20900
  -8164773.53907  21282517.72207  -6336946.75048  21282516.17148     -2048.42800
 -15855164.68007  20955618.92507 -12329779.03948  20955616.02248      1869.20500
  -2427428.02705  23265113.01905  -1882979.12146  23265111.51146      3867.42700
  11704290.40606  22794184.48706   9127044.45347  22794182.38647     -2198.31700
 -20955670.83607  19901707.47907 -16300236.97349  19901703.37449       248.59800
 -19154332.14107  20644336.28407 -14902942.51648  20644334.06248       432.85500
 -11844477.21506  22190883.72906  -9203798.43848  22190881.81548      2420.05300
 08 11  4  3  6 59.9990000  0  8  3  6  7 11 16 19 25 27
 -19582846.23007  20160763.05807 -15226236.43848  20160760.78448     -1623.26900
  -8103138.53107  21294246.41707  -6288919.49248  21294244.33948     -2054.50000
 -15910735.03907  20945044.20607 -12373080.62948  20945041.83548      1852.34500
  -2543338.34404  23243055.86204  -1973298.78146  23243054.42946      3863.67700
  11770396.61306  22806764.44006   9178555.75447  22806761.83547     -2203.54000
 -20962709.25407  19900368.02607 -16305721.46949  19900363.53449       234.61400
 -19166773.33207  20641968.69807 -14912636.96148  20641966.08148       414.70600
 -11916727.18006  22177134.54206  -9260097.11748  22177132.39048      2408.33200
 08 11  4  3  7 29.9990000  0  8  3  6  7 11 16 19 25 27
 -19533850.39507  20170086.88607 -15188057.87548  20170084.91348     -1633.19500
  -8041324.62507  21306009.00307  -6240752.84048  21306007.39048     -2060.46400
 -15965799.58607  20934565.78407 -12415988.06348  20934563.15948      1835.48500
  -2659135.41004  23221021.35404  -2063530.18046  23221019.53046      3859.90200
  11836657.55906  22819373.41706   9230187.59847  22819371.03047     -2208.69800
 -20969330.93007  19899107.79207 -16310881.21549  19899103.11649       220.72300
 -19178671.36707  20639704.55007 -14921908.16448  20639702.16348       396.60100
 -11988625.06606  22163453.25306  -9316121.44148  22163450.63248      2396.59600
 08 11  4  3  7 59.9990000  0  8  3  6  7 11 16 19 25 27
 -19484554.27707  20179467.69807 -15149645.32048  20179465.41348     -1643.20400
  -7979329.21907  21317806.22907  -6192444.75048  21317804.63248     -2066.51400
 -16020351.93807  20924184.89407 -12458496.37948  20924182.16748      1818.41200
  -2774812.71905  23199008.34705  -2153668.28546  23199005.99946      3855.91000
  11903077.23806  22832012.76106   9281943.16847  22832010.78447     -2213.98900
 -20975532.62907  19897927.98707 -16315713.69549  19897923.46449       206.72300
 -19190021.40207  20637544.68307 -14930752.35548  20637541.81548       378.33500
 -12060164.43406  22149839.72206  -9371866.39548  22149837.34748      2384.64600
 08 11  4  3  8 29.9990000  0  8  3  6  7 11 16 19 25 27
 -19434963.98407  20188904.14407 -15111003.54348  20188902.06948     -1653.01000
  -7917158.35207  21329637.34707  -6143999.92648  21329635.85848     -2072.36200
 -16074394.28507  20913901.31507 -12500607.30548  20913898.36648      1801.41200
  -2890372.32405  23177018.35405  -2243714.64847  23177016.12047      3851.98700
  11969650.94906  22844680.87006   9333818.75047  22844679.28047     -2219.12400
 -20981319.89807  19896826.55007 -16320223.25449  19896822.28849       192.90900
 -19200827.26607  20635488.40907 -14939172.50848  20635485.82748       360.19500
 -12131347.60506  22136293.83906  -9427333.81348  22136291.46848      2372.77200
 08 11  4  3  8 59.9990000  0  9  3  6  7  8 11 16 19 25 27
 -19385083.06607  20198396.34707 -15072135.30548  20198394.53848     -1662.69700
  -7854815.36307  21341501.21407  -6095420.99248  21341499.10848     -2078.10000
 -16127926.68807  20903714.15107 -12542320.87148  20903711.33948      1784.41300
   -150981.15615  23859290.69805    -94393.43856  23859288.85846         0.00000
  -3005813.33606  23155051.03406  -2333668.61747  23155048.25747      3848.03400
  12036377.09006  22857378.52606   9385813.10247  22857376.23347     -2224.20500
 -20986695.59808  19895803.49508 -16324412.10249  19895799.67949       179.19000
 -19211090.27007  20633535.62007 -14947169.66848  20633533.01548       342.10000
 -12202173.98006  22122815.96406  -9482523.19548  22122813.66748      2360.87900
 08 11  4  3  9 29.9990000  0  9  3  6  7  8 11 16 19 25 27
 -19334907.39507  20207944.61207 -15033037.39548  20207942.68748     -1672.52200
  -7792295.61707  21353397.74507  -6046704.32848  21353395.78848     -2083.99200
 -16180940.69107  20893625.90907 -12583630.47748  20893623.06948      1767.13300
   -262590.50405  23838052.61205   -181361.71946  23838050.64446      3720.31200
  -3121127.28506  23133107.33106  -2423523.57447  23133105.03847      3843.79800
  12103261.65606  22870106.65906   9437930.92647  22870104.30447     -2229.48600
 -20991654.34807  19894859.91707 -16328276.07449  19894856.02249       165.29200
 -19220803.49607  20631687.04207 -14954738.42648  20631684.61248       323.77400
 -12272635.26606  22109407.34706  -9537428.09847  22109404.90947      2348.71000
 08 11  4  3  9 59.9990000  0  9  3  6  7  8 11 16 19 25 27
 -19284443.22307  20217547.60407 -14993714.67248  20217545.44848     -1682.13900
  -7729605.98407  21365327.51907  -5997855.27348  21365324.81948     -2089.65400
 -16233439.53107  20883635.17507 -12624538.65648  20883632.51548      1749.96100
   -374025.51205  23816846.99505   -268194.19146  23816845.92146      3714.50000
  -3236316.86306  23111187.24506  -2513281.63747  23111185.08147      3839.65300
  12170299.65206  22882863.06506   9490168.30147  22882861.22647     -2234.60000
 -20996202.57008  19893994.58108 -16331820.13749  19893990.27249       151.60700
 -19229971.76607  20629942.33907 -14961882.54748  20629940.07748       305.60900
 -12342734.34806  22096068.12006  -9592050.76647  22096065.09347      2336.63600
 08 11  4  3 10 29.9990000  0  9  3  6  7  8 11 16 19 25 27
 -19233689.32407  20227205.44007 -14954166.18448  20227203.59748     -1691.79700
  -7666744.02307  21377289.58107  -5948871.90648  21377288.24548     -2095.39900
 -16285417.37507  20873744.66707 -12665040.88348  20873741.54648      1732.59500
   -485279.42205  23795675.48705   -354885.54746  23795676.54246      3708.46400
  -3351375.54306  23089292.65906  -2602937.74647  23089289.91747      3835.28900
  12237494.50806  22895650.21406   9542527.87947  22895648.75347     -2239.82900
 -21000337.89108  19893207.67508 -16335042.44149  19893203.13649       137.84400
 -19238590.88307  20628302.37807 -14968598.75048  20628299.65148       287.30400
 -12412465.53506  22082798.99506  -9646386.76648  22082796.64048      2324.37300
 08 11  4  3 10 59.9990000  0  9  3  6  7  8 11 16 19 25 27
 -19182647.77707  20236918.73707 -14914393.55548  20236916.67148     -1701.38500
  -7603711.89507  21389284.03407  -5899755.99648  21389282.94848     -2101.07100
 -16336872.98407  20863952.53407 -12705136.16048  20863950.53048      1715.18700
   -596350.33604  23774539.97204   -441434.28546  23774540.60146      3702.36400
  -3466301.80506  23067422.26906  -2692490.64147  23067420.52247      3830.87500
  12304845.78906  22908466.34706   9595009.33647  22908464.25747     -2245.04300
 -21004061.74608  19892498.83108 -16337944.14149  19892494.50749       124.12900
 -19246660.84407  20626766.55807 -14974887.04348  20626763.95648       268.99900
 -12481827.03106  22069599.65906  -9700434.68448  22069598.15148      2312.05000
 08 11  4  3 11 29.9990000  0  9  3  6  7  8 11 16 19 25 27
 -19131325.30107  20246684.70607 -14874402.00448  20246682.44048     -1710.74900
  -7540515.95707  21401310.02607  -5850512.41848  21401308.31948     -2106.53100
 -16387808.92207  20854259.68307 -12744826.50448  20854257.31948      1697.86500
   -707240.00404  23753438.29204   -527841.83646  23753439.32346      3696.32200
  -3581097.60506  23045576.96406  -2781941.84847  23045575.96047      3826.52700
  12372348.50006  22921311.73706   9647608.80547  22921309.94447     -2250.09000
 -21007379.72307  19891867.53407 -16340529.59449  19891862.96049       110.59900
 -19254185.79307  20625334.87807 -14980750.64848  20625332.39748       250.83200
 -12550821.39806  22056469.85406  -9754196.52748  22056468.56948      2299.81200
 08 11  4  3 11 59.9990000  0  9  3  6  7  8 11 16 19 25 27
 -19079722.74207  20256504.14407 -14834192.22348  20256503.11248     -1720.08500
  -7477157.34007  21413367.00307  -5801142.07048  21413365.31948     -2111.95400
 -16438222.92207  20844666.47207 -12784110.15248  20844663.48348      1680.46700
   -817945.05104  23732372.58904   -614105.55946  23732373.20246      3690.16800
  -3695760.35505  23023757.27605  -2871289.40646  23023756.30446      3822.09200
  12440003.09806  22934185.95606   9700326.64547  22934184.09747     -2255.15300
 -21010292.95307  19891313.05807 -16342799.63749  19891308.36649        97.10800
 -19261165.19107  20624006.30807 -14986189.15648  20624004.30048       232.64700
 -12619446.18406  22043411.80806  -9807670.39548  22043409.79248      2287.49300
 08 11  4  3 12 29.9990000  0  9  3  6  7  8 11 16 19 25 27
 -19027839.47307  20266377.31507 -14793763.72348  20266375.40148     -1729.44200
  -7413634.69507  21425454.87807  -5751643.91448  21425452.76548     -2117.42100
 -16488110.20707  20835173.55007 -12822983.35948  20835170.90148      1662.91000
   -928459.88305  23711342.14405   -700220.96945  23711340.93745      3683.82800
  -3810284.51205  23001964.21405  -2960528.97746  23001962.80846      3817.47200
  12507812.42206  22947090.47206   9753165.04347  22947088.31247     -2260.31100
 -21012799.55908  19890836.26908 -16344752.83249  19890831.59349        83.55400
 -19267595.49207  20622782.95607 -14991199.78148  20622780.49948       214.34300
 -12687696.18007  22030424.54207  -9860852.19548  22030421.72248      2275.00000
 08 11  4  3 12 59.9990000  0  9  3  6  7  8 11 16 19 25 27
 -18975679.15607  20276303.65107 -14753119.34048  20276301.41748     -1738.67700
  -7349951.61307  21437573.29207  -5702020.75848  21437571.83148     -2122.76900
 -16537470.80907  20825780.30807 -12861446.15248  20825777.57748      1645.35300
  -1038783.86605  23690348.32305   -786187.68845  23690345.17945      3677.46600
  -3924669.96105  22980197.06505  -3049660.44546  22980195.30046      3812.84800
  12575774.04306  22960022.90906   9806122.11747  22960020.39447     -2265.38700
 -21014902.85907  19890435.86207 -16346391.76649  19890431.43749        70.11000
 -19273478.51607  20621663.22207 -14995783.96548  20621660.66348       196.10100
 -12755571.27306  22017507.87006  -9913741.88348  22017505.99548      2262.50300
 08 11  4  3 13 29.9990000  0  9  3  6  7  8 11 16 19 25 27
 -18923249.28507  20286280.62807 -14712264.91448  20286278.05448     -1747.66200
  -7286115.35907  21449720.30807  -5652278.23048  21449718.99548     -2127.87500
 -16586308.57807  20816486.47907 -12899501.56348  20816484.15948      1627.92600
  -1148919.57805  23669388.74505   -872007.67246  23669385.67946      3671.19000
  -4038919.65205  22958456.26905  -3138686.10946  22958454.46446      3808.32300
  12643882.26206  22972983.19006   9859193.40647  22972981.62847     -2270.27400
 -21016609.66407  19890110.90907 -16347721.74249  19890106.56549        56.89300
 -19278819.63707  20620646.88607 -14999945.89148  20620644.45248       178.03700
 -12823074.94506  22004662.15906  -9966342.16448  22004660.67948      2250.12200
 08 11  4  3 13 59.9990000  0  9  3  6  7  8 11 16 19 25 27
 -18870547.39507  20296309.54207 -14671198.50448  20296306.76548     -1756.73000
  -7222123.33207  21461897.83107  -5602414.32848  21461896.33148     -2133.06800
 -16634617.57407  20807294.03407 -12937144.94148  20807291.40148      1610.30000
  -1258860.08204  23648467.32304   -957675.54746  23648465.51946      3664.68300
  -4153026.99606  22936742.06506  -3227600.87147  22936740.54247      3803.57800
  12712141.05906  22985972.64406   9912382.07047  22985970.56247     -2275.29300
 -21017916.88307  19889861.97907 -16348740.35549  19889858.08149        43.57400
 -19283614.27707  20619734.87007 -15003681.98049  20619732.47249       159.82100
 -12890201.06606  21991888.47206 -10018648.23448  21991887.27248      2237.53700
 08 11  4  3 14 29.9990000  0  9  3  6  7  8 11 16 19 25 27
 -18817577.51207  20306389.02607 -14629923.28548  20306386.68748     -1765.66300
  -7157979.04707  21474104.50307  -5552431.78548  21474102.96448     -2138.14300
 -16682398.18807  20798201.55007 -12974376.59448  20798198.94848      1592.68700
  -1368604.82405  23627583.94005  -1043190.94146  23627583.13246      3658.15800
  -4266991.92206  22915055.55806  -3316404.62547  22915053.79247      3798.83100
  12780548.46106  22998989.72206   9965686.52747  22998987.58947     -2280.24700
 -21018827.80908  19889689.10408 -16349450.16849  19889684.49549        30.36400
 -19287864.23807  20618926.17507 -15006993.64848  20618923.37848       141.66500
 -12956949.37506  21979186.77606 -10070659.90648  21979184.50348      2224.94400
 08 11  4  3 14 59.9990000  0  9  3  6  7  8 11 16 19 25 27
 -18764344.92207  20316518.90107 -14588443.34448  20316516.97948     -1774.42000
  -7093687.33607  21486338.82307  -5502334.36348  21486336.63648     -2143.05700
 -16729651.22707  20789209.80807 -13011197.14848  20789207.10848      1575.10100
  -1478154.00005  23606738.06505  -1128553.94146  23606736.64046      3651.63900
  -4380815.09806  22893396.16706  -3405097.99247  22893394.15947      3794.10600
  12849100.78505  23012035.83905  10019103.87146  23012032.96446     -2285.07700
 -21019346.95307  19889590.44007 -16349854.69549  19889586.10449        17.30500
 -19291572.68407  20618220.31507 -15009883.35248  20618218.17148       123.61500
 -13023321.30906  21966556.55006 -10122378.29348  21966554.11248      2212.39800
 08 11  4  3 15 29.9990000  0  9  3  6  7  8 11 16 19 25 27
 -18710853.07007  20326698.16707 -14546761.39148  20326695.87448     -1783.06200
  -7029251.91007  21498600.71407  -5452124.96548  21498598.37048     -2147.84800
 -16776377.78107  20780317.72907 -13047607.45348  20780314.96048      1557.55200
  -1587507.23405  23585929.49505  -1213764.22746  23585927.28446      3645.10800
  -4494496.34806  22871763.31506  -3493680.73047  22871760.93747      3789.37500
  12917795.90606  23025107.98706  10072632.48847  23025104.83547     -2289.83700
 -21019477.85507  19889565.62007 -16349956.69149  19889561.15949         4.36300
 -19294741.46107  20617616.97207 -15012352.53148  20617614.83148       105.62600
 -13089316.81306  21953998.31506 -10173803.37948  21953996.20248      2199.85000
 08 11  4  3 15 59.9990000  0  9  3  6  7  8 11 16 19 25 27
 -18657100.34807  20336927.20607 -14504876.16848  20336924.90148     -1791.75700
  -6964670.53507  21510890.06507  -5401801.82848  21510888.17548     -2152.71300
 -16822572.00807  20771527.26907 -13083602.95748  20771524.25748      1539.80800
  -1696657.95306  23565159.08906  -1298816.70746  23565156.34746      3638.35700
  -4608029.14806  22850158.97206  -3582147.81347  22850155.79247      3784.42700
  12986637.23806  23038207.52606  10126275.04747  23038204.31247     -2294.71100
 -21019217.89107  19889614.72907 -16349754.13349  19889610.74149        -8.66500
 -19297366.66807  20617117.25307 -15014398.14148  20617115.49148        87.50700
 -13154930.12906  21941512.61206 -10224930.64148  21941510.03048      2187.11100
 08 11  4  3 16 29.9990000  0  9  3  6  7  8 11 16 19 25 27
 -18603091.43407  20347204.55007 -14462791.31348  20347202.42948     -1800.29700
  -6899947.85207  21523206.15907  -5351368.57048  21523204.17148     -2157.42300
 -16868235.47307  20762837.94807 -13119184.89148  20762835.44048      1522.11500
  -1805606.10906  23544426.20606  -1383711.31647  23544423.96447      3631.60500
  -4721414.80106  22828582.20606  -3670500.21947  22828578.54647      3779.52200
  13055621.77306  23051334.29206  10180029.22347  23051333.31247     -2299.48500
 -21018571.29707  19889737.68307 -16349250.29349  19889733.45649       -21.55300
 -19299451.02007  20616720.68307 -15016022.31348  20616718.09348        69.47800
 -13220162.26607  21929099.47907 -10275760.87148  21929097.03848      2174.40500
 08 11  4  3 16 59.9990000  0  9  3  6  7  8 11 16 19 25 27
 -18548821.28507  20357531.98707 -14420502.89548  20357529.39048     -1809.00500
  -6835078.59407  21535550.67507  -5300821.12148  21535549.01148     -2162.30900
 -16913359.23007  20754251.33107 -13154346.27048  20754248.62048      1504.12500
  -1914342.30506  23523734.08106  -1468440.78546  23523732.76946      3624.54000
  -4834643.74606  22807035.09706  -3758730.53547  22807032.24547      3774.29800
  13124756.13306  23064490.58906  10233900.10546  23064488.15546     -2304.47900
 -21017532.55508  19889935.83908 -16348440.89149  19889930.91349       -34.62500
 -19300987.55507  20616428.71407 -15017219.63348  20616426.34748        51.21800
 -13285004.11706  21916760.30006 -10326287.00448  21916757.60448      2161.39500
 08 11  4  3 17 29.9990000  0  9  3  6  7  8 11 16 19 25 27
 -18494292.84807  20367908.19007 -14378013.21148  20367905.81248     -1817.61500
  -6770065.36306  21547922.15106  -5250161.48048  21547920.03048     -2167.10800
 -16957942.85507  20745767.16707 -13189086.76248  20745764.82748      1486.12100
  -2022864.81305  23503083.17505  -1553003.79746  23503082.23346      3617.41700
  -4947714.66806  22785518.55006  -3846837.68847  22785515.54647      3769.03100
  13194039.37506  23077675.26106  10287886.98847  23077671.45247     -2309.44100
 -21016104.06307  19890207.30007 -16347327.77749  19890202.87449       -47.61600
 -19301977.48407  20616240.19807 -15017990.99248  20616238.23348        32.99800
 -13349455.00806  21904495.49506 -10376508.49248  21904493.72648      2148.36300
 08 11  4  3 17 59.9990000  0  9  3  6  7  8 11 16 19 25 27
 -18439508.82007  20378333.33107 -14335324.37148  20378330.77248     -1826.13400
  -6704910.39807  21560320.49507  -5199391.40248  21560318.17148     -2171.83200
 -17001985.38707  20737386.42507 -13223405.60948  20737383.92548      1468.08400
  -2131171.82005  23482473.24505  -1637398.84446  23482472.25746      3610.23400
  -5060626.01606  22764032.30006  -3934820.52347  22764030.36647      3763.71200
  13263469.66806  23090887.18306  10341988.47747  23090885.20247     -2314.34300
 -21014287.98008  19890552.88608 -16345912.64549  19890548.97949       -60.53600
 -19302421.28507  20616156.15907 -15018336.81648  20616153.56248        14.79300
 -13413513.68006  21892305.68306 -10426424.32848  21892303.64748      2135.28900
 08 11  4  3 18 29.9990000  0  9  3  6  7  8 11 16 19 25 27
 -18384471.04707  20388806.78407 -14292437.79348  20388805.15148     -1834.59200
  -6639615.74207  21572745.97907  -5148512.43848  21572743.85148     -2176.48900
 -17045485.74207  20729108.58107 -13257302.00448  20729105.48348      1450.01200
  -2239260.53106  23461904.18306  -1721623.77347  23461903.28847      3602.95700
  -5173375.73006  22742576.37806  -4022677.39546  22742574.43746      3758.32400
  13333046.75806  23104127.22906  10396204.41047  23104125.81547     -2319.23600
 -21012085.70307  19890972.12007 -16344196.58649  19890967.85449       -73.40900
 -19302319.41407  20616175.56507 -15018257.44148  20616172.60148        -3.39600
 -13477178.62906  21880190.89406 -10476033.37548  21880188.68748      2122.16500
 08 11  4  3 18 59.9990000  0  9  3  6  7  8 11 16 19 25 27
 -18329178.53107  20399328.24507 -14249352.73848  20399326.64048     -1843.08400
  -6574179.43406  21585198.05806  -5097523.12148  21585195.98748     -2181.21000
 -17088439.07007  20720934.66707 -13290772.12948  20720932.05848      1431.77800
  -2347124.90206  23441378.80006  -1805673.90646  23441376.33546      3595.47900
  -5285958.08606  22721152.69806  -4110403.89847  22721150.73747      3752.74500
  13402773.94906  23117396.11206  10450537.23847  23117393.23347     -2324.24000
 -21009495.51207  19891464.68307 -16342178.26249  19891460.24549       -86.34000
 -19301668.49207  20616298.94807 -15017750.23849  20616297.18749       -21.69700
 -13540444.31306  21868151.54206 -10525331.32848  21868149.47648      2108.85600
 08 11  4  3 19 29.9990000  0  9  3  6  7  8 11 16 19 25 27
 -18273636.14807  20409897.74507 -14206072.95748  20409895.65148     -1851.41300
  -6508606.39106  21597676.30006  -5046427.28948  21597674.79648     -2185.76800
 -17130846.36307  20712864.85407 -13323816.78148  20712862.18348      1413.57600
  -2454765.23406  23420895.37006  -1889549.45347  23420893.10147      3588.01100
  -5398374.06306  22699760.83106  -4198000.72347  22699758.54247      3747.19900
  13472647.74606  23130693.22206  10504984.31347  23130689.56547     -2329.12700
 -21006522.04707  19892030.97907 -16339861.27049  19892026.05049       -99.11500
 -19300471.61707  20616526.77607 -15016817.60948  20616524.87448       -39.89600
 -13603312.20306  21856188.03406 -10574319.28548  21856186.26148      2095.59600
 08 11  4  3 19 59.9990000  0  9  3  6  7  8 11 16 19 25 27
 -18217841.75407  20420514.64407 -14162596.81648  20420512.78448     -1859.81300
  -6442893.93406  21610181.25306  -4995222.82048  21610179.23748     -2190.41500
 -17172702.38307  20704899.77607 -13356431.85948  20704897.51548      1395.20100
  -2562174.59406  23400455.68306  -1973245.02046  23400454.58946      3580.31200
  -5510617.02706  22678401.54206  -4285462.77347  22678399.25747      3741.43200
  13542672.24206  23144018.37806  10559548.83647  23144015.83147     -2334.15000
 -21003162.50008  19892670.06508 -16337243.43049  19892665.58549      -111.98500
 -19298724.86707  20616858.84707 -15015456.52748  20616856.38648       -58.22500
 -13665776.00406  21844301.70606 -10622992.39548  21844299.31248      2082.12700
 08 11  4  3 20 29.9990000  0  9  3  6  7  8 11 16 19 25 27
 -18161800.40207  20431179.61207 -14118928.25048  20431176.98348     -1868.04500
  -6377046.97706  21622710.95606  -4943913.46948  21622708.51148     -2194.89900
 -17214008.96107  20697039.15107 -13388618.81648  20697036.70648      1376.88600
  -2669353.67206  23380060.77606  -2056761.17647  23380059.87047      3572.63600
  -5622687.82806  22657074.93306  -4372790.61747  22657073.73347      3735.69300
  13612843.53906  23157371.31506  10614227.72747  23157368.54647     -2339.04300
 -20999421.51607  19893381.77607 -16334328.39149  19893377.78049      -124.69900
 -19296431.60207  20617295.32307 -15013669.58248  20617292.88248       -76.44200
 -13727837.10506  21832491.81506 -10671351.71148  21832490.06948      2068.70300
 08 11  4  3 20 59.9990000  0  9  3  6  7  8 11 16 19 25 27
 -18105506.81607  20441891.76107 -14075063.13748  20441889.56248     -1876.45300
  -6311060.06606  21635267.75306  -4892495.10948  21635266.44848     -2199.56400
 -17254757.62107  20689285.13607 -13420371.00848  20689282.64448      1358.28900
  -2776292.55506  23359711.57306  -2140090.17647  23359710.32347      3564.62900
  -5734577.64806  22635783.49506  -4459977.45747  22635780.90947      3729.66100
  13683168.49606  23170753.23706  10669026.37547  23170750.59347     -2344.16500
 -20995293.41807  19894167.45607 -16331111.69949  19894163.05449      -137.60300
 -19293584.81607  20617837.53407 -15011451.30948  20617835.22948       -94.89300
 -13789486.61306  21820760.44006 -10719390.30148  21820758.53048      2054.98400
 08 11  4  3 21 29.9990000  0  9  3  6  7  8 11 16 19 25 27
 -18048961.32407  20452651.83107 -14031001.71548  20452649.33948     -1884.85000
  -6244933.37506  21647851.21406  -4840967.85548  21647850.10848     -2204.22300
 -17294945.53907  20681637.62807 -13451686.27348  20681634.88248      1339.59700
  -2882987.13306  23339406.88606  -2223228.78546  23339405.51546      3556.48600
  -5846282.64806  22614526.80806  -4547020.29747  22614524.30447      3723.50000
  13753648.12906  23184165.33906  10723945.52347  23184163.07747     -2349.32100
 -20990778.28507  19895026.44007 -16327593.40649  19895022.44049      -150.50400
 -19290183.47307  20618484.39407 -15008800.91048  20618481.97948      -113.37800
 -13850721.42606  21809108.09706 -10767105.73448  21809106.42148      2041.16000
 08 11  4  3 21 59.9990000  0  9  3  6  7  8 11 16 19 25 27
 -17992163.98407  20463460.29207 -13986744.05148  20463458.02248     -1893.24500
  -6178666.44906  21660461.84706  -4789331.32448  21660459.39048     -2208.89800
 -17334569.02007  20674098.09707 -13482561.71948  20674095.23348      1320.78300
  -2989432.74605  23319150.52605  -2306173.40246  23319148.96446      3548.18700
  -5957798.55506  22593305.37006  -4633915.75447  22593303.47247      3717.19700
  13824284.38306  23197607.26106  10778986.71147  23197605.26547     -2354.54200
 -20985875.52307  19895959.47907 -16323773.06649  19895954.87449      -163.42500
 -19286225.59807  20619237.75307 -15005716.87148  20619235.08548      -131.92900
 -13911537.62506  21797535.11206 -10814494.98448  21797533.37448      2027.20700
 08 11  4  3 22 29.9990000  0  9  3  6  7  8 11 16 19 25 27
 -17935116.48007  20474316.12007 -13942291.47748  20474313.73748     -1901.58300
  -6112260.63306  21673097.87006  -4737586.54748  21673096.50748     -2213.52700
 -17373626.50807  20666665.42507 -13512996.14848  20666662.71448      1301.91600
  -3095626.43405  23298943.41705  -2388921.72746  23298940.31246      3539.79000
  -6069122.59006  22572121.66706  -4720661.72347  22572118.99147      3710.80100
  13895076.69906  23211078.85406  10834149.51647  23211076.58947     -2359.74400
 -20980586.34407  19896966.24507 -16319651.63749  19896961.99149      -176.30600
 -19281711.18007  20620096.79207 -15002199.16048  20620094.87448      -150.48100
 -13971933.06607  21786041.95607 -10861556.36348  21786040.20248      2013.18100
 08 11  4  3 22 59.9990000  0  9  3  6  7  8 11 16 19 25 27
 -17877823.82007  20485218.38607 -13897647.85948  20485216.61248     -1909.75500
  -6045720.85506  21685759.92506  -4685737.40248  21685758.78448     -2217.99300
 -17412119.96907  20659340.45607 -13542991.05948  20659337.15148      1283.11500
  -3201568.70706  23278783.08906  -2471474.17246  23278780.48746      3531.40900
  -6180256.00406  22550973.05806  -4807259.14547  22550971.30847      3704.44700
  13966021.86306  23224579.27606  10889431.42647  23224577.37447     -2364.83900
 -20974915.57007  19898045.08107 -16315232.84449  19898040.62449      -189.02600
 -19276643.73807  20621061.05007 -14998250.50448  20621059.06548      -168.91500
 -14031909.13707  21774628.94807 -10908290.96148  21774626.76548      1999.20200
 08 11  4  3 23 29.9990000  0  9  3  6  7  8 11 16 19 25 27
 -17820287.27707  20496167.28407 -13852814.21148  20496165.00748     -1917.88500
  -5979048.26206  21698447.30006  -4633784.72747  21698445.30447     -2222.42000
 -17450047.83607  20652122.68307 -13572545.26648  20652119.64048      1264.26200
  -3307256.48806  23258671.44006  -2553828.24647  23258669.77247      3522.92600
  -6291196.03506  22529861.90106  -4893705.93047  22529859.36647      3698.00100
  14037119.66806  23238108.40106  10944832.28147  23238105.59347     -2369.92700
 -20968864.49607  19899196.32307 -16310517.71149  19899192.12049      -201.70200
 -19271023.22707  20622130.60407 -14993870.91048  20622128.14748      -187.35000
 -14091463.82406  21763296.14406 -10954697.21548  21763294.03848      1985.15600
 08 11  4  3 23 59.9990000  0  9  3  6  7  8 11 16 19 25 27
 -17762513.49607  20507161.26107 -13807795.68848  20507159.24548     -1925.79300
  -5912248.62106  21711159.41706  -4581733.06348  21711157.72648     -2226.65500
 -17487413.13707  20645012.41707 -13601661.08248  20645009.49148      1245.51000
  -3412691.14506  23238607.96406  -2635985.10547  23238606.69847      3514.48900
  -6401944.84406  22508787.04206  -4980003.66847  22508785.21447      3691.62700
  14108365.60506  23251666.05006  11000348.54747  23251664.19847     -2374.86500
 -20962438.78107  19900419.52607 -16305510.67649  19900415.31949      -214.19000
 -19264854.27007  20623304.95607 -14989063.94548  20623301.97248      -205.63200
 -14150599.73807  21752043.08907 -11000777.16048  21752040.39448      1971.19700
 08 11  4  3 24 29.9990000  0  9  3  6  7  8 11 16 19 25 27
 -17704504.00407  20518200.14407 -13762593.48848  20518197.97648     -1933.65000
  -5845323.39806  21723894.72206  -4529583.58248  21723893.60148     -2230.84100
 -17524214.05107  20638009.66707 -13630337.12948  20638007.18348      1226.69700
  -3517869.89506  23218593.41706  -2717942.58247  23218591.35147      3505.95800
  -6512499.67606  22487749.46406  -5066150.27747  22487746.24147      3685.16100
  14179759.24206  23265251.99506  11055979.91847  23265249.40947     -2379.78800
 -20955639.84007  19901713.12807 -16300212.78549  19901709.25749      -226.63100
 -19258137.08607  20624582.72907 -14983829.79748  20624580.43748      -223.90600
 -14209314.95707  21740869.58107 -11046529.27348  21740867.88648      1957.17400
 08 11  4  3 24 59.9990000  0  9  3  6  7  8 11 16 19 25 27
 -17646261.06307  20529283.46407 -13717209.38348  20529281.62448     -1941.43100
  -5778274.57806  21736654.14406  -4477337.77348  21736651.82348     -2234.96100
 -17560449.73007  20631114.47907 -13658572.74248  20631111.56948      1207.85600
  -3622790.40606  23198627.62806  -2799698.81647  23198624.53447      3497.35000
  -6622859.14106  22466748.98706  -5152144.66047  22466746.40147      3678.64900
  14251300.25406  23278864.83906  11111726.11347  23278863.01547     -2384.70000
 -20948469.36307  19903077.44807 -16294625.40649  19903073.12449      -239.01600
 -19250872.21907  20625965.52607 -14978168.85948  20625962.51948      -242.16200
 -14267607.76607  21729776.79207 -11091952.23448  21729775.23748      1943.09400
 08 11  4  3 25 29.9990000  0  9  3  6  7  8 11 16 19 25 27
 -17587785.81307  20540410.91707 -13671644.27048  20540408.82748     -1949.17500
  -5711103.03506  21749436.34706  -4424996.32448  21749434.40148     -2239.05100
 -17596118.28107  20624326.34707 -13686366.43848  20624323.37848      1188.95200
  -3727448.99606  23178711.51906  -2881250.94947  23178708.26547      3488.62000
  -6733020.25406  22445785.19806  -5237984.48047  22445782.24147      3672.03700
  14322988.50805  23292507.38605  11167587.02047  23292505.20647     -2389.60800
 -20940928.19107  19904512.41707 -16288749.16849  19904508.59349      -251.37200
 -19243059.53507  20627451.79207 -14972081.06648  20627449.49548      -260.42300
 -14325475.97307  21718765.06507 -11137044.35248  21718763.07348      1928.94000
 08 11  4  3 25 59.9990000  0  9  3  6  7  8 11 16 19 25 27
 -17529084.94107  20551581.56507 -13625903.33648  20551579.31248     -1956.69600
  -5643814.90206  21762240.44806  -4372564.04348  21762239.00748     -2242.93800
 -17631223.34807  20617646.08107 -13713721.02348  20617642.97948      1170.16900
  -3831847.81606  23158844.97206  -2962600.64847  23158842.97647      3479.96100
  -6842985.10906  22424860.02606  -5323671.35947  22424857.26947      3665.49500
  14394819.27706  23306176.47206  11223558.98847  23306174.51147     -2394.35900
 -20933022.71507  19906016.97207 -16282589.05149  19906012.64049      -263.51600
 -19234704.04707  20629042.34707 -14965570.30949  20629040.13249      -278.51600
 -14382922.44507  21707832.98707 -11181807.84848  21707831.47248      1914.88200
 08 11  4  3 26 29.9990000  0  9  3  6  7  8 11 16 19 25 27
 -17470153.79307  20562795.65107 -13579982.97348  20562793.20248     -1964.37200
  -5576405.08206  21775068.65906  -4320036.90248  21775066.63248     -2246.99400
 -17665756.67207  20611074.54207 -13740630.13348  20611071.64048      1151.11100
  -3935977.49206  23139029.83906  -3043740.65247  23139028.44047      3470.98900
  -6952745.15206  22403973.29206  -5409198.61347  22403970.45647      3658.66800
  14466798.71904  23319874.01104  11279646.82447  23319871.94447     -2399.31500
 -20924747.61307  19907591.93307 -16276140.92649  19907587.46049      -275.83700
 -19225799.42607  20630736.83907 -14958631.64548  20630734.86248      -296.82100
 -14439938.77707  21696983.71407 -11226236.17248  21696981.56248      1900.54400
 08 11  4  3 26 59.9990000  0  9  3  6  7  8 11 16 19 25 27
 -17410990.45707  20574054.07307 -13533881.69948  20574051.42548     -1972.11100
  -5508871.53106  21787919.70606  -4267413.39148  21787918.05448     -2251.11800
 -17699713.83207  20604613.02607 -13767090.27049  20604610.38649      1131.90500
  -4039831.72706  23119267.08106  -3124666.04747  23119265.67947      3461.80800
  -7062294.35506  22383126.76106  -5494561.60247  22383124.64747      3651.64000
  14538930.00006  23333600.06506  11335852.96947  23333597.96847     -2404.37600
 -20916101.01607  19909237.15107 -16269403.31649  19909232.72249      -288.22000
 -19216342.62907  20632536.61207 -14951262.73448  20632534.00348      -315.22700
 -14496519.79707  21686216.41707 -11270325.27748  21686214.80848      1886.03400
 08 11  4  3 27 29.9990000  0  9  3  6  7  8 11 16 19 25 27
 -17351593.90607  20585356.93307 -13487598.68848  20585354.76148     -1979.88500
  -5441212.93006  21800794.03406  -4214692.41048  21800791.99548     -2255.28700
 -17733090.81607  20598261.87807 -13793098.30548  20598258.75348      1112.56600
  -4143404.78106  23099557.30806  -3205372.30947  23099555.47247      3452.43500
  -7171627.56306  22362321.01906  -5579756.25447  22362318.59347      3644.44000
  14611215.74605  23347355.36205  11392179.47347  23347353.75747     -2409.52500
 -20907081.45307  19910953.50307 -16262375.09049  19910948.90149      -300.65200
 -19206331.22707  20634441.22207 -14943461.66848  20634438.70648      -333.71300
 -14552660.86307  21675533.18307 -11314071.58248  21675531.37848      1871.36900
 08 11  4  3 27 59.9990000  0  9  3  6  7  8 11 16 19 25 27
 -17291966.70307  20596703.97207 -13441135.94148  20596701.57348     -1987.57300
  -5373431.78106  21813693.21406  -4161875.93048  21813691.21848     -2259.37200
 -17765887.13307  20592020.76107 -13818653.89148  20592017.78048      1093.21100
  -4246694.83606  23079902.28406  -3285858.02347  23079899.94047      3443.00200
  -7280743.85206  22341557.37806  -5664781.89847  22341554.53047      3637.21000
  14683654.61305  23361139.65905  11448625.32447  23361137.58547     -2414.62900
 -20897691.57807  19912740.48707 -16255058.30549  19912736.37449      -312.99600
 -19195766.72307  20636451.84707 -14935229.58648  20636449.54648      -352.15000
 -14608361.01607  21664933.72907 -11357474.30948  21664931.73348      1856.67200
 08 11  4  3 28 29.9990000  0  9  3  6  7  8 11 16 19 25 27
 -17232108.92207  20608093.85407 -13394493.53548  20608092.36248     -1995.25900
  -5305527.55106  21826614.85406  -4108963.57848  21826613.12448     -2263.47400
 -17798099.91407  20585890.77607 -13843754.77048  20585888.08148      1073.75900
  -4349697.17206  23060301.29206  -3366119.57047  23060299.84347      3433.41100
  -7389638.87106  22320835.16706  -5749635.12147  22320832.60847      3629.83400
  14756248.06604  23374954.07304  11505191.59046  23374952.31946     -2419.78200
 -20887930.97307  19914597.39407 -16247452.64849  19914593.27649      -325.35400
 -19184647.70707  20638567.32307 -14926565.43848  20638564.89048      -370.63400
 -14663616.62507  21654419.19807 -11400530.63348  21654416.82748      1841.85400
 08 11  4  3 28 59.9990000  0  9  3  6  7  8 11 16 19 25 27
 -17172022.49207  20619527.93307 -13347672.96148  20619525.81248     -2002.88100
  -5237501.94106  21839559.65106  -4055956.62147  21839556.93347     -2267.52000
 -17829728.08207  20579871.60407 -13868400.09448  20579869.33548      1054.27200
  -4452409.02706  23040755.96406  -3446154.79347  23040754.42947      3423.72900
  -7498310.39106  22300155.32306  -5834314.18447  22300153.33547      3622.38400
  14828995.47305  23388796.97205  11561877.86746  23388794.94846     -2424.91400
 -20877801.32407  19916525.50307 -16239559.42249  19916521.01949      -337.65500
 -19172974.64107  20640788.91707 -14917469.55948  20640785.82748      -389.10200
 -14718426.47707  21643988.95607 -11443239.60948  21643986.89748      1826.99500
 08 11  4  3 29 29.9990000  0  9  3  6  7  8 11 16 19 25 27
 -17111710.90607  20631005.22207 -13300676.93048  20631002.92548     -2010.38600
  -5169358.09406  21852527.01106  -4002857.50447  21852524.26947     -2271.46200
 -17860772.14107  20573964.47207 -13892590.27048  20573961.58948      1034.80200
  -4554829.51206  23021265.94006  -3525962.95747  23021264.31947      3414.01600
  -7606757.72306  22279518.54206  -5918818.55147  22279517.28047      3614.91100
  14901894.89506  23402669.86206  11618682.55147  23402668.60147     -2429.98100
 -20867305.80907  19918522.76107 -16231381.09849  19918518.35149      -349.85100
 -19160749.93007  20643115.36207 -14907943.83248  20643112.79248      -407.49000
 -14772790.41807  21633644.34707 -11485601.12548  21633641.90948      1812.13100
 08 11  4  3 29 59.9990000  0  9  3  6  7  8 11 16 19 25 27
 -17051172.36307  20642525.12007 -13253504.04748  20642523.19448     -2017.95100
  -5101094.08606  21865517.22906  -3949664.82447  21865515.02647     -2275.46700
 -17891227.83207  20568169.09707 -13916321.99648  20568165.97648      1015.19000
  -4656952.12506  23001833.26106  -3605538.99247  23001831.83147      3404.08700
  -7714975.70706  22258925.19806  -6003144.21947  22258923.96847      3607.26600
  14974949.38706  23416571.77606  11675608.07047  23416569.93347     -2435.15000
 -20856442.53107  19920589.87007 -16222916.21949  19920585.28849      -362.10900
 -19147970.68407  20645546.97907 -14897985.98448  20645544.94048      -425.97500
 -14826703.35907  21623384.55807 -11527611.20348  21623382.23748      1797.09800
 08 11  4  3 30 29.9990000  0  9  3  6  7  8 11 16 19 25 27
 -16990412.83207  20654087.15907 -13206158.97748  20654085.04648     -2025.31800
  -5032715.16406  21878529.19006  -3896382.57847  21878526.68747     -2279.29700
 -17921097.81607  20562485.19807 -13939597.32848  20562482.12848       995.66600
  -4758778.08606  22982455.44006  -3684883.85547  22982453.88647      3394.19900
  -7822965.53506  22238375.26906  -6087292.09447  22238373.92547      3599.66100
  15048154.59006  23430502.68306  11732651.05947  23430500.62047     -2440.17300
 -20845216.98407  19922726.05807 -16214169.05949  19922721.95649      -374.18500
 -19134641.27707  20648083.53407 -14887599.45748  20648081.00748      -444.31400
 -14880167.59807  21613210.80807 -11569271.65648  21613208.60448      1782.14100
 08 11  4  3 30 59.9990000  0  9  3  6  7  8 11 16 19 25 27
 -16929436.62107  20665690.47907 -13158645.05948  20665688.35148     -2032.54000
  -4964225.56306  21891562.10406  -3843014.05148  21891560.64048     -2282.98700
 -17950383.94107  20556912.23707 -13962417.68448  20556909.54648       976.20400
  -4860307.50006  22963135.03406  -3763997.66447  22963133.77247      3384.31400
  -7930728.01206  22217868.45606  -6171262.80547  22217867.15547      3592.08300
  15121507.63705  23444459.97205  11789809.24647  23444458.83947     -2445.10200
 -20833633.43007  19924930.57307 -16205142.91849  19924925.90949      -386.11800
 -19120765.17607  20650724.04207 -14876786.91848  20650721.81548      -462.53700
 -14933184.27707  21603122.34707 -11610583.36348  21603120.00748      1767.22300
 08 11  4  3 31 29.9990000  0  9  3  6  7  8 11 16 19 25 27
 -16868245.62907  20677334.96407 -13110963.78548  20677333.07748     -2039.70000
  -4895626.53506  21904615.97206  -3789560.27747  21904614.88647     -2286.63400
 -17979084.66007  20551450.47207 -13984781.88348  20551448.14048       956.69100
  -4961537.35906  22943872.31506  -3842878.06347  22943870.55447      3374.32900
  -8038260.35206  22197405.76906  -6255054.19147  22197404.61647      3584.41100
  15195008.09806  23458448.26906  11847082.24647  23458445.62047     -2450.01500
 -20821693.18007  19927202.50307 -16195838.83649  19927198.23749      -398.00800
 -19106342.70307  20653468.80007 -14865548.64148  20653466.33148      -480.74900
 -14985751.18007  21593119.22207 -11651544.59448  21593116.94448      1752.23000
 08 11  4  3 31 59.9990000  0  9  3  6  7  8 11 16 19 25 27
 -16806844.71507  20689018.98707 -13063118.94148  20689017.21448     -2046.69700
  -4826922.80906  21917689.76106  -3736024.94147  21917687.99547     -2290.12400
 -18007202.40607  20546099.82307 -14006691.81348  20546096.44048       937.25800
  -5062468.19906  22924665.61206  -3921525.47347  22924663.66747      3364.36100
  -8145563.90206  22176987.15906  -6338667.32447  22176985.79647      3576.78500
  15268652.22305  23472461.68305  11904467.25447  23472459.59347     -2454.80400
 -20809401.18007  19929541.25307 -16186260.66049  19929536.85849      -409.73300
 -19091377.99207  20656316.38607 -14853887.82848  20656313.75348      -498.82400
 -15037870.20707  21583200.83107 -11692156.80948  21583199.72648      1737.30100
 08 11  4  3 32 29.9990000  0  9  3  6  7  8 11 16 19 25 27
 -16745232.16407  20700743.65907 -13015109.18048  20700742.01948     -2053.75200
  -4758112.29706  21930784.87006  -3682406.36747  21930782.46447     -2293.68400
 -18034732.88707  20540860.83907 -14028144.13748  20540858.04648       917.68300
  -5163093.66806  22905516.76906  -3999934.90247  22905515.71447      3354.18200
  -8252632.96506  22156612.16706  -6422097.71547  22156609.87047      3568.96900
  15342443.27005  23486503.11205  11961966.78546  23486500.97646     -2459.70200
 -20796755.45307  19931947.77607 -16176406.84449  19931943.62049      -421.52400
 -19075867.98407  20659267.84707 -14841802.13748  20659264.91748      -517.00000
 -15089536.14107  21573369.01907 -11732415.98048  21573367.13648      1722.19800
 08 11  4  3 32 59.9990000  0  9  3  6  7  8 11 16 19 25 27
 -16683410.77707  20712507.85407 -12966936.68848  20712506.31548     -2060.71300
  -4689197.56306  21943898.61206  -3628706.58248  21943897.01948     -2297.15800
 -18061676.08207  20535733.91707 -14049138.85248  20535731.19448       898.10700
  -5263411.77305  22886426.68305  -4078104.82847  22886425.44047      3343.93700
  -8359466.21506  22136282.08906  -6505344.35947  22136279.77647      3561.10800
  15416379.81605  23500573.09705  12019579.62546  23500571.21046     -2464.55200
 -20783758.81307  19934421.19807 -16166279.59049  19934416.81949      -433.22100
 -19059814.50007  20662322.93307 -14829292.93848  20662320.13648      -535.11600
 -15140748.71907  21563624.05807 -11772321.89548  21563621.78448      1707.08600
 08 11  4  3 33 29.9990000  0  9  3  6  7  8 11 16 19 25 27
 -16621386.21107  20724310.93307 -12918605.86348  20724309.32748     -2067.48600
  -4620183.71506  21957031.15106  -3574929.59447  21957029.88247     -2300.46200
 -18088034.80107  20530717.84707 -14069678.12148  20530715.05448       878.62400
  -5363423.84405  22867395.35405  -4156036.30547  22867393.53047      3333.73600
  -8466065.39106  22115997.96406  -6588408.64547  22115994.92147      3553.30600
  15490457.12106  23514670.01106  12077302.16847  23514668.24147     -2469.24300
 -20770416.46907  19936959.89407 -16155882.96949  19936955.69849      -444.74500
 -19043222.28107  20665479.99507 -14816363.95748  20665477.59748      -553.07400
 -15191510.24607  21553964.58107 -11811876.34848  21553961.92948      1692.05100
 08 11  4  3 33 59.9990000  0  9  3  6  7  8 11 16 19 25 27
 -16559153.24607  20736153.72907 -12870112.67248  20736151.23348     -2074.43200
  -4551065.49606  21970184.28406  -3521071.27347  21970183.38247     -2303.94100
 -18113801.70707  20525814.68307 -14089756.24248  20525812.11248       858.89700
  -5463120.13306  22848424.06506  -4233721.68847  22848422.66747      3323.21000
  -8572421.41406  22095758.62806  -6671283.45747  22095755.69047      3545.20100
  15564682.09806  23528794.30006  12135139.77746  23528792.76546     -2474.16600
 -20756723.20307  19939565.65907 -16145212.90649  19939561.30049      -456.44200
 -19026085.16007  20668741.03407 -14803010.38748  20668738.34348      -571.23700
 -15241812.19507  21544392.46407 -11851072.68048  21544389.81248      1676.73200
 08 11  4  3 34 29.9990000  0  9  3  6  7  8 11 16 19 25 27
 -16496717.21507  20748034.67507 -12821461.23048  20748032.37848     -2081.20100
  -4481847.48006  21983355.40106  -3467135.15647  21983353.93347     -2307.26700
 -18138978.81607  20521023.47207 -14109374.77748  20521021.03848       839.23700
  -5562501.00805  22829511.58905  -4311161.31347  22829510.94047      3312.69600
  -8678535.35906  22075566.05006  -6753969.62147  22075563.57747      3537.13200
  15639051.13705  23542946.60405  12193089.60246  23542944.53846     -2478.96800
 -20742683.85507  19942237.45607 -16134273.16049  19942232.66349      -467.97800
 -19008407.04707  20672105.19007 -14789235.25048  20672103.00748      -589.27000
 -15291656.19507  21534906.85407 -11889912.15248  21534904.58948      1661.46700
 08 11  4  3 34 59.9990000  0  9  3  6  7  8 11 16 19 25 27
 -16434078.41807  20759954.58107 -12772651.81348  20759952.47648     -2087.96000
  -4412530.11706  21996546.53406  -3413121.66847  21996544.72247     -2310.57900
 -18163564.62507  20516344.93307 -14128532.55948  20516342.77248       819.52700
  -5661563.05105  22810661.15905  -4388352.48446  22810659.89046      3302.06800
  -8784404.20306  22055419.70606  -6836464.77748  22055417.27248      3528.96100
  15713564.46105  23557124.65105  12251151.90646  23557123.69046     -2483.77700
 -20728299.30507  19944974.81507 -16123064.40249  19944970.11249      -479.48500
 -18990187.90607  20675572.19807 -14775038.53548  20675569.99548      -607.30500
 -15341039.71907  21525509.47907 -11928392.80548  21525508.28848      1646.11700
 08 11  4  3 35 29.9990000  0  9  3  6  7  8 11 16 19 25 27
 -16371234.58607  20771912.91707 -12723682.61748  20771911.45648     -2094.79400
  -4343110.45706  22009756.55006  -3359028.44947  22009755.24947     -2313.98900
 -18187553.73007  20511780.21407 -14147225.37148  20511778.11248       799.63700
  -5760298.84406  22791873.22206  -4465289.46947  22791870.92147      3291.19300
  -8890021.11306  22035321.35406  -6918763.64548  22035319.23348      3520.56400
  15788226.04706  23571333.16706  12309329.75446  23571331.82346     -2488.72000
 -20713566.39107  19947778.37007 -16111584.19949  19947773.94449      -491.09700
 -18971424.09407  20679142.93307 -14760417.40248  20679140.74548      -625.46000
 -15389956.84807  21516201.15107 -11966510.04748  21516199.19048      1630.57100
 08 11  4  3 35 59.9990000  0  9  3  6  7  8 11 16 19 25 27
 -16308187.50807  20783910.30807 -12674555.03548  20783908.38248     -2101.56900
  -4273589.63706  22022986.32306  -3304856.40247  22022984.19847     -2317.36100
 -18210945.37507  20507328.70607 -14165452.64148  20507326.08548       779.72100
  -5858705.64806  22773147.19806  -4541970.09847  22773144.04247      3280.22700
  -8995383.92606  22015271.26106  -7000864.51648  22015269.56948      3512.09400
  15863035.65605  23585569.33905  12367622.92646  23585567.14446     -2493.65400
 -20698486.79307  19950647.34707 -16099833.87149  19950643.78849      -502.65300
 -18952116.39507  20682816.92507 -14745372.45748  20682814.62448      -643.59000
 -15438406.20707  21506981.59707 -12004262.82048  21506978.99148      1614.97900
 08 11  4  3 36 29.9990000  0  9  3  6  7  8 11 16 19 25 27
 -16244940.60207  20795946.11207 -12625271.74648  20795944.15948     -2108.23000
  -4203971.46106  22036234.48706  -3250608.48447  22036232.68747     -2320.60600
 -18233740.73407  20502991.07307 -14183215.26648  20502987.78848       759.84500
  -5956782.77706  22754482.80006  -4618393.79347  22754481.08147      3269.23800
  -9100492.96106  21995269.72906  -7082767.63347  21995267.58947      3503.63500
  15937990.59406  23599832.76906  12426029.32046  23599829.76546     -2498.49800
 -20683064.48007  19953582.40107 -16087816.50449  19953578.72249      -514.07700
 -18932267.96507  20686594.19007 -14729906.16048  20686591.64048      -661.61400
 -15486388.46107  21497850.62007 -12041651.60548  21497848.76148      1599.40800
 08 11  4  3 36 59.9990000  0  9  3  6  7  8 11 16 19 25 27
 -16181494.37507  20808019.52607 -12575833.15248  20808017.91348     -2114.87400
  -4134255.34006  22049500.54206  -3196284.25848  22049499.12848     -2323.87100
 -18255937.49607  20498767.33107 -14200511.47348  20498764.43348       739.89200
  -6054525.44506  22735883.12806  -4694556.92247  22735881.74947      3258.08900
  -9205343.86306  21975317.64406  -7164469.60247  21975314.84747      3495.03000
  16013092.14806  23614125.08106  12484549.97746  23614121.99546     -2503.38500
 -20667299.23007  19956582.37807 -16075531.89849  19956578.39449      -525.50800
 -18911877.70307  20690474.28407 -14714017.65648  20690471.89048      -679.67500
 -15533900.11306  21488809.51906 -12078673.67648  21488807.72648      1583.72200
 08 11  4  3 37 29.9990000  0  9  3  6  7  8 11 16 19 25 27
 -16117849.69507  20820130.54207 -12526239.90248  20820128.93748     -2121.48900
  -4064442.24606  22062785.69806  -3141884.44548  22062784.39448     -2327.10300
 -18277534.43007  20494657.29207 -14217340.24648  20494654.57348       719.89800
  -6151930.79306  22717348.05806  -4770457.21147  22717346.49947      3246.84500
  -9309933.95306  21955414.72906  -7245968.35947  21955410.96047      3486.33600
  16088340.52306  23628443.49506  12543185.07047  23628442.26947     -2508.27900
 -20651191.96507  19959647.90907 -16062980.77749  19959643.27249      -536.90900
 -18890946.24207  20694457.16707 -14697707.43448  20694454.68348      -697.71500
 -15580939.31607  21479858.28407 -12115327.62148  21479856.44848      1567.97300
 08 11  4  3 37 59.9990000  0  9  3  6  7  8 11 16 19 25 27
 -16054005.91807  20832279.82307 -12476491.52048  20832277.59348     -2128.12600
  -3994531.20306  22076089.62806  -3087408.33247  22076087.84347     -2330.36800
 -18298528.60207  20490662.39407 -14233699.35248  20490659.87448       699.80600
  -6248993.72306  22698877.42506  -4846090.63347  22698875.58147      3235.43100
  -9414258.98006  21935562.08106  -7327260.54347  21935559.08147      3477.50100
  16163737.03105  23642790.44005  12601935.54347  23642789.94047     -2513.21700
 -20634742.16807  19962778.31507 -16050162.76649  19962773.62849      -548.32700
 -18869472.20307  20698543.87007 -14680974.44148  20698541.13248      -715.80100
 -15627502.49206  21470998.01906 -12151610.60548  21470996.14748      1552.10600
 08 11  4  3 38 29.9990000  0  9  3  6  7  8 11 16 19 25 27
 -15989969.32007  20844465.55807 -12426592.89148  20844464.11648     -2134.55300
  -3924527.63306  22089410.45606  -3032860.10547  22089408.88647     -2333.45200
 -18318923.34007  20486781.55007 -14249591.37148  20486778.14748       679.82500
  -6345715.19906  22680470.98706  -4921457.97347  22680469.83947      3224.04900
  -9518320.73006  21915759.94006  -7408347.61347  21915756.83547      3468.72500
  16239277.68006  23657166.71406  12660798.29347  23657164.52647     -2518.02200
 -20617955.64507  19965972.54207 -16037082.36349  19965967.77649      -559.55100
 -18847460.55107  20702732.40907 -14663822.51248  20702729.92148      -733.72200
 -15673592.40207  21462226.89407 -12187524.83248  21462225.07348      1536.33000
 08 11  4  3 38 59.9990000  0  9  3  6  7  8 11 16 19 25 27
 -15925740.49207  20856688.12007 -12376544.49248  20856686.18748     -2140.96100
  -3854432.24606  22102749.26106  -2978240.34047  22102747.11247     -2336.51300
 -18338717.23807  20483014.73707 -14265015.19548  20483012.24948       659.79700
  -6442091.88306  22662131.32306  -4996556.66847  22662129.98347      3212.55600
  -9622116.44507  21896007.87007  -7489227.36747  21896005.28847      3459.85700
  16314962.46505  23671568.53405  12719773.43446  23671566.29246     -2522.82600
 -20600833.13307  19969231.12007 -16023740.14549  19969226.17149      -570.75000
 -18824911.56607  20707023.05007 -14646251.89848  20707020.71848      -751.63300
 -15719206.80107  21453547.09707 -12223068.51248  21453544.50748      1520.48000
