     2              OBSERVATION DATA                        RINEX VERSION / TYPE
DAT2RINW 3.10 001   .                   16NOV08 14:18:48    PGM / RUN BY / DATE 
.                   .                                       OBSERVER / AGENCY   
0220273500          TRIMBLE 5700        Nav 1.24 Sig 1.24   REC # / TYPE / VERS 
00000000            TRM39105.00     NONE                    ANT # / TYPE        
----------------------------------------------------------- COMMENT             
Offset from BOTTOM OF ANTENNA to PHASE CENTER is  46.0 mm   COMMENT             
----------------------------------------------------------- COMMENT             
0221                                                        MARKER NAME
0221                                                        MARKER NUMBER       
 -3055287.5768  4056392.0626  3846211.5413                  APPROX POSITION XYZ 
        1.4674        0.0000        0.0000                  ANTENNA: DELTA H/E/N
*** Above antenna height is from mark to BOTTOM OF ANTENNA. COMMENT             
----------------------------------------------------------- COMMENT             
Note: The above offsets are CORRECTED.                      COMMENT             
Raw Offsets: H=      1.5090 E=      0.0000 N=      0.0000   COMMENT             
----------------------------------------------------------- COMMENT             
     1     1     0                                          WAVELENGTH FACT L1/2
     4    L1    C1    L2    P2                              # / TYPES OF OBSERV 
    30                                                      INTERVAL            
  2008    11    15     0     0    0.000000                  TIME OF FIRST OBS   
  2008    11    15     8    10    0.000000                  TIME OF LAST OBS    
    19                                                      # OF SATELLITES     
     2    12    12    12    12                              PRN / # OF OBS      
     3   578   578   565   565                              PRN / # OF OBS      
     4   253   253   253   253                              PRN / # OF OBS      
     6   492   494   486   486                              PRN / # OF OBS      
     7   540   540   540   540                              PRN / # OF OBS      
     8   458   458   458   458                              PRN / # OF OBS      
    11   694   694   678   678                              PRN / # OF OBS      
    13   395   395   395   395                              PRN / # OF OBS      
    16   401   401   401   401                              PRN / # OF OBS      
    17   421   421   421   421                              PRN / # OF OBS      
    19   731   732   731   732                              PRN / # OF OBS      
    20   450   450   450   450                              PRN / # OF OBS      
    21   217   217   217   217                              PRN / # OF OBS      
    23   394   394   394   394                              PRN / # OF OBS      
    25   574   574   574   574                              PRN / # OF OBS      
    27   439   439   439   439                              PRN / # OF OBS      
    28   550   550   550   550                              PRN / # OF OBS      
    31   179   179   179   179                              PRN / # OF OBS      
    32   463   463   462   462                              PRN / # OF OBS      
                                                            END OF HEADER       
 08 11 15  0  0  0.0000000  0  8  3  6 13 16 19 21 23 31
  -2923605.39507  21057679.50007  -2330934.21248  21057677.75048
  -1691936.96107  20757810.91407  -1315004.39348  20757809.28548
  -2452723.89506  22951651.46906  -1907070.06047  22951648.45347
   1368494.05507  20742113.96107   1082100.64848  20742111.18848
  -1856346.66806  23741517.96106  -1443134.25047  23741513.75047
   -888831.69906  24203574.12506   -693524.68147  24203570.80947
   -606657.93006  21614087.53106   -471754.77048  21614083.14848
   2994214.97707  22132064.72707   2373803.50248  22132062.98048
 08 11 15  0  0 30.0000000  0  9  3  6 13 16 19 21 23 25 31
  -2986754.41007  21045662.87507  -2380141.24548  21045661.14548
  -1722651.50007  20751965.88307  -1338937.81348  20751964.36348
  -2504061.69906  22941882.68006  -1947073.54747  22941878.98847
   1405180.28507  20749095.06307   1110687.32348  20749092.47748
  -1952981.27706  23723129.50806  -1518433.95947  23723125.07047
   -903824.68806  24200721.50006   -705207.52546  24200718.08246
   -608942.71906  21613653.05506   -473535.15448  21613647.98848
    -79377.11315  24525127.73405    -60033.19456  24525126.39546
   3071727.66007  22146814.48407   2434202.96448  22146812.73848
 08 11 15  0  1  0.0000000  0  9  3  6 13 16 19 21 23 25 31
  -3049532.57007  21033716.82807  -2429059.29148  21033715.19148
  -1752945.14107  20746200.94507  -1362543.24048  20746200.06648
  -2554966.31306  22932196.00006  -1986739.51847  22932192.97347
   1442024.59407  20756106.18807   1139397.15748  20756103.65248
  -2049518.28506  23704758.19506  -1593657.60347  23704754.54747
   -918491.12506  24197930.10206   -716635.89846  24197927.21546
   -610672.25006  21613323.46906   -474882.84648  21613319.33248
   -157761.03105  24510212.03105   -121111.57847  24510210.17247
   3149484.34407  22161611.17207   2494792.58048  22161609.84848
 08 11 15  0  1 30.0000000  0  9  3  6 13 16 19 21 23 25 31
  -3111927.84807  21021843.08607  -2477678.97248  21021841.76248
  -1782806.76206  20740518.22706  -1385812.01948  20740517.19548
  -2605424.66406  22922594.26606  -2026057.70547  22922591.26247
   1479036.05107  20763149.62507   1168237.24948  20763146.41048
  -2145944.99206  23686409.75806  -1668795.26947  23686405.73047
   -932818.67606  24195203.13306   -727800.21146  24195200.94546
   -611835.83606  21613102.33606   -475789.55948  21613098.60548
   -236186.69905  24495287.98405   -182222.47346  24495286.01246
   3227495.34807  22176456.18007   2555580.34948  22176454.39848
 08 11 15  0  2  0.0000000  0  9  3  6 13 16 19 21 23 25 31
  -3173919.85907  21010046.15607  -2525984.44048  21010045.12148
  -1812217.05907  20734921.93807  -1408729.14148  20734920.48048
  -2655415.55106  22913080.68806  -2065011.64547  22913077.52347
   1516232.42207  20770227.54707   1197221.41748  20770224.28948
  -2242240.75406  23668084.57806  -1743830.91147  23668081.09447
   -946787.31306  24192545.03106   -738684.79546  24192543.50046
   -612414.74607  21612992.32807   -476240.65748  21612987.97348
   -314634.07805  24480360.69505   -243350.32146  24480357.89146
   3305778.65207  22191353.26607   2616580.29548  22191351.53548
 08 11 15  0  2 30.0000000  0  9  3  6 13 16 19 21 23 25 31
  -3235519.57007  20998324.63307  -2573984.21048  20998323.06648
  -1841188.00407  20729409.11707  -1431303.90248  20729407.28948
  -2704949.44106  22903654.16406  -2103609.44547  22903652.29347
   1553600.33207  20777338.52307   1226339.26048  20777335.05548
  -2338415.81306  23649782.60206  -1818772.48047  23649778.82847
   -960408.02006  24189953.40606   -749298.27947  24189950.72347
   -612421.08606  21612990.75806   -476245.60648  21612985.96148
   -393114.57805  24465425.90605   -304503.93046  24465422.60946
   3384321.12507  22206299.00807   2677782.22748  22206297.47348
 08 11 15  0  3  0.0000000  0  9  3  6 13 16 19 21 23 25 31
  -3296722.58607  20986677.83607  -2621674.86648  20986677.32048
  -1869716.19107  20723980.44507  -1453533.64748  20723978.51648
  -2754021.30106  22894315.88306  -2141847.29347  22894314.82047
   1591141.41807  20784482.58607   1255592.03648  20784479.58248
  -2434465.16006  23631505.84406  -1893616.13147  23631500.83247
   -973676.84806  24187428.60206   -759637.61947  24187426.04747
   -611851.71506  21613098.76606   -475801.92648  21613094.81648
   -471623.71905  24450485.59405   -365679.87946  24450483.00846
   3463125.28907  22221295.05507   2739188.06448  22221292.61348
 08 11 15  0  3 30.0000000  0  9  3  6 13 16 19 21 23 25 31
  -3357530.57407  20975106.37507  -2669057.70648  20975104.83648
  -1897803.99207  20718635.17207  -1475420.25048  20718633.84448
  -2802631.93006  22885065.71106  -2179725.69247  22885064.51647
   1628851.87907  20791658.44507   1284976.80948  20791655.82448
  -2530389.39806  23613251.67206  -1968362.24447  23613247.29347
   -986594.50406  24184969.79706   -769703.30247  24184968.15247
   -610709.29306  21613316.59406   -474911.75348  21613311.35248
   -550163.09406  24435540.72706   -426879.38046  24435537.57446
   3542187.51607  22236340.21907   2800794.94348  22236338.33248
 08 11 15  0  4  0.0000000  0  9  3  6 13 16 19 21 23 25 31
  -3417940.12907  20963610.71907  -2716130.07048  20963609.22748
  -1925449.49207  20713374.84407  -1496962.20748  20713372.98048
  -2850778.34006  22875904.29706  -2217242.36547  22875901.30147
   1666731.92607  20798866.86707   1314493.71948  20798864.55548
  -2626185.01206  23595022.22706  -2043008.17247  23595019.09847
   -999158.29706  24182579.45306   -779493.30147  24182576.73447
   -608992.25006  21613643.15606   -473573.81148  21613638.95748
   -628729.96106  24420589.73406   -488100.32146  24420587.01646
   3621508.69107  22251434.93007   2862603.62548  22251432.93848
 08 11 15  0  4 30.0000000  0  9  3  6 13 16 19 21 23 25 31
  -3477938.70707  20952193.66407  -2762882.23048  20952192.19148
  -1952641.32007  20708200.10207  -1518150.65248  20708198.67648
  -2898447.68006  22866833.11706  -2254387.30647  22866831.63747
   1704791.49207  20806109.21907   1344150.49048  20806107.08648
  -2721838.83606  23576820.40606  -2117543.61047  23576816.04347
  -1011356.18806  24180258.21106   -788998.12246  24180254.75446
   -606689.64507  21614081.22707   -471779.59448  21614077.45748
   -707311.97705  24405635.45305   -549333.02346  24405633.51246
   3701099.38307  22266580.58607   2924622.30848  22266577.97348
 08 11 15  0  5  0.0000000  0  9  3  6 13 16 19 21 23 25 31
  -3537524.69907  20940854.89807  -2809312.86848  20940853.09848
  -1979378.27307  20703112.26607  -1538984.64548  20703111.01648
  -2945636.93406  22857853.28106  -2291158.17247  22857851.22347
   1743030.00407  20813385.59407   1373946.71848  20813382.51648
  -2817348.08206  23558645.60906  -2191966.38147  23558642.17247
  -1023185.93406  24178007.07006   -798216.04747  24178004.30547
   -603800.80106  21614631.17206   -469528.56348  21614626.99248
   -785907.16805  24390679.81305   -610576.00746  24390677.43846
   3780959.22707  22281777.21907   2986850.73748  22281775.68848
 08 11 15  0  5 30.0000000  0  9  3  6 13 16 19 21 23 25 31
  -3596707.57407  20929592.57807  -2855429.38548  20929590.75448
  -2005670.85507  20698108.87507  -1559472.35348  20698107.41448
  -2992355.31306  22848962.60906  -2327562.07047  22848960.64847
   1781435.84407  20820694.28907   1403873.34848  20820691.38748
  -2912721.51206  23540496.75006  -2266283.32347  23540492.87947
  -1034656.91806  24175823.99206   -807154.39547  24175821.59847
   -600336.50806  21615290.52306   -466829.13448  21615286.39148
   -864524.92606  24375719.43006   -671836.61346  24375717.03546
   3861076.72707  22297023.00007   3049279.94448  22297021.22748
 08 11 15  0  6  0.0000000  0  9  3  6 13 16 19 21 23 25 31
  -3655494.51607  20918405.57007  -2901237.37948  20918403.83648
  -2031527.56607  20693188.32007  -1579620.43848  20693186.97748
  -3038609.62906  22840160.77306  -2363604.38047  22840158.46147
   1819998.89807  20828032.43007   1433922.48148  20828030.18848
  -3007965.95306  23522371.35906  -2340499.73047  23522368.42247
  -1045776.74606  24173707.61706   -815819.21347  24173706.02047
   -596305.84807  21616057.85207   -463688.37248  21616053.66048
   -943172.89806  24360753.60906   -733120.73947  24360751.32847
   3941442.53106  22312315.64106   3111902.63048  22312313.70348
 08 11 15  0  6 30.0010000  0  9  3  6 13 16 19 21 23 25 31
  -3713856.97707  20907299.60607  -2946714.62848  20907297.89648
  -2056919.94107  20688356.54407  -1599406.70648  20688355.34548
  -3084370.64506  22831452.75506  -2399262.33847  22831449.93847
   1858748.49607  20835406.36407   1464116.96548  20835403.29848
  -3103053.41006  23504277.10606  -2414593.78647  23504273.98947
  -1056515.16806  24171664.09906   -824186.81447  24171662.15347
   -591679.58607  21616937.54407   -460083.48748  21616933.91948
  -1021823.40206  24345786.23906   -794406.82846  24345784.39246
   4022087.41407  22327662.66907   3174742.79448  22327661.20848
 08 11 15  0  7  0.0010000  0  9  3  6 13 16 19 21 23 25 31
  -3771789.26607  20896275.43507  -2991856.66348  20896273.86048
  -2081845.09407  20683613.84907  -1618828.89948  20683611.97048
  -3129632.53106  22822839.54406  -2434531.34547  22822837.47447
   1897681.68007  20842814.95807   1494454.48948  20842811.72848
  -3197974.69906  23486214.26306  -2488558.42647  23486211.11447
  -1066869.61706  24169694.52806   -832255.20147  24169692.48147
   -586457.19506  21617932.00506   -456014.10548  21617927.54448
  -1100469.01205  24330820.59905   -855689.04047  24330819.38047
   4103006.29306  22343060.16906   3237796.43148  22343059.66148
 08 11 15  0  7 30.0010000  0  9  3  6 13 16 19 21 23 25 31
  -3829303.18007  20885331.48907  -3036672.69148  20885329.21648
  -2106314.90207  20678957.29407  -1637896.30548  20678954.77848
  -3174406.55106  22814319.82506  -2469420.20447  22814317.82947
   1936787.50007  20850256.84107   1524926.52648  20850253.38848
  -3292742.38306  23468180.66106  -2562403.31947  23468177.60347
  -1076850.33606  24167795.16906   -840032.40447  24167793.45447
   -580649.98007  21619036.68507   -451488.99148  21619032.80248
  -1179122.19906  24315853.64606   -916977.18847  24315851.02147
   4184189.81606  22358509.14606   3301056.27148  22358507.27148
 08 11 15  0  8  0.0010000  0  9  3  6 13 16 19 21 23 25 31
  -3886391.78107  20874467.78607  -3081157.30748  20874465.92348
  -2130323.22707  20674388.72407  -1656604.08748  20674386.52848
  -3218685.21106  22805893.65306  -2503923.01447  22805891.45847
   1976070.44507  20857731.95007   1555536.60348  20857728.98948
  -3387348.23406  23450177.35606  -2636122.11147  23450174.83347
  -1086450.37106  24165967.85606   -847512.90747  24165965.56347
   -574252.29307  21620253.78607   -446503.78748  21620249.56748
  -1257775.94106  24300886.17706   -978265.83047  24300884.23547
   4265642.89807  22374009.30207   3364526.17048  22374008.08348
 08 11 15  0  8 30.0010000  0  9  3  6 13 16 19 21 23 25 31
  -3943041.32007  20863687.58307  -3125299.79848  20863685.81748
  -2153857.58607  20669910.47407  -1674942.54348  20669908.24748
  -3262453.88306  22797565.09906  -2538028.50747  22797562.74347
   2015541.85907  20865243.10607   1586293.53248  20865240.57148
  -3481777.91406  23432208.89606  -2709703.67047  23432205.66547
  -1095656.46906  24164216.16106   -854686.45847  24164213.23547
   -567252.04706  21621586.12206   -441049.06848  21621581.87648
  -1336416.57405  24285920.90305  -1039544.24647  24285919.47047
   4347377.02707  22389562.93507   3428215.06748  22389561.13048
 08 11 15  0  9  0.0010000  0  9  3  6 13 16 19 21 23 25 31
  -3999267.32407  20852988.06007  -3169112.25848  20852986.52848
  -2176934.38307  20665518.95007  -1692924.46548  20665516.79448
  -3305727.95306  22789329.43506  -2571748.58847  22789328.39247
   2055184.03507  20872786.80207   1617183.52448  20872785.02148
  -3576046.27306  23414270.02106  -2783159.48547  23414267.17747
  -1104483.79306  24162536.09906   -861564.88747  24162534.11847
   -559666.23806  21623029.66106   -435138.05048  21623025.62648
  -1415059.32005  24270955.88805  -1100824.26047  24270954.00147
   4429374.92606  22405166.36406   3492109.53248  22405165.27448
 08 11 15  0  9 30.0010000  0  9  3  6 13 16 19 21 23 25 31
  -4055058.46507  20842371.29407  -3212585.86448  20842369.71648
  -2199543.55507  20661216.52107  -1710542.00448  20661214.77148
  -3348495.46906  22781192.13006  -2605073.90647  22781189.71247
   2095005.86307  20880364.69207   1648213.51848  20880362.28248
  -3670141.22706  23396364.22406  -2856480.18147  23396360.77847
  -1112921.08206  24160930.34106   -868139.42247  24160927.84147
   -551485.09806  21624586.69206   -428763.15048  21624582.13448
  -1493692.99606  24255992.92706  -1162097.19247  24255990.20847
   4511645.66007  22420821.75507   3556216.56448  22420820.94248
 08 11 15  0 10  0.0010000  0  9  3  6 13 16 19 21 23 25 31
  -4110414.79307  20831837.70807  -3255720.63848  20831836.15748
  -2221686.09407  20657002.92707  -1727795.92548  20657001.00548
  -3390756.67606  22773150.06006  -2638004.71447  22773146.73547
   2135004.64806  20887976.33306   1679381.38948  20887973.70448
  -3764062.00406  23378491.45006  -2929665.11847  23378488.12247
  -1120968.47706  24159399.20006   -874410.09847  24159396.47447
   -542710.31306  21626255.84906   -421925.63548  21626251.98948
  -1572317.43805  24241030.43505  -1223363.05346  24241028.11846
   4594187.43407  22436529.37207   3620534.81048  22436527.50148
 08 11 15  0 10 30.0010000  0  9  3  6 13 16 19 21 23 25 31
  -4165341.93407  20821385.38807  -3298521.00248  20821383.78648
  -2243368.81607  20652875.97407  -1744691.54448  20652874.84948
  -3432516.21906  22765202.92706  -2670544.61047  22765200.82947
   2175172.62107  20895619.73907   1710681.11148  20895616.95448
  -3857813.42206  23360651.41906  -3002718.13847  23360647.38847
  -1128631.85206  24157941.41906   -880381.55547  24157938.78247
   -533348.89807  21628037.82507   -414631.04348  21628033.71248
  -1650938.09405  24226070.06005  -1284625.92346  24226066.79046
   4676992.20307  22452286.86407   3685057.98648  22452284.91148
 08 11 15  0 11  0.0010000  0  9  3  6 13 16 19 21 23 25 31
  -4219826.84407  20811016.83307  -3340976.76848  20811015.27448
  -2264579.62106  20648839.70006  -1761219.43448  20648838.08348
  -3473760.39806  22757354.79406  -2702682.94247  22757352.21247
   2215520.72706  20903297.82506   1742121.17448  20903295.39948
  -3951381.63306  23342845.34906  -3075628.40747  23342842.35347
  -1135898.11706  24156558.21606   -886043.54947  24156555.24347
   -523389.29706  21629933.01306   -406870.30848  21629928.72048
  -1729541.66405  24211112.14605  -1345875.40247  24211109.98547
   4760071.13706  22468095.97406   3749794.77948  22468094.17348
 08 11 15  0 11 30.0010000  0  9  3  6 13 16 19 21 23 25 31
  -4273863.25407  20800734.59107  -3383083.05448  20800732.43848
  -2285313.03106  20644894.98106  -1777375.34748  20644893.37648
  -3514481.96506  22749605.84906  -2734414.04547  22749602.79447
   2256053.37507  20911010.83307   1773705.04548  20911008.58348
  -4044759.25806  23325076.16106  -3148390.10147  23325072.70447
  -1142760.82406  24155252.34906   -891391.13047  24155249.75947
   -512826.69906  21631943.25506   -398639.71648  21631938.91148
  -1808121.38705  24196159.07505  -1407106.30546  24196155.56346
   4843428.75007  22483958.52807   3814748.73348  22483957.03648
 08 11 15  0 12  0.0010000  0  9  3  6 13 16 19 21 23 25 31
  -4327464.96507  20790534.14607  -3424850.60848  20790532.15748
  -2305584.29706  20641037.16906  -1793171.12548  20641035.91948
  -3554695.66806  22741953.50506  -2765749.40647  22741950.41547
   2296753.96906  20918755.87206   1805419.78848  20918753.61048
  -4137959.55906  23307340.73906  -3221013.69847  23307336.20447
  -1149234.01206  24154020.74706   -896435.14247  24154017.82947
   -501676.78907  21634064.98107   -389951.47348  21634060.79048
  -1886691.30105  24181207.45005  -1468329.72646  24181203.83346
   4927048.86707  22499871.05207   3879907.24848  22499869.39248
 08 11 15  0 12 30.0010000  0  9  3  6 13 16 19 21 23 25 31
  -4380622.21107  20780419.09907  -3466271.85048  20780417.04848
  -2325384.71107  20637269.70807  -1808600.01748  20637267.98548
  -3594390.37906  22734399.38806  -2796680.34247  22734397.86047
   2337629.91006  20926534.77106   1837271.15048  20926531.66148
  -4230971.82806  23289641.79406  -3293490.77447  23289637.27847
  -1155308.01206  24152864.27806   -901168.14347  24152861.76747
   -489931.25006  21636300.04406   -380799.09248  21636295.43848
  -1965241.20705  24166259.04405  -1529537.39946  24166256.48146
   5010939.51207  22515835.02807   3945276.53648  22515832.85648
 08 11 15  0 13  0.0010000  0  9  3  6 13 16 19 21 23 25 31
  -4433330.09807  20770389.11407  -3507342.93648  20770386.97048
  -2344710.44906  20633591.81006  -1823659.03448  20633589.85348
  -3633561.18006  22726945.21606  -2827203.04947  22726943.99347
   2378684.10506  20934346.77806   1869261.42148  20934344.09148
  -4323790.52706  23271978.63006  -3365816.98947  23271974.99347
  -1160978.10206  24151785.56006   -905586.39647  24151782.67747
   -477587.11706  21638649.01306   -371180.28948  21638644.39648
  -2043766.21104  24151316.54404  -1590725.67446  24151313.80246
   5095102.88307  22531851.17707   4010858.37648  22531849.23948
 08 11 15  0 13 30.0010000  0  9  3  6 13 16 19 21 23 25 31
  -4485595.61307  20760442.41107  -3548069.30548  20760441.01348
  -2363569.30507  20630003.46607  -1838354.24248  20630002.27448
  -3672214.82406  22719590.05206  -2857322.76547  22719587.92747
   2419907.61307  20942191.56007   1901383.65348  20942188.51748
  -4416421.43406  23254351.99706  -3437996.90047  23254348.12247
  -1166250.87506  24150782.85606   -909695.05347  24150780.09947
   -464652.37106  21641110.18506   -361101.29748  21641106.47848
  -2122272.57005  24136378.17705  -1651899.44446  24136375.35346
   5179530.69507  22547917.27807   4076646.25748  22547914.64648
 08 11 15  0 14  0.0010000  0  9  3  6 13 16 19 21 23 25 31
  -4537427.15607  20750579.77107  -3588457.51348  20750578.08748
  -2381970.77007  20626501.81707  -1852693.05148  20626499.48948
  -3710358.02706  22712332.15306  -2887044.74647  22712328.38047
   2461289.69507  20950066.41907   1933629.40048  20950062.73148
  -4508872.07806  23236758.55206  -3510036.32647  23236754.60647
  -1171135.09406  24149852.89606   -913500.92947  24149850.58347
   -451137.35506  21643682.07506   -350570.10848  21643677.71248
  -2200768.48405  24121440.34905  -1713065.08146  24121438.59546
   5264212.57807  22564031.27807   4142632.12748  22564028.72448
 08 11 15  0 14 30.0010000  0  9  3  6 13 16 19 21 23 25 31
  -4588810.43807  20740801.63807  -3628496.43148  20740800.09548
  -2399901.70707  20623089.55207  -1866665.20448  20623088.19648
  -3747977.03106  22705172.91106  -2916358.27347  22705169.97047
   2502842.52307  20957973.10607   1966008.24348  20957970.29848
  -4601127.25806  23219202.87206  -3581923.47747  23219198.68547
  -1175616.50406  24148999.52806   -916992.91447  24148998.56047
   -437029.27307  21646366.79407   -339576.80848  21646362.73548
  -2279239.14105  24106508.00505  -1774211.05547  24106506.58347
   5349160.69507  22580196.48107   4208825.42248  22580194.62248
 08 11 15  0 15  0.0010000  0  9  3  6 13 16 19 21 23 25 31
  -4639728.59007  20731112.32507  -3668172.92048  20731110.71648
  -2417346.11307  20619769.88007  -1880258.24548  20619768.74748
  -3785054.65606  22698117.57506  -2945249.92147  22698114.46247
   2544581.11307  20965916.16107   1998531.79148  20965913.33348
  -4693169.17606  23201687.86406  -3653644.43547  23201684.07147
  -1179678.09406  24148227.45006   -920157.79146  24148225.34146
   -422312.93407  21649166.94207   -328109.54148  21649162.86448
  -2357667.41405  24091583.20805  -1835323.97047  24091582.35347
   5434389.97707  22596415.14607   4275237.82748  22596413.27148
 08 11 15  0 15 30.0010000  0  9  3  6 13 16 19 21 23 25 31
  -4690193.27007  20721509.11407  -3707496.03248  20721507.83348
  -2434316.96107  20616540.58307  -1893482.28248  20616538.90348
  -3821601.53106  22691163.02806  -2973727.98247  22691160.29447
   2586491.82006  20973891.24706   2031189.48848  20973888.93148
  -4785008.43006  23184211.59106  -3725207.49247  23184208.00947
  -1183331.57806  24147531.69206   -923004.64146  24147528.94246
   -407001.49607  21652080.65307   -316178.57048  21652076.57148
  -2436064.47305  24076664.85605  -1896412.54647  24076663.11047
   5519886.84806  22612684.52806   4341858.73348  22612682.61448
 08 11 15  0 16  0.0010000  0  9  3  6 13 16 19 21 23 25 31
  -4740194.87507  20711994.16107  -3746458.33248  20711992.91148
  -2450805.57807  20613402.77107  -1906330.56048  20613401.52848
  -3857607.57006  22684311.26306  -3001784.66847  22684307.23947
   2628581.90606  20981900.63806   2063986.93348  20981898.20848
  -4876634.43006  23166775.61406  -3796604.37047  23166772.09147
  -1186567.35906  24146916.79406   -925526.04346  24146914.49746
   -391087.10907  21655109.18507   -303777.77648  21655105.37248
  -2514420.26205  24061754.78605  -1957469.01847  24061752.24347
   5605659.05506  22629006.52106   4408694.18148  22629004.93148
 08 11 15  0 16 30.0010000  0  9  3  6 13 16 19 21 23 25 31
  -4789744.36307  20702564.92707  -3785068.31048  20702563.72048
  -2466824.32807  20610354.87207  -1918812.69048  20610352.91548
  -3893083.78106  22677560.63806  -3029428.46447  22677556.84147
   2670838.38706  20989942.20806   2096914.02548  20989939.60648
  -4968057.44106  23149378.66106  -3867843.09247  23149374.31047
  -1189396.72306  24146378.38806   -927730.72546  24146375.97846
   -374582.69107  21658250.45807   -290917.19648  21658246.37248
  -2592745.67605  24046849.71605  -2018501.79547  24046847.17747
   5691693.26206  22645378.09906   4475733.79348  22645376.73148
 08 11 15  0 17  0.0010000  0  9  3  6 13 16 19 21 23 25 31
  -4838830.03907  20693224.53607  -3823316.89748  20693222.95448
  -2482362.10907  20607398.27807  -1930920.08048  20607395.89248
  -3928017.90206  22670912.56706  -3056649.87247  22670909.71647
   2713271.29706  20998016.56006   2129978.63848  20998013.40348
  -5059264.32806  23132022.65306  -3938913.41147  23132018.41947
  -1191807.96906  24145918.81706   -929609.61846  24145916.28646
   -357477.95707  21661505.37207   -277588.86448  21661501.18148
  -2671027.86305  24031952.51305  -2079500.91147  24031950.25147
   5777999.77006  22661801.58306   4542985.58648  22661799.93148
 08 11 15  0 17 30.0010000  0  9  3  6 13 16 19 21 23 25 31
  -4887450.58606  20683972.59906  -3861203.04448  20683970.41148
  -2497419.08207  20604532.62207  -1942652.77848  20604530.86848
  -3962407.94506  22664368.23106  -3083447.31247  22664365.41947
   2755879.55506  21006125.00506   2163179.85648  21006122.34148
  -5150253.44906  23114707.39606  -4009813.99647  23114703.88847
  -1193799.79306  24145539.96606   -931161.66546  24145538.02446
   -339773.51207  21664874.13807   -263793.20548  21664869.63048
  -2749265.34405  24017065.14605  -2140465.14947  24017062.29447
   5864577.51606  22678276.80206   4610448.73748  22678274.98948
 08 11 15  0 18  0.0010000  0  9  3  6 13 16 19 21 23 25 31
  -4935619.00807  20674806.42707  -3898736.88048  20674804.97448
  -2512009.06307  20601756.32507  -1954021.60248  20601754.26748
  -3996266.75806  22657925.06706  -3109830.79947  22657922.95847
   2798648.25006  21014263.56706   2196506.10848  21014261.27148
  -5241036.45706  23097432.70806  -4080554.01647  23097429.28247
  -1195385.06306  24145238.18506   -932396.93546  24145236.06046
   -321483.62907  21668354.46607   -249541.36748  21668350.49348
  -2827470.43805  24002182.63005  -2201404.15347  24002180.66147
   5951412.16007  22694801.43507   4678112.06648  22694799.33348
 08 11 15  0 18 30.0010000  0  9  3  6 13 16 19 21 23 25 31
  -4983317.37907  20665729.63007  -3935904.43148  20665727.92748
  -2526115.41407  20599071.63007  -1965013.55948  20599070.23148
  -4029576.74206  22651586.50506  -3135786.65247  22651584.16947
   2841593.42207  21022435.56707   2229969.86848  21022433.00148
  -5331594.50006  23080200.39606  -4151118.70347  23080196.17347
  -1196546.16406  24145017.20806   -933301.66747  24145014.80647
   -302592.29707  21671949.15307   -234820.84848  21671944.09548
  -2905624.87503  23987310.41903  -2262303.72847  23987308.40347
   6038519.16006  22711377.16106   4745987.61648  22711375.24748
 08 11 15  0 19  0.0010000  0  9  3  6 13 16 19 21 23 25 31
  -5030559.01207  20656739.95807  -3972716.09148  20656738.64948
  -2539752.23807  20596476.94207  -1975639.65648  20596474.99748
  -4062349.52306  22645350.15306  -3161323.89947  22645347.69647
   2884699.90207  21030638.63807   2263559.32948  21030636.66948
  -5421939.70306  23063007.42706  -4221517.53247  23063003.92347
  -1197296.36306  24144873.95806   -933886.27646  24144871.04846
   -283114.57407  21675656.11407   -219643.42348  21675651.05248
  -2983741.21904  23972445.20804  -2323173.54847  23972443.93547
   6125883.36306  22728001.74706   4814063.57748  22728000.14948
 08 11 15  0 19 30.0010000  0  9  3  6 13 16 19 21 23 25 31
  -5077318.42607  20647841.55207  -4009151.97948  20647840.06048
  -2552895.84007  20593975.64607  -1985881.41348  20593973.84548
  -4094559.70306  22639220.77806  -3186422.73347  22639217.73547
   2927991.03507  21038876.64607   2297292.66548  21038874.41548
  -5512045.94906  23045860.58306  -4291730.19247  23045857.16147
  -1197610.54306  24144814.30206   -934131.01146  24144811.64646
   -263027.09807  21679478.22407   -203990.86848  21679473.48148
  -3061793.67605  23957592.66105  -2383993.61747  23957590.34147
   6213528.18406  22744680.13006   4882358.20648  22744677.59548
 08 11 15  0 20  0.0010000  0  9  3  6 13 16 19 21 23 25 31
  -5123607.50807  20639033.23907  -4045221.39748  20639031.90748
  -2565558.56307  20591566.23107  -1995748.47548  20591564.10648
  -4126218.88706  22633196.20806  -3211092.25447  22633193.27147
   2971453.02707  21047147.44207   2331159.16048  21047144.78648
  -5601923.43406  23028757.66906  -4361764.57147  23028753.68547
  -1197500.45306  24144835.82506   -934045.24046  24144832.51746
   -242343.15207  21683414.81007   -187873.51648  21683409.81348
  -3139793.06305  23942749.59105  -2444772.40147  23942747.89247
   6301440.19106  22761408.91106   4950861.05548  22761407.11848
 08 11 15  0 20 30.0010000  0  9  3  6 13 16 19 21 23 25 31
  -5169439.56307  20630311.77107  -4080934.67948  20630310.47048
  -2577754.68807  20589245.15307  -2005251.95248  20589243.80648
  -4157339.67206  22627273.59906  -3235342.18347  22627271.27147
   3015071.13707  21055447.35607   2365147.29848  21055445.13048
  -5691584.76606  23011695.66906  -4431630.56547  23011691.38847
  -1196978.92606  24144934.74706   -933638.85246  24144931.47046
   -221077.56607  21687460.73907   -171302.95048  21687457.32948
  -3217752.04305  23927914.63005  -2505519.62147  23927912.73147
   6389604.29706  22778185.63006   5019560.36248  22778184.16948
 08 11 15  0 21  0.0010000  0  9  3  6 13 16 19 21 23 25 31
  -5214796.25407  20621680.57507  -4116277.54748  20621679.32548
  -2589467.35907  20587016.33307  -2014378.70548  20587014.74748
  -4187903.57806  22621457.49706  -3259158.19647  22621455.34547
   3058861.90607  21063780.84907   2399269.94748  21063777.86048
  -5781010.60206  22994678.43506  -4501313.03047  22994674.28647
  -1196028.10506  24145115.90306   -932897.93146  24145113.37246
   -199214.14107  21691622.06007   -154266.53648  21691617.34548
  -3295651.63705  23913090.73905  -2566220.60047  23913089.41547
   6478036.70306  22795014.13806   5088468.69247  22795012.12647
 08 11 15  0 21 30.0010000  0  9  3  6 13 16 19 21 23 25 31
  -5259679.47307  20613139.28607  -4151251.47448  20613138.17348
  -2600699.18007  20584878.94207  -2023130.76948  20584877.24348
  -4217912.13706  22615747.12206  -3282541.52347  22615744.64247
   3102821.43406  21072145.99706   2433524.10948  21072143.35348
  -5870201.43006  22977706.54406  -4570812.35247  22977702.85647
  -1194649.69906  24145378.81706   -931823.82746  24145376.05646
   -176756.25407  21695895.74707   -136766.90848  21695890.98148
  -3373493.04706  23898277.71606  -2626876.19447  23898276.25947
   6566733.93806  22811893.41106   5157583.39248  22811891.70448
 08 11 15  0 22  0.0010000  0  9  3  6 13 16 19 21 23 25 31
  -5304080.48807  20604690.17707  -4185849.67648  20604689.44248
  -2611442.80507  20582834.70807  -2031502.41648  20582833.22848
  -4247356.37106  22610144.21606  -3305485.07847  22610143.20047
   3146956.48407  21080544.46607   2467915.05948  21080541.47048
  -5959147.79706  22960780.06706  -4640121.18547  22960776.31347
  -1192835.41006  24145723.41106   -930410.07547  24145722.09947
   -153697.20707  21700283.71607   -118798.80948  21700279.31048
  -3451266.78506  23883477.95806  -2687479.12147  23883476.75547
   6655702.34806  22828823.21606   5226909.39048  22828821.11848
 08 11 15  0 22 30.0010000  0  9  3  6 13 16 19 21 23 25 31
  -5347987.60507  20596334.84107  -4220062.98948  20596333.66548
  -2621687.46907  20580885.26307  -2039485.27248  20580883.95848
  -4276223.81606  22604650.55206  -3327979.20147  22604648.82947
   3191277.65207  21088978.34907   2502451.04448  21088976.29048
  -6047836.78906  22943902.72406  -4709229.45947  22943899.61847
  -1190573.23006  24146153.65306   -928647.34247  24146151.63847
   -130026.91407  21704788.06007   -100354.45248  21704783.71248
  -3528960.35506  23868693.62206  -2748019.57847  23868692.18147
   6744952.02006  22845806.26306   5296454.55848  22845805.04048
 08 11 15  0 23  0.0010000  0  9  3  6 13 16 19 21 23 25 31
  -5391431.09007  20588067.75507  -4253915.05048  20588066.33348
  -2631464.56307  20579024.48907  -2047103.78448  20579022.96648
  -4304544.69106  22599261.94206  -3350047.41747  22599259.54847
   3235752.46907  21097441.88807   2537106.75348  21097439.14248
  -6136297.48406  22927069.47406  -4778159.84747  22927066.16147
  -1187893.71506  24146663.97406   -926559.40046  24146661.05246
   -105777.49207  21709402.41107    -81458.80548  21709397.82548
  -3606603.24206  23853918.49706  -2808520.53347  23853917.18547
   6834451.23406  22862837.39606   5366194.15648  22862836.72848
 08 11 15  0 23 30.0010000  0  9  3  6 13 16 19 21 23 25 31
  -5434394.98407  20579892.28607  -4287393.39948  20579890.71248
  -2640759.18807  20577255.85607  -2054346.34248  20577254.58348
  -4332301.89506  22593979.60606  -3371676.40947  22593977.35647
   3280395.30907  21105936.56007   2571893.38748  21105934.41948
  -6224512.67206  22910282.75506  -4846898.94347  22910278.33347
  -1184780.71505  24147255.23105   -924133.67246  24147253.50946
    -80934.95307  21714129.45007    -62100.98648  21714125.55248
  -3684178.50405  23839156.43505  -2868968.78347  23839154.61847
   6924213.84406  22879919.25506   5436139.01348  22879917.46248
 08 11 15  0 24  0.0010000  0  9  3  6 13 16 19 21 23 25 31
  -5476887.81307  20571805.97407  -4320504.69148  20571805.10348
  -2649581.42607  20575577.37207  -2061220.81848  20575575.21248
  -4359504.87106  22588803.41106  -3392873.50747  22588800.63847
   3325195.34807  21114461.93507   2606802.49048  21114459.53248
  -6312490.32006  22893541.11406  -4915452.96647  22893537.41947
  -1181243.46506  24147928.77106   -921377.38446  24147926.20446
    -55509.67207  21718967.34907    -42289.11348  21718963.51748
  -3761694.45105  23824405.84105  -2929370.83047  23824404.45047
   7014228.99606  22897047.91106   5506280.69048  22897046.84148
 08 11 15  0 24 30.0010000  0  9  3  6 13 16 19 21 23 25 31
  -5518904.36707  20563810.65307  -4353244.84848  20563809.45848
  -2657926.93807  20573989.09907  -2067723.79848  20573987.31348
  -4386147.64106  22583733.40306  -3413634.09747  22583730.35347
   3370156.54307  21123017.82507   2641837.17348  21123015.23148
  -6400223.76606  22876846.22406  -4983816.63247  22876842.57147
  -1177276.32806  24148684.02106   -918286.12246  24148680.83746
    -29498.40607  21723917.69207    -22020.60648  21723913.35348
  -3839144.71506  23809667.23906  -2989721.62247  23809666.09947
   7104500.43406  22914226.50506   5576622.02847  22914225.22047
 08 11 15  0 25  0.0010000  0  9  3  6 13 16 19 21 23 25 31
  -5560449.61707  20555904.70807  -4385617.77648  20555903.17748
  -2665801.39807  20572490.38807  -2073859.75248  20572488.48948
  -4412234.48806  22578768.99706  -3433961.49947  22578766.84947
   3415272.48407  21131603.29407   2676992.45548  21131600.65748
  -6487716.41006  22860196.62206  -5051992.69847  22860193.29447
  -1172884.27006  24149519.65306   -914863.74346  24149516.35346
     -2907.68407  21728977.92707     -1300.56048  21728973.52148
  -3916532.96506  23794940.84906  -3050024.14947  23794939.13447
   7195021.68806  22931452.48106   5647158.03848  22931450.59548
 08 11 15  0 25 30.0010000  0  9  3  6 13 16 19 21 23 25 31
  -5601490.26207  20548095.25507  -4417597.49048  20548093.31048
  -2673173.16007  20571087.77807  -2079603.97848  20571086.17748
  -4437732.02706  22573917.13006  -3453829.72647  22573914.87247
   3460574.61307  21140224.11407   2712292.80448  21140220.72848
  -6574934.41406  22843599.97406  -5119954.73948  22843596.38448
  -1168034.50006  24150442.72406   -911084.69047  24150440.23547
     24293.30907  21734153.84907     19894.99648  21734149.14948
  -3993825.42206  23780232.73106  -3110252.02747  23780231.18147
   7285823.81606  22948731.52106   5717912.94448  22948728.78248
 08 11 15  0 26  0.0010000  0  9  3  6 13 16 19 21 23 25 31
  -5642041.78907  20540378.42707  -4449196.09248  20540376.91948
  -2680058.42207  20569777.20007  -2084969.12048  20569775.84948
  -4462656.00806  22569174.00506  -3473251.03847  22569172.59947
   3506046.10507  21148876.70807   2747725.14448  21148874.21648
  -6661891.57806  22827052.23906  -5187713.56147  22827048.27847
  -1162741.80906  24151450.54406   -906960.53347  24151448.19647
     52088.32007  21739443.22407     41553.43848  21739438.41548
  -4071036.25406  23765539.93506  -3170416.31547  23765538.56347
   7376889.85506  22966061.16106   5788873.45948  22966058.32948
 08 11 15  0 26 30.0010000  0  9  3  6 13 16 19 21 23 25 31
  -5682105.49207  20532754.43507  -4480414.55548  20532752.39648
  -2686459.61307  20568558.95807  -2089957.04348  20568557.65348
  -4487006.07406  22564540.05206  -3492225.09347  22564538.80647
   3551684.01207  21157561.40307   2783287.14948  21157558.60348
  -6748588.19906  22810554.38806  -5255269.37148  22810550.97048
  -1157008.14106  24152541.06006   -902492.72747  24152538.31347
     80473.86307  21744845.14607     63672.04048  21744840.61048
  -4148166.00405  23750862.06005  -3230517.38346  23750860.88846
   7468216.48806  22983440.19206   5860037.01248  22983438.58748
 08 11 15  0 27  0.0010000  0  9  3  6 13 16 19 21 23 25 31
  -5721688.17607  20525222.12207  -4511258.21348  20525220.81048
  -2692384.69107  20567431.63807  -2094573.99648  20567429.50948
  -4510789.08606  22560015.07506  -3510757.30147  22560012.34947
   3597480.12907  21166276.08307   2818972.40948  21166273.06748
  -6835029.79706  22794105.17706  -5322626.45848  22794101.81348
  -1150840.02306  24153715.23106   -897686.43047  24153711.65347
    109440.48007  21750356.74707     86243.40948  21750352.76748
  -4225220.30106  23736199.54406  -3290559.68947  23736198.46247
   7559795.33606  23000866.25506   5931397.11448  23000865.36448
 08 11 15  0 27 30.0010000  0  9  3  6 13 16 19 21 23 25 31
  -5760781.69107  20517782.58307  -4541720.67748  20517781.10348
  -2697826.66007  20566396.22407  -2098814.46948  20566394.89248
  -4533996.94906  22555598.53606  -3528841.32447  22555596.16547
   3643440.84007  21175022.29407   2854785.97848  21175019.29448
  -6921207.31306  22777705.74706  -5389777.71647  22777702.44247
  -1144229.82806  24154972.77106   -892535.63747  24154970.57947
    138994.86707  21755981.06707    109272.80948  21755976.56748
  -4302190.11306  23721552.81706  -3350536.14347  23721551.13047
   7651632.50806  23018342.91906   6002958.50748  23018341.38048
 08 11 15  0 28  0.0010000  0  9  3  6 13 16 19 21 23 25 31
  -5799397.87107  20510434.48907  -4571811.20348  20510432.75948
  -2702798.23407  20565450.39607  -2102688.43648  20565448.95848
  -4556641.16006  22551289.04406  -3546486.17547  22551286.41547
   3689552.88707  21183796.63807   2890717.43848  21183794.50548
  -7007130.95706  22761355.33306  -5456731.21547  22761351.56747
  -1137188.54306  24156312.34106   -887048.96747  24156309.97047
    169123.69507  21761714.35607    132749.80848  21761710.10648
  -4379086.03506  23706919.59106  -3410455.05047  23706918.08347
   7743714.73806  23035865.56706   6074710.84248  23035862.66948
 08 11 15  0 28 30.0010000  0  9  3  6 13 16 19 21 23 25 31
  -5837536.94907  20503176.81007  -4601529.94048  20503175.40348
  -2707301.05507  20564593.28607  -2106197.12748  20564591.64248
  -4578721.84006  22547087.33306  -3563691.91147  22547085.32547
   3735814.43807  21192600.48107   2926765.38548  21192597.94648
  -7092799.87506  22745053.16906  -5523486.19648  22745048.75148
  -1129717.14106  24157734.33306   -881227.09747  24157732.73147
    199824.16807  21767555.95807    156672.25948  21767552.16948
  -4455907.49606  23692301.35606  -3470315.89047  23692299.64247
   7836039.71506  23053434.54406   6146652.38247  23053431.65747
 08 11 15  0 29  0.0010000  0  9  3  6 13 16 19 21 23 25 31
  -5875171.36307  20496015.08307  -4630855.45348  20496013.73948
  -2711308.29707  20563831.09107  -2109319.65148  20563829.35648
  -4600210.62506  22542998.34106  -3580436.42347  22542996.00947
   3782251.92207  21201437.45007   2962950.41648  21201433.78648
  -7178185.23806  22728804.76306  -5590020.25248  22728801.26748
  -1121788.28106  24159242.87206   -875048.79446  24159240.59546
    231122.53507  21773511.92707    181060.57548  21773508.65748
  -4532625.44106  23677702.53606  -3530096.10347  23677700.64247
   7928633.55906  23071054.13806   6218803.36947  23071052.31747
 08 11 15  0 29 30.0010000  0  9  3  6 13 16 19 21 23 25 31
  -5912311.22307  20488947.58307  -4659795.59848  20488945.64648
  -2714831.41007  20563160.26307  -2112064.92548  20563158.72048
  -4621117.43806  22539019.61406  -3596727.45447  22539017.21647
   3828853.38307  21210304.91907   2999263.22148  21210301.89248
  -7263295.91006  22712608.59106  -5656340.20448  22712605.07948
  -1113411.62106  24160837.08306   -868521.51446  24160833.91546
    263006.24607  21779579.17707    205904.99848  21779575.92748
  -4609249.19506  23663120.91906  -3589802.91847  23663119.50547
   8021484.52306  23088723.41106   6291154.74547  23088722.41147
 08 11 15  0 30  0.0010000  0  9  3  6 13 16 19 21 23 25 31
  -5948967.60907  20481971.89607  -4688359.00648  20481970.49348
  -2717882.27307  20562579.59107  -2114442.22448  20562577.81748
  -4641453.34006  22535149.90306  -3612573.60347  22535147.81747
   3875606.91807  21219202.11407   3035694.52848  21219198.69648
  -7348141.34406  22696463.07506  -5722453.50348  22696459.48548
  -1104598.37506  24162514.18506   -861654.05846  24162511.57146
    295462.60907  21785755.41907    231195.65248  21785752.23148
  -4685788.33206  23648556.52106  -3649443.78947  23648554.84547
   8114579.55906  23106438.78606   6363696.29547  23106437.14647
 08 11 15  0 30 30.0010000  0  9  3  6 13 16 19 21 23 25 31
  -5985142.37907  20475088.49707  -4716547.12748  20475086.64248
  -2720464.18007  20562088.20007  -2116454.08748  20562086.92748
  -4661219.50806  22531388.73906  -3627975.83447  22531386.71647
   3922508.92607  21228127.25507   3072241.53048  21228124.22848
  -7432722.79306  22680368.14606  -5788361.10048  22680364.21248
  -1095350.85506  24164274.08306   -854448.16546  24164271.02846
    328487.35507  21792040.13007    256929.21648  21792035.95048
  -4762243.87906  23634007.79406  -3709019.53047  23634005.69647
   8207914.93806  23124200.08306   6436425.15947  23124197.52147
 08 11 15  0 31  0.0010000  0  9  3  6 13 16 19 21 23 25 31
  -6020829.97707  20468297.13807  -4744355.64148  20468296.25948
  -2722572.64807  20561687.20807  -2118097.04348  20561685.79448
  -4680410.84806  22527737.03606  -3642930.15047  22527734.33347
   3969563.57807  21237081.37207   3108907.47248  21237079.07148
  -7517033.22306  22664324.17706  -5854057.50848  22664320.75548
  -1085663.53906  24166118.15306   -846899.62546  24166114.78246
    362084.68807  21798433.60607    283108.94448  21798429.26348
  -4838608.89806  23619475.73106  -3768524.71247  23619473.84147
   8301494.62506  23142007.59106   6509344.37747  23142005.92347
 08 11 15  0 31 30.0010000  0  9  3  6 13 16 19 21 23 25 31
  -6056003.98007  20461603.81007  -4771763.93548  20461602.20848
  -2724182.22307  20561380.92707  -2119351.24448  20561379.02148
  -4698999.91406  22524199.74706  -3657415.13347  22524196.89647
   4016796.32407  21246069.54407   3145712.20848  21246066.16148
  -7601044.62906  22648336.93506  -5919520.90647  22648333.43847
  -1075509.62506  24168050.06706   -838987.47546  24168047.00146
    396278.71907  21804940.77807    309753.63548  21804935.81748
  -4914855.80506  23604966.19206  -3827937.85147  23604964.43147
   8395343.59806  23159866.38806   6582473.43047  23159863.72047
 08 11 15  0 32  0.0010000  0  9  3  6 13 16 19 21 23 25 31
  -6090685.87107  20455003.96607  -4798788.76648  20455002.75148
  -2725315.57407  20561165.02807  -2120234.36648  20561163.55248
  -4717008.49206  22520772.98906  -3671447.78447  22520769.75547
   4064183.74607  21255087.31007   3182637.46648  21255084.12248
  -7684777.23006  22632403.70006  -5984767.04048  22632400.00548
  -1064910.59806  24170066.82506   -830728.55347  24170064.31347
    431046.11707  21811556.51307    336845.12248  21811551.80248
  -4991004.69106  23590476.10606  -3887274.63547  23590474.46647
   8489438.54706  23177772.60606   6655794.14447  23177770.15747
 08 11 15  0 32 30.0010000  0  9  3  6 13 16 19 21 23 25 31
  -6124878.75807  20448497.31707  -4825432.57548  20448495.96648
  -2725976.62907  20561039.60607  -2120749.49448  20561037.54448
  -4734438.69906  22517455.82506  -3685029.78247  22517452.57147
   4111722.28907  21264132.82507   3219680.47148  21264130.96248
  -7768232.76206  22616522.13006  -6049797.31548  22616518.66148
  -1053869.57806  24172168.04406   -822125.17646  24172165.27846
    466382.17206  21818280.39606    364379.71248  21818276.16148
  -5067057.17606  23576003.11406  -3946536.30147  23576001.59147
   8583774.62106  23195723.84106   6729302.71247  23195721.66547
 08 11 15  0 33  0.0010000  0  9  3  6 13 16 19 21 23 25 31
  -6158565.38307  20442087.18507  -4851681.88048  20442084.73948
  -2726149.24607  20561006.87207  -2120883.97948  20561005.04848
  -4751273.63706  22514252.16106  -3698147.91047  22514249.09547
   4159427.59807  21273211.14607   3256853.43648  21273208.36448
  -7851392.69506  22600697.59106  -6114597.21148  22600694.16548
  -1042369.76206  24174356.04406   -813164.32847  24174353.64647
    502301.47707  21825115.83307    392368.76448  21825111.77148
  -5142994.89106  23561552.54406  -4005708.53947  23561550.54847
   8678367.84006  23213724.85606   6803011.70147  23213722.86047
 08 11 15  0 33 30.0010000  0  9  3  6 13 16 19 21 23 25 31
  -6191751.47707  20435771.74707  -4877541.18448  20435769.84148
  -2725840.34007  20561065.36407  -2120643.28148  20561063.63048
  -4767518.47706  22511160.52806  -3710806.22347  22511158.61047
   4207292.82007  21282319.66907   3294151.01548  21282316.66548
  -7934261.30906  22584928.04406  -6179170.13447  22584923.77147
  -1030416.64805  24176630.72405   -803850.21647  24176629.13447
    538796.91407  21832060.42707    420806.74848  21832056.13048
  -5218822.00406  23547123.47406  -4064794.59447  23547121.74347
   8773210.55106  23231771.95006   6876915.07247  23231770.31047
 08 11 15  0 34  0.0010000  0  9  3  6 13 16 19 21 23 25 31
  -6224430.72707  20429553.74707  -4903005.53548  20429551.97048
  -2725045.11707  20561216.62207  -2120023.63048  20561214.90748
  -4783166.99606  22508182.47406  -3722999.89547  22508180.90347
   4255322.49607  21291459.98107   3331576.71048  21291456.84548
  -8016831.52306  22569215.63806  -6243510.55448  22569212.08348
  -1018005.04706  24178992.99706   -794178.79647  24178989.76747
    575871.98007  21839115.69207    449696.38248  21839112.43148
  -5294531.52306  23532716.80206  -4123789.02747  23532714.95847
   8868306.80506  23249868.71606   6951016.02247  23249865.79847
 08 11 15  0 34 30.0010000  0  9  3  6 13 16 19 21 23 25 31
  -6256609.77707  20423429.82507  -4928080.11648  20423428.09548
  -2723771.28507  20561459.16907  -2119031.02348  20561457.65748
  -4798225.78906  22505317.13806  -3734734.01247  22505315.83747
   4303508.93407  21300629.23907   3369124.58248  21300626.38048
  -8099108.42606  22553558.41106  -6307622.37748  22553555.32548
  -1005141.21906  24181440.99706   -784155.06847  24181437.55247
    613518.37907  21846280.38807    479031.22348  21846275.87648
  -5370128.60906  23518330.09906  -4182695.84647  23518328.85347
   8963648.52306  23268011.71606   7025308.24947  23268010.24347
 08 11 15  0 35  0.0010000  0  9  3  6 13 16 19 21 23 25 31
  -6288317.94507  20417395.27807  -4952787.77348  20417394.41148
  -2722048.63707  20561786.98907  -2117688.68348  20561785.43548
  -4812723.44506  22502558.43506  -3746030.91447  22502556.55647
   4351821.95307  21309822.38807   3406771.09748  21309820.25148
  -8181119.52707  22537952.42707  -6371527.12148  22537948.94248
   -991853.51606  24183969.12206   -773800.99147  24183966.73947
    651705.10207  21853546.26307    508787.12548  21853541.95848
  -5445640.57806  23503961.18506  -4241536.32547  23503959.11447
   9059205.24606  23286195.50506   7099768.01347  23286194.09547
 08 11 15  0 35 30.0010000  0  9  3  6 13 16 19 21 23 25 31
  -6319507.55507  20411460.59107  -4977091.36248  20411459.50148
  -2719830.42207  20562209.11407  -2115960.20348  20562207.06748
  -4826612.01206  22499915.75506  -3756853.19047  22499913.78647
   4400308.64107  21319049.77107   3444552.90748  21319046.46648
  -8262815.68406  22522406.09106  -6435186.46348  22522402.24748
   -978094.39106  24186587.15306   -763079.64946  24186584.96646
    690478.02306  21860924.09106    538999.77148  21860920.25148
  -5521018.04306  23489617.39606  -4300271.99947  23489615.73547
   9155023.42606  23304428.59906   7174431.48747  23304427.08747
 08 11 15  0 36  0.0010000  0  9  3  6 13 16 19 21 23 25 31
  -6350163.23007  20405627.18507  -5000978.90848  20405625.72048
  -2717103.11707  20562728.02107  -2113835.03748  20562725.64648
  -4839876.49606  22497391.22406  -3767189.14147  22497389.91947
   4448982.39107  21328312.06707   3482480.51048  21328308.91548
  -8344180.76606  22506922.97406  -6498587.83548  22506919.59548
   -963849.64506  24189297.71606   -751979.83447  24189294.56047
    729849.96907  21868417.14607    569679.19748  21868412.66148
  -5596245.09406  23475302.09906  -4358890.46647  23475300.52147
   9251115.96506  23322714.27806   7249308.75347  23322713.29447
 08 11 15  0 36 30.0010000  0  9  3  6 13 16 19 21 23 25 31
  -6380324.93807  20399887.68507  -5024481.54148  20399886.05248
  -2713907.63307  20563335.85607  -2111345.05048  20563334.15348
  -4852556.62106  22494978.57506  -3777069.76647  22494976.67347
   4497802.36707  21337602.11407   3520522.05948  21337599.05648
  -8425253.19506  22491495.25506  -6561761.12048  22491491.95048
   -949159.05506  24192093.27106   -740532.60147  24192090.31347
    769778.36307  21876015.54407    600792.23448  21876010.61848
  -5671359.92606  23461008.40306  -4417421.49547  23461006.51747
   9347441.18006  23341044.87206   7324367.34347  23341043.10647
 08 11 15  0 37  0.0010000  0  9  3  6 13 16 19 21 23 25 31
  -6410002.44907  20394240.09107  -5047606.88348  20394238.25548
  -2710254.17207  20564031.04407  -2108498.19748  20564029.49748
  -4864661.16406  22492675.22406  -3786501.86847  22492673.41547
   4546758.38707  21346918.07507   3558669.59848  21346915.34148
  -8506040.65206  22476122.16106  -6624712.38448  22476117.58348
   -934031.58606  24194972.73906   -728744.96847  24194969.33347
    810252.54307  21883717.09907    632330.54548  21883712.87248
  -5746370.23406  23446734.44206  -4475871.08147  23446732.89647
   9443988.50406  23359416.90306   7399598.97348  23359416.00548
 08 11 15  0 37 30.0010000  0  9  3  6 13 16 19 21 23 25 31
  -6439177.73807  20388688.35607  -5070340.87748  20388686.23548
  -2706126.12507  20564816.70807  -2105281.53648  20564815.00948
  -4876172.35906  22490484.71606  -3795471.62447  22490482.72047
   4595867.09807  21356263.24707   3596936.10248  21356259.49748
  -8586523.90606  22460806.48906  -6687426.58748  22460802.05648
   -918449.81306  24197937.42706   -716603.32147  24197934.52147
    851288.22307  21891525.91107    664306.37548  21891522.13848
  -5821256.66006  23432484.35606  -4534224.12447  23432481.73947
   9540774.17606  23377834.81706   7475016.33647  23377833.22447
 08 11 15  0 38  0.0010000  0  9  3  6 13 16 19 21 23 25 31
  -6467841.71507  20383233.69207  -5092676.44648  20383232.15348
  -2701515.56607  20565694.31007  -2101688.88948  20565692.83748
  -4887081.07006  22488408.79406  -3803971.94247  22488406.73547
   4645136.36707  21365638.70807   3635327.72748  21365635.19648
  -8666692.59806  22445550.96606  -6749895.67648  22445547.17748
   -902404.66806  24200990.76306   -704100.58847  24200988.34547
    892892.35207  21899443.09107    696725.15048  21899438.70048
  -5896008.69106  23418259.27806  -4592472.45847  23418256.69247
   9637805.68807  23396299.90307   7550625.28347  23396298.13847
 08 11 15  0 38 30.0010000  0  9  3  6 13 16 19 21 23 25 31
  -6496010.09007  20377873.55207  -5114625.83748  20377872.34148
  -2696439.30507  20566660.06707  -2097733.35948  20566658.41948
  -4897402.98406  22486444.83306  -3812014.99647  22486442.59947
   4694549.52707  21375041.44207   3673831.48648  21375039.10648
  -8746561.12106  22430352.80206  -6812130.90448  22430348.56348
   -885911.83206  24204129.95806   -691249.04747  24204127.35647
    935047.15607  21907465.16907    729573.04448  21907460.31048
  -5970640.52306  23404057.27806  -4650627.14947  23404055.27847
   9735065.52006  23414807.76306   7626412.15147  23414806.34947
 08 11 15  0 39  0.0010000  0  9  3  6 13 16 19 21 23 25 31
  -6523686.60907  20372606.83307  -5136191.93948  20372605.03648
  -2690902.08607  20567713.70807  -2093418.63648  20567712.09948
  -4907141.42206  22484591.25506  -3819603.36947  22484588.74747
   4744101.64807  21384470.90307   3712443.51648  21384468.58348
  -8826131.71907  22415211.10607  -6874133.93848  22415207.09148
   -868975.60906  24207352.48906   -678051.95447  24207349.91547
    977746.43807  21915590.66107    762845.18448  21915586.07548
  -6045154.28106  23389877.58306  -4708689.79047  23389876.19647
   9832548.39106  23433357.62206   7702372.80848  23433356.59148
 08 11 15  0 39 30.0010000  0  9  3  6 13 16 19 21 23 25 31
  -6550850.49607  20367437.93507  -5157358.60948  20367436.20048
  -2684884.32807  20568858.98107  -2088729.46848  20568857.19648
  -4916275.59006  22482853.59906  -3826720.91047  22482850.91547
   4793813.04307  21393931.18507   3751179.65948  21393927.94248
  -8905382.35506  22400130.07506  -6935887.66148  22400126.12648
   -851574.85906  24210663.07506   -664492.90146  24210660.32146
   1021009.12907  21923823.06707    796556.34648  21923818.91148
  -6119527.48006  23375724.83306  -4766642.90947  23375723.31747
   9930273.65206  23451954.55206   7778522.31148  23451953.56348
 08 11 15  0 40  0.0010000  0  9  3  6 13 16 19 21 23 25 31
  -6577508.41807  20362364.81007  -5178131.00448  20362363.18848
  -2678393.55507  20570094.06007  -2083671.71848  20570092.40348
  -4924811.93006  22481228.49706  -3833372.60647  22481227.15747
   4843675.93407  21403419.75507   3790033.85348  21403417.11848
  -8984317.88307  22385108.98907  -6997395.85348  22385105.37248
   -833716.47706  24214061.84906   -650577.31447  24214059.16147
   1064826.57807  21932161.04407    830699.81048  21932156.68548
  -6193765.06606  23361597.27806  -4824490.36847  23361595.79847
  10028233.13706  23470595.66106   7854854.34547  23470593.56347
 08 11 15  0 40 30.0010000  0  9  3  6 13 16 19 21 23 25 31
  -6603652.92607  20357389.61407  -5198503.36748  20357387.73148
  -2671423.42207  20571420.82507  -2078240.44948  20571418.74748
  -4932742.74206  22479719.66106  -3839552.44947  22479718.11447
   4893697.23807  21412938.56707   3829011.47448  21412935.70448
  -9062929.23006  22370149.30206  -7058651.44148  22370145.61048
   -815392.88306  24217548.25506   -636299.18447  24217545.93547
   1109204.25807  21940605.88007    865279.80448  21940601.73948
  -6267857.70305  23347498.50505  -4882224.89147  23347495.57147
  10126433.10206  23489281.87206   7931373.74247  23489279.75147
 08 11 15  0 41  0.0010000  0  9  3  6 13 16 19 21 23 25 31
  -6629288.42607  20352511.43507  -5218479.06048  20352509.91948
  -2663979.48007  20572837.13807  -2072439.97148  20572835.20048
  -4940072.75807  22478324.80207  -3845264.16747  22478323.16947
   4943871.36707  21422485.98107   3868108.18448  21422482.98148
  -9141219.59006  22355251.57506  -7119656.89948  22355247.10648
   -796608.55906  24221123.48906   -621662.07247  24221119.98147
   1154135.53507  21949156.57507    900291.17048  21949151.83748
  -6341808.43406  23333426.49706  -4939848.79547  23333424.45447
  10224866.94906  23508013.23906   8008075.43347  23508011.27847
 08 11 15  0 41 30.0010000  0  9  3  6 13 16 19 21 23 25 31
  -6654403.31307  20347731.59107  -5238049.08448  20347730.74348
  -2656051.17607  20574345.86407  -2066262.07948  20574343.78648
  -4946789.92607  22477047.18507  -3850498.33047  22477044.78247
   4994208.94907  21432064.81707   3907332.26948  21432062.10648
  -9219176.05106  22340416.81706  -7180402.17848  22340413.20848
   -777352.10506  24224786.94206   -606657.04746  24224783.98146
   1199629.87907  21957813.45007    935741.31948  21957809.12248
  -6415603.72306  23319383.15306  -4997351.60447  23319380.88447
  10323545.33206  23526792.30206   8084967.65247  23526790.94647
 08 11 15  0 42  0.0010000  0  9  3  6 13 16 19 21 23 25 31
  -6679012.45707  20343048.94207  -5257225.02748  20343047.32948
  -2647654.29307  20575943.60607  -2059719.05948  20575941.32948
  -4952909.07806  22475882.41106  -3855266.48247  22475880.37647
   5044694.68807  21441672.10607   3946671.77848  21441669.54048
  -9296811.43406  22325643.73906  -7240897.25648  22325639.97848
   -757638.29305  24228538.54405   -591295.62247  24228536.40747
   1245670.30107  21966574.59907    971616.95048  21966570.79048
  -6489256.60206  23305367.96606  -5054743.46147  23305365.38847
  10422451.67606  23545612.97406   8162037.47547  23545611.25547
 08 11 15  0 42 30.0010000  0  9  3  6 13 16 19 21 23 25 31
  -6703112.65607  20338463.08307  -5276004.40248  20338461.23148
  -2638786.69907  20577631.16907  -2052809.23648  20577629.41948
  -4958426.90607  22474831.79407  -3859566.09947  22474830.21247
   5095330.92207  21451308.25507   3986128.57048  21451305.50148
  -9374121.23406  22310931.34106  -7301138.64148  22310927.37248
   -737464.00806  24232377.22406   -575575.44047  24232375.33347
   1292258.28907  21975439.75507   1007919.26848  21975435.89948
  -6562762.08206  23291379.85606  -5112020.47047  23291377.67347
  10521587.84805  23564477.00505   8239286.41947  23564476.25547
 08 11 15  0 43  0.0010000  0  9  3  6 13 16 19 21 23 25 31
  -6726715.14107  20333971.80207  -5294395.94448  20333969.72048
  -2629460.48807  20579405.86407  -2045542.07548  20579404.89248
  -4963354.20706  22473894.20006  -3863405.56547  22473892.56347
   5146105.64507  21460970.02107   4025693.28548  21460967.02448
  -9451115.18407  22296279.92707  -7361133.89848  22296276.53248
   -716840.53905  24236302.05205   -559505.23447  24236299.68847
   1339380.45307  21984406.45007   1044637.82748  21984402.36048
  -6636129.31606  23277418.82506  -5169189.73747  23277417.07547
  10620941.33206  23583384.32506   8316704.66647  23583383.54447
 08 11 15  0 43 30.0010000  0  9  3  6 13 16 19 21 23 25 31
  -6749813.69907  20329576.40307  -5312394.81948  20329574.25548
  -2619670.85207  20581268.62207  -2037913.78148  20581266.56048
  -4967685.20306  22473069.94206  -3866780.35847  22473067.93147
   5197024.19107  21470659.51307   4065370.07948  21470656.31748
  -9527785.67207  22281690.60607  -7420877.12948  22281687.05648
   -695762.02006  24240313.62206   -543080.38746  24240310.55646
   1387040.53107  21993476.11407   1081775.55548  21993472.63448
  -6709350.66806  23263484.53606  -5226245.31347  23263483.06047
  10720516.44506  23602332.77806   8394295.63147  23602331.33347
 08 11 15  0 44  0.0010000  0  9  3  6 13 16 19 21 23 25 31
  -6772402.52007  20325277.98907  -5329996.48948  20325276.00948
  -2609412.74207  20583220.73107  -2029920.44648  20583219.34948
  -4971413.66406  22472360.92706  -3869685.66447  22472358.72447
   5248092.06307  21480377.13807   4105163.20948  21480374.58348
  -9604124.97706  22267162.88006  -7480362.27848  22267160.19648
   -674222.45306  24244411.93506   -526296.30546  24244409.35346
   1435242.60507  22002648.92707   1119335.59348  22002645.28248
  -6782418.12506  23249580.98906  -5283180.98047  23249578.71247
  10820318.09006  23621324.27806   8472063.10147  23621323.01747
 08 11 15  0 44 30.0010000  0  9  3  6 13 16 19 21 23 25 31
  -6794482.95707  20321076.02107  -5347202.02448  20321073.97448
  -2598688.57007  20585261.33307  -2021563.94748  20585260.02148
  -4974540.89506  22471765.45006  -3872122.45947  22471764.16947
   5299306.98807  21490123.05207   4145070.92648  21490120.29048
  -9680133.09406  22252698.41906  -7539589.34848  22252695.91548
   -652222.75006  24248598.28606   -509153.67647  24248596.43547
   1483983.16807  22011923.56007   1157315.24948  22011920.04448
  -6855331.19106  23235705.77806  -5339996.38547  23235704.19647
  10920343.16406  23640358.38806   8550004.67747  23640357.34147
 08 11 15  0 45  0.0010000  0  9  3  6 13 16 19 21 23 25 31
  -6816054.77707  20316971.13007  -5364011.23348  20316969.42348
  -2587499.13707  20587390.73107  -2012844.90648  20587389.61448
  -4977066.27306  22471285.04406  -3874090.30047  22471282.91547
   5350668.64806  21499897.23906   4185092.99148  21499893.88848
  -9755808.05907  22238299.09907  -7598556.84348  22238295.50948
   -629762.99606  24252872.68506   -491652.59346  24252869.35646
   1533260.14806  22021300.66106   1195712.88048  22021297.00548
  -6928087.70706  23221860.57506  -5396689.74047  23221859.21247
  11020590.56306  23659435.09106   8628119.47047  23659433.63847
 08 11 15  0 45 30.0010000  0  9  3  6 13 16 19 21 23 25 31
  -6837111.24607  20312963.71607  -5380418.87848  20312961.91548
  -2575838.78907  20589609.49707  -2003758.92048  20589607.98548
  -4978983.63706  22470920.00506  -3875584.39047  22470918.61847
   5402183.11707  21509699.67707   4225234.12648  21509696.93848
  -9831141.77307  22223963.38807  -7657258.43548  22223959.60348
   -606836.93006  24257234.74706   -473788.12446  24257232.29046
   1583078.25407  22030781.06707   1234532.17448  22030777.45448
  -7000679.14106  23208046.99706  -5453254.48947  23208045.53647
  11121065.68005  23678554.51305   8706411.72247  23678553.34147
 08 11 15  0 46  0.0010000  0  9  3  6 13 16 19 21 23 25 31
  -6857659.78107  20309053.74707  -5396430.72248  20309052.21648
  -2563716.03107  20591916.63007  -1994312.60948  20591914.03648
  -4980300.28906  22470669.56006  -3876610.32847  22470667.73147
   5453842.30107  21519530.07507   4265488.02948  21519527.99748
  -9906140.06606  22209691.31706  -7715698.63448  22209688.04848
   -583452.15606  24261685.60606   -455566.22247  24261682.57547
   1633427.78507  22040361.92707   1273765.55348  22040358.27448
  -7073110.93406  23194263.52806  -5509694.83647  23194262.20047
  11221759.50005  23697716.06005   8784874.39347  23697715.07147
 08 11 15  0 46 30.0010000  0  9  3  6 13 16 19 21 23 25 31
  -6877677.19107  20305244.67707  -5412028.71748  20305243.02848
  -2551108.48407  20594315.66907  -1984488.56648  20594313.57948
  -4980992.88307  22470538.16107  -3877150.02147  22470535.86847
   5505668.91807  21529392.59907   4305872.39048  21529389.82548
  -9980777.93406  22195488.02806  -7773858.00048  22195484.61048
   -559584.68406  24266227.48106   -436968.19046  24266223.97446
   1684330.13307  22050048.78607   1313429.69948  22050044.31748
  -7145357.58606  23180515.88806  -5565990.96047  23180514.00947
  11322694.10206  23716923.64606   8863524.67247  23716921.94247
 08 11 15  0 47  0.0010000  0  9  3  6 13 16 19 21 23 25 31
  -6897188.95707  20301531.41907  -5427232.68648  20301529.96248
  -2538042.96507  20596801.84907  -1974307.64648  20596800.18848
  -4981087.44907  22470520.22407  -3877223.72047  22470518.77447
   5557636.84407  21539281.81007   4346366.83948  21539278.92348
 -10055079.86307  22181349.02807  -7831755.59248  22181345.36048
   -535261.05906  24270855.39606   -418014.76047  24270853.34547
   1735757.28507  22059835.35607   1353502.78548  22059830.91148
  -7217443.02306  23166797.79406  -5622161.40347  23166796.09947
  11423842.18805  23736170.98105   8942341.34447  23736170.10647
 08 11 15  0 47 30.0010000  0  9  3  6 13 16 19 21 23 25 31
  -6916182.98807  20297916.72407  -5442033.24048  20297915.73948
  -2524508.32407  20599377.34907  -1963761.16748  20599376.02448
  -4980571.18807  22470618.39607  -3876821.44547  22470617.43147
   5609757.53107  21549200.31007   4386980.36148  21549196.77848
 -10129031.67207  22167276.72407  -7889380.38748  22167273.73948
   -510469.12106  24275573.18506   -398696.35847  24275570.54447
   1787719.12907  22069723.22407   1393992.53348  22069718.50148
  -7289352.87906  23153113.98906  -5678195.05647  23153112.84547
  11525214.66806  23755461.81706   9021332.87647  23755459.84947
 08 11 15  0 48  0.0010000  0  9  3  6 13 16 19 21 23 25 31
  -6934649.18807  20294402.98907  -5456422.46948  20294401.31348
  -2510495.60507  20602044.31707  -1952842.18048  20602042.57548
  -4979433.86706  22470835.13806  -3875935.21647  22470833.86447
   5662040.27707  21559149.13807   4427720.16348  21559145.96248
 -10202622.06306  22153273.14606  -7946723.54648  22153269.18548
   -485198.71106  24280382.84906   -379005.13847  24280380.78647
   1840223.63307  22079714.31007   1434905.10748  22079710.59548
  -7361075.19906  23139465.88006  -5734082.56647  23139464.64947
  11626820.13706  23774796.99706   9100505.95247  23774795.15347
 08 11 15  0 48 30.0010000  0  9  3  6 13 16 19 21 23 25 31
  -6952606.17207  20290985.94207  -5470414.92948  20290984.50548
  -2496023.91407  20604797.71607  -1941565.53948  20604796.42748
  -4977694.60906  22471165.17706  -3874579.96547  22471163.33347
   5714466.62907  21569125.84107   4468571.83948  21569123.09948
 -10275867.59406  22139334.77806  -8003797.98648  22139330.90348
   -459468.19106  24285277.98906   -358955.38346  24285276.45046
   1893250.61707  22089804.88807   1476224.81948  22089800.89948
  -7432626.16806  23125850.55206  -5789836.56947  23125848.54847
  11728639.19905  23794171.76305   9179845.42947  23794171.81347
 08 11 15  0 49  0.0010000  0  9  3  6 13 16 19 21 23 25 31
  -6970050.70707  20287666.88807  -5484008.08048  20287664.91548
  -2481091.22707  20607639.55207  -1929929.68348  20607637.95448
  -4975349.78907  22471612.10607  -3872752.83847  22471609.89247
   5767039.35207  21579129.84907   4509537.57848  21579127.85348
 -10348763.38706  22125463.00506  -8060599.89648  22125460.08748
   -433274.49206  24290263.56706   -338544.72646  24290261.14946
   1946801.14507  22099995.41107   1517952.48448  22099991.23548
  -7504000.46506  23112267.66106  -5845452.89647  23112266.97047
  11830673.60905  23813588.31005   9259352.69647  23813587.92747
 08 11 15  0 49 30.0010000  0  9  3  6 13 16 19 21 23 25 31
  -6986991.21107  20284442.55207  -5497208.45348  20284440.95448
  -2465707.13707  20610566.55207  -1917942.06448  20610564.86448
  -4972407.91406  22472171.95806  -3870460.45147  22472169.29847
   5819749.24607  21589160.15307   4550610.21048  21589158.23148
 -10421316.36306  22111657.04406  -8117134.65648  22111652.94648
   -406626.38706  24295334.25506   -317779.94247  24295331.40747
   2000864.09007  22110283.27807   1560079.46748  22110279.41148
  -7575204.48405  23098718.15305  -5900936.49347  23098716.61447
  11932913.40205  23833044.70805   9339020.02147  23833043.54447
 08 11 15  0 50  0.0010000  0  9  3  6 13 16 19 21 23 25 31
  -7003401.19507  20281320.41107  -5509995.45448  20281318.14648
  -2449846.16807  20613584.98907  -1905582.87148  20613583.64948
  -4968842.79306  22472850.43506  -3867682.44447  22472848.08347
   5872622.49606  21599222.06006   4591810.12748  21599219.97048
 -10493498.51206  22097920.73906  -8173380.48148  22097917.43548
   -379497.02005  24300496.32505   -296640.16047  24300494.41147
   2055463.82406  22120672.97406   1602624.70148  22120668.97048
  -7646209.64107  23085207.02107  -5956265.17947  23085204.24347
  12035383.69905  23852543.74705   9418866.95047  23852542.78247
 08 11 15  0 50 30.0010000  0  9  3  6 13 16 19 21 23 25 31
  -7019310.78907  20278292.92707  -5522392.54548  20278290.81048
  -2433538.84807  20616688.34907  -1892875.87948  20616686.78248
  -4964683.95706  22473641.09106  -3864441.84047  22473639.66547
   5925629.36307  21609308.45807   4633114.16848  21609306.58748
 -10565337.55506  22084250.03606  -8229358.92648  22084247.03648
   -351916.73006  24305745.13006   -275149.02146  24305742.52846
   2110568.79707  22131159.56707   1645563.62148  22131154.99348
  -7717043.28506  23071727.27806  -6011460.23647  23071725.76747
  12138053.56306  23872081.62206   9498869.40147  23872079.62247
 08 11 15  0 51  0.0010000  0  9  3  6 13 16 19 21 23 25 31
  -7034710.29707  20275362.35607  -5534392.17248  20275360.17348
  -2416776.96907  20619878.06707  -1879814.68448  20619876.61848
  -4959922.49206  22474547.23906  -3860731.63347  22474545.56047
   5978778.50407  21619422.65307   4674529.08648  21619420.32548
 -10636822.85506  22070647.53606  -8285061.74348  22070643.66148
   -323876.10206  24311081.20006   -253299.16747  24311078.43147
   2166186.01207  22141742.61407   1688901.68148  22141738.79848
  -7787694.11706  23058283.40306  -6066512.81948  23058281.26348
  12240930.99606  23891658.41106   9579033.59647  23891656.89947
 08 11 15  0 51 30.0010000  0 10  3  6  7 13 16 19 21 23 25 31
  -7049602.99207  20272528.27107  -5545996.85348  20272526.41948
  -2399564.62907  20623153.56707  -1866402.46148  20623151.89248
    -92810.83314  24524905.24704    -69464.97156  24524904.05246
  -4954561.20706  22475567.27106  -3856554.01547  22475565.97047
   6032066.10207  21629563.03607   4716051.84648  21629561.01748
 -10707956.02706  22057111.48106  -8340490.16948  22057107.61848
   -295378.18406  24316503.34906   -231093.04046  24316501.75946
   2222310.39807  22152422.65307   1732634.97148  22152419.52148
  -7858162.91006  23044873.95806  -6121423.56847  23044871.02847
  12344011.56605  23911273.58305   9659356.04747  23911273.24747
 08 11 15  0 52  0.0010000  0 10  3  6  7 13 16 19 21 23 25 31
  -7063990.02007  20269790.58307  -5557207.51848  20269788.75948
  -2381904.17206  20626513.98906  -1852641.07148  20626512.51348
   -184364.13305  24507484.45805   -140805.16646  24507482.25946
  -4948601.63306  22476701.63806  -3851910.21347  22476700.00147
   6085490.64507  21639729.35607   4757681.34648  21639726.40348
 -10778736.46106  22043642.28606  -8395643.75048  22043638.55648
   -266424.65606  24322014.07506   -208531.83047  24322011.31047
   2278937.93006  22163198.63806   1776760.30047  22163195.27447
  -7928448.87906  23031498.39606  -6176191.85547  23031496.01347
  12447292.69106  23930927.56706   9739834.80447  23930926.66947
 08 11 15  0 52 30.0010000  0 10  3  6  7 13 16 19 21 23 25 31
  -7077868.06607  20267149.59907  -5568021.57848  20267147.73548
  -2363793.19506  20629960.35606  -1838528.60248  20629958.69248
   -275876.78504  24490069.66904   -212113.75446  24490067.06046
  -4942040.72706  22477950.25506  -3846797.80547  22477948.06047
   6139055.36707  21649922.30207   4799420.08048  21649919.16148
 -10849159.19906  22030241.04406  -8450518.57448  22030237.02448
   -237012.03106  24327610.87206   -185612.89347  24327608.23947
   2336070.02307  22174070.86407   1821278.80347  22174067.39647
  -7998546.30506  23018159.45006  -6230813.22647  23018157.16147
  12550776.45706  23950619.98106   9820471.43947  23950618.61447
 08 11 15  0 53  0.0010000  0 10  3  6  7 13 16 19 21 23 25 31
  -7091226.82807  20264607.44207  -5578431.00548  20264605.85348
  -2345221.87907  20633494.52807  -1824057.45148  20633493.01748
   -367336.01204  24472665.84904   -283380.59346  24472662.96246
  -4934867.70307  22479315.67707  -3841208.43248  22479313.58748
   6192770.66407  21660143.73907   4841276.15148  21660141.56348
 -10919211.77707  22016910.32507  -8505104.98448  22016906.85348
   -207129.69906  24333297.42706   -162327.96146  24333294.38446
   2393715.28907  22185040.51307   1866197.17147  22185036.46647
  -8068442.08206  23004857.95806  -6285277.43847  23004856.21247
  12654472.40606  23970352.79406   9901273.40247  23970351.62247
 08 11 15  0 53 30.0010000  0 10  3  6  7 13 16 19 21 23 25 31
  -7104072.40607  20262162.76307  -5588440.53348  20262161.62648
  -2326197.52706  20637114.63806  -1809233.28248  20637112.94648
   -458745.99205  24455271.41905   -354609.19946  24455269.16946
  -4927089.00807  22480795.48907  -3835147.10848  22480793.78248
   6246630.30507  21670393.35607   4883244.67248  21670390.92748
 -10988898.96906  22003649.51306  -8559406.66948  22003645.73948
   -176783.84006  24339071.03606   -138681.80547  24339069.32147
   2451865.46107  22196106.24707   1911508.99947  22196101.25947
  -8138140.26606  22991595.09906  -6339587.72647  22991593.58347
  12758372.95306  23990124.60606   9982234.84447  23990123.02447
 08 11 15  0 54  0.0010000  0 10  3  6  7 13 16 19 21 23 25 31
  -7116408.78507  20259815.39607  -5598053.30448  20259813.96648
  -2306724.89807  20640820.31707  -1794059.81148  20640819.06048
   -550107.93006  24437885.96606   -425800.31246  24437883.32146
  -4918708.71106  22482390.40306  -3828617.04847  22482388.56747
   6300630.14807  21680669.35607   4925322.46648  21680666.76348
 -11058222.78106  21990457.52806  -8613425.21248  21990453.79448
   -145978.08606  24344933.84906   -114677.34747  24344931.02447
   2510514.41007  22207266.63807   1957209.46247  22207262.13447
  -8207642.23406  22978369.41106  -6393745.09247  22978368.11047
  12862473.26606  24009934.23106  10063351.89647  24009933.21647
 08 11 15  0 54 30.0010000  0 10  3  6  7 13 16 19 21 23 25 31
  -7128239.80107  20257564.06007  -5607272.25848  20257562.75548
  -2286809.24206  20644610.23106  -1778541.10248  20644608.86048
   -641424.11306  24420509.29406   -496955.77746  24420506.38846
  -4909730.92206  22484098.96606  -3821621.36747  22484096.54047
   6354765.76607  21690970.76307   4967506.05248  21690968.54448
 -11127185.70306  21977334.09106  -8667162.49148  21977331.00948
   -114717.80506  24350882.44206    -90318.71547  24350879.68147
   2569655.74207  22218520.63007   2003293.60148  22218516.79448
  -8276949.96106  22965180.82506  -6447751.09048  22965179.37248
  12966767.66006  24029780.67706  10144620.21647  24029779.43847
 08 11 15  0 55  0.0010000  0 10  3  6  7 13 16 19 21 23 25 31
  -7139579.43407  20255406.06007  -5616108.32748  20255404.87248
  -2266465.51207  20648481.39607  -1762688.83748  20648479.97448
   -732706.28505  24403138.01305   -568084.77847  24403135.86847
  -4900169.58606  22485918.31006  -3814170.97747  22485916.27447
   6409022.73407  21701295.79407   5009784.21248  21701293.39948
 -11195800.16406  21964277.48106  -8720628.29548  21964273.63448
    -83016.77006  24356914.62206    -65616.59447  24356912.21647
   2629273.26607  22229865.68507   2049748.79348  22229861.39648
  -8346074.94106  22952026.91906  -6501614.70847  22952025.42747
  13071241.21106  24049661.74706  10226028.11647  24049659.20047
 08 11 15  0 55 30.0010000  0 10  3  6  7 13 16 19 21 23 25 31
  -7150410.14507  20253345.16107  -5624547.83248  20253343.31348
  -2245676.69507  20652437.49707  -1746489.76648  20652435.94248
   -823934.38706  24385778.46606   -639171.53647  24385776.68147
  -4890007.03907  22487852.29407  -3806252.11147  22487850.16547
   6463418.77007  21711646.38007   5052170.70848  21711644.22448
 -11264046.48806  21951290.48906  -8773807.23848  21951286.36848
    -50856.50006  24363034.78606    -40556.60147  24363031.52147
   2689382.75807  22241304.13007   2096587.33848  22241300.72848
  -8414997.07406  22938911.77806  -6555320.27147  22938909.32547
  13175910.16006  24069579.31706  10307588.30947  24069577.12247
 08 11 15  0 56  0.0010000  0 10  3  6  7 13 16 19 21 23 25 31
  -7160738.98007  20251379.84907  -5632596.26648  20251377.69248
  -2224450.67607  20656476.59907  -1729950.01848  20656475.11048
   -915112.77306  24368427.89606   -710219.60447  24368425.47047
  -4879250.56606  22489899.00506  -3797870.46547  22489896.85347
   6517947.39807  21722023.06707   5094660.52648  21722020.18548
 -11331929.87506  21938372.72406  -8826703.36248  21938368.96648
    -18244.30906  24369241.07506    -15144.45647  24369237.83347
   2749975.02707  22252834.39607   2143802.06948  22252830.42348
  -8483720.62106  22925833.54406  -6608871.08947  22925832.35347
  13280766.75806  24089532.76306  10389294.69147  24089532.48547
 08 11 15  0 56 30.0010000  0 10  3  6  7 13 16 19 21 23 25 31
  -7170560.39806  20249510.74706  -5640249.31648  20249508.50548
  -2202783.30906  20660599.70006  -1713066.33748  20660598.00548
  -1006234.46106  24351087.72406   -781223.54547  24351086.08347
  -4867895.40206  22492059.99706  -3789022.29947  22492057.67347
   6572613.24207  21732425.90307   5137257.26848  21732423.20448
 -11399443.52306  21925525.20806  -8879311.38248  21925521.18848
     14824.68806  24375533.96606     10623.57747  24375530.34147
   2811053.00807  22264456.96607   2191395.27548  22264453.13048
  -8552238.18806  22912795.01306  -6662261.36147  22912793.38447
  13385814.73806  24109522.66906  10471150.17047  24109523.04447
 08 11 15  0 57  0.0010000  0 10  3  6  7 13 16 19 21 23 25 31
  -7179875.42607  20247738.17707  -5647507.77048  20247736.50148
  -2180676.37907  20664806.59907  -1695840.16248  20664804.64948
  -1097297.53106  24333759.12206   -852181.78147  24333757.72047
  -4855942.28506  22494334.51306  -3779708.19047  22494333.17747
   6627415.29307  21742854.30207   5179960.13348  21742851.61048
 -11466586.56606  21912748.06706  -8931630.62248  21912744.17748
     48349.71506  24381912.96606     36746.99146  24381910.32946
   2872613.80507  22276171.73107   2239364.70748  22276168.66148
  -8620548.12106  22899796.45006  -6715489.89447  22899794.20847
  13491052.14806  24129548.95006  10553153.28947  24129548.38047
 08 11 15  0 57 30.0010000  0 10  3  6  7 13 16 19 21 23 25 31
  -7188676.94907  20246063.13807  -5654366.09848  20246061.70848
  -2158123.53506  20669097.69206  -1678266.52548  20669096.29448
  -1188292.52306  24316442.98106   -923086.90647  24316440.95447
  -4843384.01206  22496724.01306  -3769922.53347  22496721.86047
   6682360.82007  21753309.95007   5222774.83048  21753307.70448
 -11533350.10906  21900043.28606  -8983654.13348  21900040.09948
     82337.75005  24388380.56005     63231.19646  24388378.02846
   2934662.36707  22287979.17707   2287714.20648  22287975.40748
  -8688640.68006  22886838.22406  -6768549.04347  22886836.50147
  13596485.04706  24149611.95006  10635308.75447  24149611.97447
 08 11 15  0 58  0.0010000  0 10  3  6  7 13 16 19 21 23 25 31
  -7196961.82807  20244486.76307  -5660821.84748  20244484.48948
  -2135122.59007  20673474.95007  -1660343.72148  20673473.12648
  -1279213.97306  24299141.60606   -993934.73047  24299139.25947
  -4830217.84006  22499229.75506  -3759663.20447  22499227.37647
   6737453.05507  21763793.72407   5265703.82048  21763790.77148
 -11599729.17606  21887411.95006  -9035378.07148  21887408.60348
    116791.81306  24394937.66106     90078.52247  24394935.21247
   2997199.73407  22299879.24707   2336444.60447  22299875.61847
  -8756510.18006  22873922.89606  -6821434.33747  22873921.92747
  13702115.58606  24169713.02106  10717618.21247  24169711.65747
 08 11 15  0 58 30.0010000  0 10  3  6  7 13 16 19 21 23 25 31
  -7204745.59007  20243005.75507  -5666887.13048  20243004.08348
  -2111689.72706  20677934.23106  -1642084.36748  20677931.77848
  -1370074.47305  24281850.76305  -1064735.08747  24281849.21247
  -4816459.82406  22501847.81706  -3748942.69347  22501846.02147
   6792676.53106  21774302.25506   5308735.09548  21774299.83348
 -11665737.33206  21874851.06006  -9086812.99748  21874847.17748
    151696.84806  24401579.53606    117277.25046  24401577.18546
   3060208.21107  22311870.26307   2385542.09648  22311865.39948
  -8824169.41006  22861048.48106  -6874155.83148  22861046.80248
  13807927.39506  24189849.12206  10800068.90947  24189845.98147
 08 11 15  0 59  0.0010000  0 10  3  6  7 13 16 19 21 23 25 31
  -7212014.34407  20241622.23107  -5672551.09048  20241620.36448
  -2087812.21906  20682478.02806  -1623478.50948  20682476.44248
  -1460857.91805  24264575.70005  -1135475.44347  24264573.31047
  -4802095.71507  22504581.36407  -3737749.88347  22504578.80647
   6848044.90606  21784838.73106   5351879.23348  21784835.77848
 -11731359.40206  21862363.62206  -9137947.03748  21862359.66948
    187065.83206  24408310.02106    144837.55046  24408307.59946
   3123699.60907  22323951.85607   2435015.90848  22323947.72448
  -8891602.07405  22848216.21605  -6926700.75647  22848214.32947
  13913932.65206  24210020.99706  10882670.35847  24210019.71247
 08 11 15  0 59 30.0010000  0 10  3  6  7 13 16 19 21 23 25 31
  -7218780.28507  20240334.73107  -5677823.25148  20240333.04448
  -2063503.45706  20687103.63006  -1604536.62548  20687102.63848
  -1551574.42205  24247311.88805  -1206163.56847  24247311.13047
  -4787138.41406  22507427.14606  -3726094.86548  22507425.63848
   6903545.87106  21795400.02106   5395126.72248  21795397.54448
 -11796605.61706  21849947.90306  -9188788.25848  21849943.97048
    222886.82806  24415126.84106    172750.00047  24415123.23147
   3187659.14507  22336123.22407   2484854.46848  22336119.44248
  -8958818.09006  22835425.84906  -6979076.87748  22835424.32548
  14020118.14106  24230227.82506  10965412.26847  24230226.08347
 08 11 15  1  0  0.0010000  0 10  3  6  7 13 16 19 21 23 25 31
  -7225031.93807  20239145.04407  -5682694.67548  20239143.53648
  -2038752.52306  20691813.99706  -1585250.17748  20691812.35348
  -1642209.79305  24230064.56705  -1276788.51247  24230063.34947
  -4771576.62506  22510388.67706  -3713968.78647  22510386.47047
   6959191.34006  21805989.27106   5438486.82348  21805985.99748
 -11861462.78106  21837605.50506  -9239326.29848  21837602.14948
    259171.12906  24422031.37206    201023.49447  24422028.52847
   3252096.38707  22348385.37207   2535065.29748  22348380.50548
  -9025803.16806  22822679.33306  -7031273.03248  22822676.90348
  14126494.27706  24250469.71606  11048302.68546  24250469.38846
 08 11 15  1  0 30.0010000  0 10  3  6  7 13 16 19 21 23 25 31
  -7230773.62507  20238052.46607  -5687168.70948  20238051.15348
  -2013564.61707  20696606.69207  -1565623.23248  20696604.84948
  -1732765.72705  24212832.86405  -1347351.55547  24212831.41947
  -4755414.58606  22513463.99706  -3701375.01247  22513461.91947
   7014977.02007  21816604.84907   5481956.16848  21816602.19248
 -11925933.34406  21825337.59106  -9289563.07248  21825333.99748
    295914.95706  24429023.77806    229655.05747  24429020.85347
   3317004.83207  22360737.34107   2585643.27848  22360733.40348
  -9092558.94906  22809975.79406  -7083290.54348  22809974.05248
  14233056.25006  24270748.38006  11131337.94147  24270748.25947
 08 11 15  1  1  0.0010000  0 10  3  6  7 13 16 19 21 23 25 31
  -7235995.39107  20237058.73107  -5691237.61948  20237056.98548
  -1987930.34006  20701484.77106  -1545648.46948  20701482.70448
  -1823229.32805  24195618.30205  -1417842.68746  24195616.06746
  -4738642.26207  22516656.20007  -3688305.69847  22516654.33747
   7070913.25806  21827248.72406   5525542.82648  21827246.90748
 -11990005.45706  21813144.96606  -9339489.39548  21813140.77448
    333127.56306  24436105.42706    258651.87947  24436101.56347
   3382392.66407  22373179.77807   2636594.81948  22373176.03648
  -9159072.58606  22797318.47406  -7135119.33848  22797316.59148
  14339812.60906  24291063.38806  11214524.58246  24291063.21246
 08 11 15  1  1 30.0010000  0 10  3  6  7 13 16 19 21 23 25 31
  -7240709.08607  20236162.10607  -5694910.62748  20236159.73548
  -1961862.74207  20706445.54407  -1525336.06548  20706442.89648
  -1913610.31305  24178418.98105  -1488269.41346  24178417.90746
  -4721272.21106  22519961.07506  -3674770.60347  22519959.86447
   7126988.18406  21837919.93506   5569237.55648  21837917.77848
 -12053689.34806  21801026.18506  -9389113.18748  21801022.69248
    370797.27306  24443273.16106    288004.92047  24443269.84547
   3448245.58607  22385710.84107   2687908.73948  22385707.77848
  -9225353.37106  22784705.73906  -7186766.70248  22784703.50148
  14446750.39105  24311413.31705  11297852.66946  24311412.87246
 08 11 15  1  2  0.0010000  0 10  3  6  7 13 16 19 21 23 25 31
  -7244927.97706  20235359.04406  -5698198.06848  20235356.99748
  -1935375.62507  20711485.76307  -1504696.75748  20711483.68848
  -2003918.24606  24161234.50506  -1558639.20246  24161231.03646
  -4703317.80506  22523378.36406  -3660780.15347  22523376.02847
   7183188.89806  21848614.43506   5613030.33148  21848612.08348
 -12116996.16006  21788979.73106  -9438443.16448  21788975.70448
    408910.53906  24450525.09906    317703.53946  24450523.53646
   3514548.39507  22398327.92707   2739573.24448  22398324.33348
  -9291411.65606  22772135.35606  -7238240.67448  22772133.49348
  14553855.46505  24331794.73105  11381311.11446  24331793.27846
 08 11 15  1  2 30.0010000  0 10  3  6  7 13 16 19 21 23 25 31
  -7248640.63307  20234652.40307  -5701091.05448  20234650.35348
  -1908458.85207  20716607.62207  -1483722.64548  20716606.23948
  -2094139.83205  24144065.42705  -1628941.76447  24144064.12647
  -4684768.12106  22526907.87206  -3646325.87147  22526905.73947
   7239526.69906  21859335.27106   5656929.91048  21859332.30248
 -12179913.12506  21777007.10606  -9487469.34448  21777003.04048
    447478.99205  24457864.70805    347756.84946  24457862.91146
   3581310.05107  22411032.54407   2791595.29448  22411028.97048
  -9357233.64106  22759609.22406  -7289530.52648  22759607.22048
  14661138.17905  24352209.79405  11464907.97346  24352208.67746
 08 11 15  1  3  0.0010000  0 10  3  6  7 13 16 19 21 23 25 31
  -7251853.21506  20234041.02106  -5703594.38348  20234039.23148
  -1881119.31306  20721810.34906  -1462419.12348  20721808.84148
  -2184278.88706  24126913.36406  -1699180.00247  24126910.71247
  -4665629.34407  22530550.50507  -3631412.54647  22530547.54447
   7295995.72306  21870081.09906   5700931.73048  21870078.24348
 -12242444.48406  21765107.24706  -9536195.08348  21765103.54448
    486496.22705  24465288.95005    378159.86746  24465287.57946
   3648522.51207  22423822.25507   2843968.61748  22423818.49348
  -9422822.78106  22747128.66106  -7340638.97247  22747125.82947
  14768591.16404  24372657.67704  11548637.50846  24372656.56346
 08 11 15  1  3 30.0010000  0 10  3  6  7 13 16 19 21 23 25 31
  -7254534.66807  20233530.87207  -5705683.80848  20233529.45848
  -1853326.87107  20727099.32507  -1440762.65548  20727097.36448
  -2274301.40606  24109782.02806  -1769327.39847  24109780.48147
  -4645870.96906  22534309.92706  -3616016.39647  22534307.79047
   7352627.09006  21880857.81706   5745060.04748  21880854.06048
 -12304557.53906  21753287.81006  -9584594.84348  21753283.91548
    525993.67605  24472805.32505    408937.07146  24472804.35646
   3716214.16407  22436704.02107   2896715.35248  22436699.45048
  -9488145.23406  22734698.29406  -7391539.55047  22734696.23147
  14876244.43404  24393142.87204  11632523.07045  24393142.64945
 08 11 15  1  4  0.0010000  0 10  3  6  7 13 16 19 21 23 25 31
  -7256709.14807  20233117.20807  -5707378.22948  20233115.29048
  -1825106.47707  20732469.67707  -1418772.74648  20732468.23148
  -2364228.60205  24092670.07505  -1839400.54947  24092667.26347
  -4625517.29306  22538182.79406  -3600156.41147  22538180.83347
   7409397.06306  21891660.95006   5789296.38348  21891658.16148
 -12366274.52706  21741543.70006  -9632686.00448  21741539.30248
    565946.50405  24480408.30205    440069.15346  24480406.82546
   3784359.03107  22449671.58307   2949815.21448  22449667.36448
  -9553222.41406  22722314.23906  -7442249.04747  22722311.49347
  14984072.81605  24413662.10605  11716545.15746  24413661.09146
 08 11 15  1  4 30.0010000  0 10  3  6  7 13 16 19 21 23 25 31
  -7258390.66007  20232797.31007  -5708688.49448  20232795.47448
  -1796472.53507  20737918.36407  -1396460.58348  20737916.72048
  -2454071.66006  24075573.47406  -1909408.11347  24075570.80647
  -4604582.68006  22542166.38806  -3583843.74847  22542164.08347
   7466292.25406  21902487.42706   5833630.29848  21902484.09148
 -12427607.16806  21729871.94206  -9680477.63248  21729868.75148
    606340.56305  24488095.03605    471545.04246  24488093.29846
   3852941.25807  22462722.43507   3003255.90047  22462717.70847
  -9618065.15206  22709975.16106  -7492775.83647  22709973.64647
  15092061.79305  24434211.49705  11800692.30945  24434211.19645
 08 11 15  1  5  0.0010000  0 10  3  6  7 13 16 19 21 23 25 31
  -7259581.16007  20232570.74707  -5709616.15848  20232569.06048
  -1767428.16407  20743445.23907  -1373828.61548  20743443.11448
  -2543829.97305  24058492.95805  -1979349.64347  24058491.16947
  -4583069.32406  22546260.64606  -3567080.10647  22546258.12647
   7523310.66406  21913337.75506   5878060.20348  21913334.79848
 -12488556.11706  21718273.85606  -9727970.29648  21718270.50548
    647174.02006  24495865.54406    503363.27846  24495862.15346
   3921956.36307  22475855.55207   3057033.87548  22475850.91548
  -9682672.94906  22697680.33306  -7543119.57447  22697678.19647
  15200208.18705  24454791.59105  11884962.05146  24454790.85346
 08 11 15  1  5 30.0010000  0 10  3  6  7 13 16 19 21 23 25 31
  -7260254.44907  20232442.61407  -5710140.79748  20232440.44648
  -1737948.49607  20749054.95807  -1350857.44748  20749053.07148
  -2633474.55105  24041433.95805  -2049202.56247  24041432.48147
  -4560951.55906  22550469.26306  -3549845.50447  22550466.86047
   7580478.67206  21924216.71606   5922606.70548  21924213.79048
 -12549093.61706  21706753.87206  -9775142.36148  21706750.07948
    688472.59006  24503724.08306    535544.05146  24503720.77846
   3991428.25807  22489075.36407   3111167.81148  22489070.67348
  -9747017.00806  22685436.44206  -7593257.80948  22685434.36848
  15308536.97705  24475405.88805  11969374.13446  24475404.96246
 08 11 15  1  6  0.0010000  0 10  3  6  7 13 16 19 21 23 25 31
  -7260401.61707  20232414.86407  -5710255.46948  20232413.04448
  -1708024.43407  20754749.02107  -1327540.00848  20754747.85648
  -2722993.30504  24024399.26304  -2118957.39147  24024397.16547
  -4538220.60507  22554795.38807  -3532133.09247  22554792.66947
   7637805.84406  21935125.14606   5967277.20148  21935122.81348
 -12609208.32007  21695314.57507  -9821984.96248  21695310.86448
    730246.16805  24511673.46605    568094.80346  24511668.69646
   4061364.45307  22502384.02107   3165663.51548  22502379.52848
  -9811084.94506  22673244.69206  -7643180.84848  22673242.31348
  15417056.63905  24496056.62205  12053934.74746  24496055.82146
 08 11 15  1  6 30.0010000  0 10  3  6  7 13 16 19 21 23 25 31
  -7260073.60507  20232476.83307  -5709999.88348  20232475.26748
  -1677708.09007  20760518.00507  -1303916.88248  20760516.35348
  -2812434.21505  24007379.59905  -2188651.61147  24007375.98947
  -4514927.82006  22559227.31706  -3513982.89347  22559225.28247
   7695241.94106  21946054.45806   6012032.57348  21946052.37648
 -12668949.60907  21683945.91907  -9868536.61148  21683941.98148
    772443.64806  24519703.50506    600975.96846  24519700.55246
   4131711.43807  22515770.06707   3220479.31547  22515766.04047
  -9874925.18406  22661096.34906  -7692926.49448  22661093.50148
  15525714.98004  24516733.89604  12138603.56345  24516733.90345
 08 11 15  1  7  0.0010000  0 10  3  6  7 13 16 19 21 23 25 31
  -7259231.57807  20232637.07507  -5709343.73948  20232635.73148
  -1646961.41807  20766369.41107  -1279958.44348  20766366.79048
  -2901755.50804  23990381.97404  -2258252.63047  23990379.50547
  -4491034.39507  22563774.59907  -3495364.64347  22563771.88847
   7752826.00006  21957012.85606   6056903.24848  21957009.29048
 -12728276.46507  21672656.56007  -9914765.29148  21672652.76748
    815102.80506  24527821.13806    634216.80546  24527817.27146
   4202505.96107  22529242.24707   3275643.84647  22529237.24347
  -9938495.50806  22648999.36406  -7742461.79348  22648997.21648
  15634550.34805  24537444.54405  12223410.25946  24537445.48546
 08 11 15  1  7 30.0010000  0 10  3  6  7 13 16 19 21 23 25 31
  -7257875.57407  20232894.73907  -5708287.09948  20232893.15748
  -1615785.34407  20772302.06007  -1255665.38748  20772300.14948
  -2990954.59404  23973407.76304  -2327758.36147  23973405.64647
  -4466540.87906  22568434.93506  -3476278.80047  22568433.61847
   7810557.98407  21967999.08307   6101889.19548  21967996.59148
 -12787187.48007  21661445.93507  -9960669.96548  21661441.82948
    858223.91005  24536027.09905    667817.67346  24536024.21246
   4273745.62107  22542798.62207   3331155.27347  22542794.56347
 -10001793.62906  22636954.42706  -7791785.00648  22636951.76348
  15743561.19105  24558188.88805  12308353.64146  24558188.92346
 08 11 15  1  8  0.0010000  0 10  3  6  7 13 16 19 21 23 25 31
  -7256042.16007  20233244.28607  -5706858.44448  20233242.09548
  -1584217.12107  20778309.09907  -1231066.77848  20778307.31348
  -3080064.86304  23956450.89604  -2397194.87947  23956449.00947
  -4441484.18806  22573203.20806  -3456754.14847  22573201.68547
   7868402.26607  21979006.57507   6146962.64848  21979004.78648
 -12845717.33206  21650308.06706 -10006277.63348  21650304.34148
    901770.57806  24544313.52806    701750.19046  24544310.49346
   4345392.37507  22556433.07507   3386983.88047  22556428.84147
 -10064852.87106  22624953.95006  -7840922.06148  22624953.10648
  15852710.58105  24578959.66105  12393405.02846  24578958.74746
 08 11 15  1  8 30.0010000  0 10  3  6  7 13 16 19 21 23 25 31
  -7253720.92207  20233685.86407  -5705049.70248  20233683.46248
  -1552246.93807  20784392.93507  -1206154.95648  20784390.68848
  -3169072.97303  23939512.51303  -2466551.78847  23939511.56047
  -4415854.39806  22578080.33306  -3436782.89947  22578078.47847
   7926369.89107  21990037.11407   6192132.21748  21990035.82148
 -12903853.64106  21639245.24706 -10051578.64148  21639241.36848
    945753.46106  24552683.82506    736022.53946  24552681.79446
   4417454.05906  22570145.53606   3443135.81847  22570141.60347
 -10127659.83206  22613002.30206  -7889862.55348  22613000.04848
  15962008.11705  24599758.80205  12478571.95745  24599756.29845
 08 11 15  1  9  0.0010000  0  9  3  6  7 13 16 19 21 23 25
  -7250888.37907  20234224.86407  -5702842.51248  20234222.37648
  -1519852.21107  20790557.35607  -1180912.29948  20790555.72448
  -3257952.38305  23922599.79405  -2535808.44147  23922596.69247
  -4389628.39106  22583071.02806  -3416347.05747  22583070.18847
   7984484.15207  22001096.51307   6237416.01648  22001093.58348
 -12961571.44106  21628262.01306 -10096553.53148  21628258.32148
    990194.91806  24561140.48906    770652.22947  24561138.33347
   4489951.91406  22583941.70806   3499627.62747  22583937.34547
 -10190188.18806  22601103.47406  -7938585.95248  22601101.22848
 08 11 15  1  9 30.0010000  0  9  3  6  7 13 16 19 21 23 25
  -7247553.43807  20234859.61407  -5700243.88048  20234857.27448
  -1487043.12507  20796800.62207  -1155346.78748  20796799.40748
  -3346709.63305  23905709.79405  -2604969.91447  23905707.62647
  -4362816.05106  22588173.71606  -3395454.36247  22588171.43147
   8042736.78907  22012181.65307   6282807.67948  22012179.39648
 -13018878.01206  21617357.15306 -10141208.01248  21617353.42348
   1035086.33206  24569683.29406    805632.57047  24569681.93547
   4562874.66007  22597818.13807   3556450.52747  22597814.72447
 -10252444.31306  22589256.56006  -7987097.21948  22589255.24348
 08 11 15  1 10  0.0010000  0  9  3  6  7 13 16 19 21 23 25
  -7243738.22707  20235585.41907  -5697270.97648  20235583.30648
  -1453842.05507  20803119.02807  -1129475.81148  20803117.26348
  -3435363.10506  23888839.83306  -2674050.52347  23888837.80647
  -4335439.28106  22593383.34106  -3374121.82547  22593380.90747
   8101106.83207  22023288.54407   6328290.79548  22023286.29448
 -13075793.02007  21606526.24707 -10185557.34748  21606522.78248
   1080405.56306  24578307.48906    840946.24046  24578304.73546
   4636198.52307  22611771.79407   3613585.99047  22611767.90347
 -10314446.82806  22577457.84906  -8035410.85948  22577455.72048
 08 11 15  1 10 30.0010000  0  9  3  6  7 13 16 19 21 23 25
  -7239435.24607  20236404.26307  -5693918.01048  20236402.22848
  -1420241.95706  20809512.35606  -1103293.90448  20809510.89248
  -3523902.04706  23871991.21606  -2743041.93547  23871988.90747
  -4307491.26206  22598701.41106  -3352344.15547  22598699.38447
   8159601.94107  22034419.38807   6373871.37148  22034417.38848
 -13132307.07807  21595772.20807 -10229594.25648  21595768.10648
   1126160.66806  24587014.38006    876599.56046  24587012.83746
   4709929.19506  22625801.40306   3671038.44347  22625797.47047
 -10376185.08206  22565709.66106  -8083518.58348  22565707.46248
 08 11 15  1 11  0.0010000  0  9  3  6  7 13 16 19 21 23 25
  -7234600.37507  20237324.16907  -5690150.58348  20237322.09948
  -1386199.71107  20815990.75507  -1076767.48548  20815988.63848
  -3612279.62906  23855173.33306  -2811907.55447  23855171.12647
  -4278928.13706  22604136.52106  -3330087.16847  22604134.31047
   8218266.91407  22045582.74707   6419584.31948  22045581.55648
 -13188374.33606  21585102.54406 -10273283.01348  21585099.31048
   1172394.96906  24595812.22406    912626.25646  24595810.06046
   4784108.33606  22639917.81006   3728840.34447  22639913.65747
 -10437612.05107  22554020.66907  -8131383.76148  22554018.52448
 08 11 15  1 11 30.0010000  0  9  3  6  7 13 16 19 21 23 25
  -7229246.10507  20238342.71607  -5685978.42748  20238340.83348
  -1351728.34007  20822549.98907  -1049906.67348  20822548.54448
  -3700504.58206  23838384.71606  -2880654.24847  23838382.31047
  -4249762.35206  22609687.24706  -3307360.59847  22609683.93547
   8277090.11307  22056777.32507   6465420.54448  22056774.65748
 -13244005.14807  21574516.34907 -10316631.68348  21574512.95848
   1219097.03906  24604698.77106    949017.48246  24604696.72046
   4858721.87106  22654116.20806   3786980.76247  22654110.87647
 -10498737.05107  22542389.03607  -8179013.61548  22542386.34948
 08 11 15  1 12  0.0010000  0  9  3  6  7 13 16 19 21 23 25
  -7223403.65607  20239454.89607  -5681425.86048  20239453.50948
  -1316860.43007  20829185.50507  -1022736.87248  20829183.96648
  -3788605.90206  23821619.47406  -2949304.64247  23821617.32147
  -4220026.37106  22615345.62206  -3284189.72147  22615343.20447
   8336039.89507  22067995.29407   6511355.44448  22067992.61848
 -13299229.83606  21564007.80206 -10359663.91948  21564003.56048
   1266233.36706  24613668.77106    985747.03946  24613666.42746
   4933735.30106  22668390.77806   3845432.76347  22668386.27147
 -10559588.73006  22530808.84106  -8226430.53048  22530806.84548
 08 11 15  1 12 30.0010000  0  9  3  6  7 13 16 19 21 23 25
  -7217097.52307  20240654.57507  -5676511.99648  20240653.11448
  -1281620.66407  20835891.10607   -995277.32148  20835889.67748
  -3876604.38706  23804873.74706  -3017874.91546  23804870.39246
  -4189744.74606  22621107.50506  -3260593.69047  22621105.39947
   8395093.49606  22079232.57506   6557371.23048  22079230.36048
 -13354070.42206  21553571.37206 -10402396.82948  21553567.69248
   1313780.84006  24622716.83306   1022797.02646  24622714.57946
   5009122.87506  22682736.38006   3904176.30047  22682731.90747
 -10620188.16806  22519277.31706  -8273650.86848  22519276.29448
 08 11 15  1 13  0.0010000  0  9  3  6  7 13 16 19 21 23 25
  -7210273.19907  20241953.51307  -5671194.34748  20241952.02448
  -1245955.29307  20842677.67707   -967486.13748  20842676.95848
  -3964442.35906  23788159.56006  -3086320.10347  23788156.39947
  -4158863.62106  22626984.45806  -3236530.49747  22626982.27447
   8454305.50807  22090500.28607   6603510.41848  22090497.70048
 -13408470.65607  21543220.04407 -10444786.61848  21543215.64248
   1361793.77706  24631853.85606   1060209.70746  24631850.91546
   5084936.66406  22697163.15306   3963251.98847  22697159.52847
 -10680477.85206  22507804.67706  -8320629.84148  22507802.31348
 08 11 15  1 13 30.0010000  0  9  3  6  7 13 16 19 21 23 25
  -7202953.89107  20243346.28607  -5665490.97748  20243344.54048
  -1209888.39807  20849541.70807   -939382.05848  20849539.83348
  -4052140.03906  23771470.16106  -3154655.96547  23771468.64247
  -4127406.72306  22632970.43506  -3212018.63247  22632968.27447
   8513653.52307  22101794.06007   6649755.59048  22101791.61848
 -13462451.95706  21532947.31706 -10486849.97348  21532944.04848
   1410248.88306  24641073.97406   1097966.88547  24641071.98147
   5161151.64806  22711666.42706   4022640.28247  22711663.46247
 -10740477.95306  22496387.19206  -8367383.17048  22496384.48148
 08 11 15  1 14  0.0010000  0  9  3  6  7 13 16 19 21 23 25
  -7195141.49607  20244833.08307  -5659403.41948  20244830.99348
  -1173422.41407  20856480.46607   -910967.01048  20856479.18848
  -4139695.84405  23754808.75505  -3222881.25447  23754806.98547
  -4095376.52006  22639065.84906  -3187060.07347  22639063.96247
   8573136.41807  22113113.12207   6696105.88448  22113110.86848
 -13516014.22706  21522754.95006 -10528586.78948  21522750.72848
   1459143.90606  24650378.25506   1136066.89146  24650375.31746
   5237763.61306  22726245.12206   4082337.85947  22726241.53647
 -10800187.22706  22485024.50506  -8413909.88148  22485022.51348
 08 11 15  1 14 30.0010000  0  9  3  6  7 13 16 19 21 23 25
  -7186829.89507  20246414.91107  -5652926.82548  20246412.55648
  -1136552.25807  20863496.96607   -882236.99848  20863495.38048
  -4227100.96904  23738175.90304  -3290989.05847  23738174.86847
  -4062767.58206  22645271.02106  -3161650.50247  22645269.28247
   8632760.68406  22124459.72406   6742566.30648  22124456.74748
 -13569149.80507  21512642.99707 -10569991.10948  21512639.32948
   1508484.59405  24659767.29405   1174514.13446  24659765.37246
   5314776.09806  22740900.38806   4142347.59547  22740896.32947
 -10859596.54706  22473719.18506  -8460202.84048  22473717.00548
 08 11 15  1 15  0.0010000  0  9  3  6  7 13 16 19 21 23 25
  -7178017.17607  20248091.93507  -5646059.79348  20248089.62648
  -1099276.08607  20870590.27807   -853190.65348  20870588.47048
  -4314349.34005  23721573.73105  -3358974.78847  23721571.48547
  -4029577.94906  22651587.02806  -3135788.47247  22651585.42347
   8692529.72707  22135833.31707   6789139.60948  22135829.84148
 -13621854.46106  21502613.73106 -10611059.67348  21502610.65748
   1558273.68806  24669242.01306   1213310.90646  24669239.33746
   5392190.06606  22755632.07506   4202670.10647  22755628.23547
 -10918700.25406  22462472.52106  -8506257.68648  22462470.32948
 08 11 15  1 15 30.0010000  0  9  3  6  7 13 16 19 21 23 25
  -7168696.67207  20249865.14607  -5638797.07148  20249862.94648
  -1061587.96107  20877762.28607   -823823.27048  20877760.85348
  -4401431.00405  23705002.71605  -3426830.63947  23705000.50947
  -3995801.60506  22658014.04406  -3109469.26247  22658012.89247
   8752450.70307  22147235.58307   6835831.23048  22147233.39948
 -13674119.79707  21492668.20807 -10651785.89748  21492664.33748
   1608517.48805  24678804.01305   1252461.83246  24678800.79846
   5470009.79306  22770440.68506   4263308.87947  22770435.99747
 -10977488.80106  22451284.90306  -8552066.93948  22451283.02848
 08 11 15  1 16  0.0010000  0  9  3  6  7 13 16 19 21 23 25
  -7158873.59807  20251734.77807  -5631142.73748  20251732.85648
  -1023493.99607  20885011.38007   -794139.66948  20885009.82548
  -4488348.03105  23688462.77805  -3494558.16547  23688461.41147
  -3961444.47706  22664552.01306  -3082697.50047  22664550.14247
   8812519.19907  22158666.37207   6882637.81748  22158663.67748
 -13725949.44106  21482805.38806 -10692172.63348  21482801.84548
   1659210.19906  24688450.12206   1291962.61346  24688446.94246
   5548227.98806  22785325.05206   4324258.06847  22785321.11047
 -11035964.24206  22440158.15306  -8597632.21648  22440155.75948
 08 11 15  1 16 30.0020000  0  9  3  6  7 13 16 19 21 23 25
  -7148586.82007  20253692.14307  -5623127.07448  20253689.86948
   -985033.09007  20892329.90807   -764170.14048  20892328.73648
  -4575139.52005  23671946.68205  -3562187.86047  23671945.15047
  -3926545.04306  22671192.71306  -3055503.18847  22671190.89647
   8872698.49607  22170118.41607   6929530.76348  22170115.44348
 -13777382.24206  21473018.26006 -10732250.13148  21473014.35048
   1710314.25006  24698174.77506   1331783.91146  24698171.65846
   5626805.40606  22800277.98606   4385487.21947  22800274.03347
 -11094164.83606  22429082.29906  -8642983.32448  22429080.56148
 08 11 15  1 17  0.0020000  0  9  3  6  7 13 16 19 21 23 25
  -7137805.80507  20255743.73607  -5614726.27648  20255741.73248
   -946176.62106  20899724.08006   -733892.37348  20899722.47948
  -4661764.78905  23655462.58005  -3629688.04647  23655460.72147
  -3891074.96506  22677943.11906  -3027864.15447  22677939.97147
   8933016.64107  22181596.23607   6976531.88348  22181593.82648
 -13828381.64107  21463313.24407 -10771989.92848  21463308.65848
   1761857.87106  24707983.24406   1371947.75246  24707981.69346
   5705766.44106  22815303.84606   4447015.26147  22815299.50247
 -11152051.79306  22418066.65806  -8688090.04248  22418065.06848
 08 11 15  1 17 30.0020000  0  9  3  6  7 13 16 19 21 23 25
  -7126522.07807  20257890.79107  -5605933.75548  20257888.74448
   -906916.22707  20907195.14307   -703299.85548  20907193.56848
  -4748215.10906  23639011.51806  -3697051.92047  23639010.19347
  -3855025.40606  22684803.13506  -2999773.64547  22684800.83047
   8993484.85207  22193103.01807   7023649.96648  22193100.29948
 -13878939.62107  21453692.47107 -10811385.76348  21453689.05748
   1813850.23006  24717877.22106   1412461.26446  24717874.86146
   5785120.07806  22830403.82206   4508849.21947  22830400.60447
 -11209615.92206  22407112.48606  -8732945.20648  22407111.37348
 08 11 15  1 18  0.0020000  0  9  3  6  7 13 16 19 21 23 25
  -7114735.08607  20260133.52507  -5596749.07648  20260131.93248
   -867251.99207  20914742.72907   -672392.65648  20914741.61548
  -4834487.04306  23622594.93206  -3764276.79547  23622592.70147
  -3818396.71906  22691772.78306  -2971231.81647  22691771.42047
   9054104.43807  22204637.97907   7070885.97848  22204635.38148
 -13929053.95706  21444155.83806 -10850435.88448  21444152.33848
   1866292.14106  24727856.99406   1453325.04047  24727853.79547
   5864864.09406  22845579.04106   4570987.42147  22845574.80347
 -11266853.62906  22396220.71306  -8777546.03348  22396218.40048
 08 11 15  1 18 30.0020000  0  9  3  6  7 13 16 19 21 23 25
  -7102461.94907  20262469.40807  -5587185.58148  20262467.36548
   -827200.97307  20922364.08007   -641184.05748  20922362.86948
  -4920593.22706  23606209.45506  -3831372.47447  23606207.52547
  -3781206.09006  22698849.90006  -2942252.12647  22698849.13947
   9114859.47307  22216199.92407   7118227.57248  22216196.57648
 -13978739.09406  21434701.35406 -10889151.56648  21434697.35048
   1919166.66806  24737917.08806   1494526.01046  24737915.83846
   5944980.29706  22860823.98606   4633415.60647  22860820.76047
 -11323778.13307  22385388.83807  -8821902.77748  22385386.66248
 08 11 15  1 19  0.0020000  0  9  3  6  7 13 16 19 21 23 25
  -7089699.50407  20264898.06407  -5577240.80848  20264895.97148
   -786761.35207  20930059.47907   -609672.66948  20930057.85448
  -5006527.65206  23589857.31406  -3898334.35947  23589854.35747
  -3743451.42206  22706035.01806  -2912832.90647  22706033.08847
   9175753.60907  22227787.15007   7165677.53348  22227785.19348
 -14027990.77006  21425329.07206 -10927529.49048  21425324.93248
   1972476.44905  24748061.98605   1536066.03246  24748059.47146
   6025469.05906  22876140.60406   4696134.08647  22876137.46347
 -11380383.54307  22374616.64307  -8866010.89548  22374614.56148
 08 11 15  1 19 30.0020000  0  9  3  6  7 13 16 19 21 23 25
  -7076452.15207  20267418.77507  -5566918.19948  20267416.91648
   -745937.86307  20937827.84607   -577862.14448  20937826.55748
  -5092291.20306  23573536.92406  -3965163.12847  23573534.32647
  -3705137.48006  22713325.43206  -2882977.93647  22713324.03747
   9236783.71907  22239401.50207   7213233.43748  22239398.83048
 -14076810.99206  21416038.87706 -10965571.22148  21416034.97948
   2026216.97706  24758289.09606   1577941.76546  24758287.15046
   6106324.13706  22891526.96306   4759138.04647  22891523.29947
 -11436670.84406  22363905.64306  -8909871.13148  22363903.91248
 08 11 15  1 20  0.0020000  0  9  3  6  7 13 16 19 21 23 25
  -7062754.06607  20270025.42407  -5556244.37048  20270023.09248
   -704765.37907  20945662.93907   -545779.70348  20945661.25248
  -5177914.70306  23557242.86906  -4031882.72847  23557240.63947
  -3666299.05906  22720716.65006  -2852714.24247  22720714.42847
   9297916.32807  22251034.65007   7260869.23748  22251032.14348
 -14125232.52706  21406824.26006 -11003302.28248  21406820.37748
   2080354.00006  24768590.80706   1620126.42246  24768588.63146
   6187509.37906  22906976.25206   4822399.22547  22906972.96747
 -11492670.99607  22353249.39307  -8953507.62048  22353247.52148
 08 11 15  1 20 30.0020000  0  9  3  6  7 13 16 19 21 23 25
  -7048578.82807  20272723.00207  -5545198.71848  20272720.68648
   -663218.12907  20953569.25207   -513405.22048  20953567.43248
  -5263368.01206  23540981.72906  -4098469.67447  23540979.08847
  -3626910.79306  22728211.81406  -2822022.10447  22728209.74847
   9359178.63307  22262692.54907   7308606.04948  22262689.72548
 -14173227.01607  21397690.97107 -11040700.57048  21397687.07248
   2134914.00006  24778972.84606   1662640.67646  24778971.33446
   6269048.94506  22922492.72106   4885936.50447  22922489.48647
 -11548354.35907  22342652.66607  -8996897.23848  22342651.31448
 08 11 15  1 21  0.0020000  0  9  3  6  7 13 16 19 21 23 25
  -7033925.63707  20275511.32207  -5533780.66848  20275509.63948
   -621296.02307  20961546.61107   -480738.66048  20961544.76448
  -5348646.83205  23524753.62705  -4164920.70947  23524751.33847
  -3586972.38306  22735811.46306  -2790901.29347  22735809.20147
   9420572.29307  22274375.27507   7356445.23848  22274372.44348
 -14220792.14107  21388639.74407 -11077764.30248  21388636.08448
   2189897.27706  24789436.47906   1705484.79046  24789434.94746
   6350941.60906  22938076.25206   4949748.93947  22938073.51847
 -11603716.91807  22332118.33807  -9040036.90348  22332116.20148
 08 11 15  1 21 30.0020000  0  9  3  6  7 13 16 19 21 23 25
  -7018796.19507  20278390.61107  -5521991.46848  20278388.50248
   -579000.83207  20969595.32207   -447781.35348  20969593.73648
  -5433749.01606  23508559.18906  -4231234.06747  23508556.69747
  -3546485.73406  22743516.53306  -2759353.27147  22743514.86147
   9482097.02707  22286082.95507   7404386.54148  22286080.09248
 -14267927.16406  21379670.65806 -11114492.86848  21379666.32648
   2245302.59406  24799980.10406   1748657.74446  24799977.66246
   6433184.07407  22953726.59607   5013833.96347  22953723.16247
 -11658756.60507  22321644.11107  -9082924.95748  22321642.49848
 08 11 15  1 22  0.0020000  0  9  3  6  7 13 16 19 21 23 25
  -7003203.76607  20281357.45507  -5509841.52248  20281355.38148
   -536346.76207  20977711.85407   -414544.41148  20977710.76048
  -5518684.79306  23492396.46306  -4297417.74947  23492394.08047
  -3505464.96506  22751322.47906  -2727389.06147  22751320.60047
   9543740.44107  22297813.84607   7452420.36248  22297810.05748
 -14314643.80907  21370780.65807 -11150895.44348  21370777.01848
   2301116.11706  24810600.88506   1792148.73146  24810598.90846
   6515760.89807  22969440.33807   5078179.52147  22969436.82247
 -11713483.56307  22311230.17407  -9125569.33348  22311228.36548
 08 11 15  1 22 30.0020000  0  9  3  6  7 13 16 19 21 23 25
  -6987134.53907  20284415.29907  -5497320.05748  20284413.48248
   -493320.44107  20985900.06407   -381017.41448  20985898.43248
  -5603436.28906  23476268.13506  -4363457.89247  23476266.10447
  -3463896.82006  22759231.73606  -2694998.32947  22759230.58047
   9605517.69907  22309569.35407   7500558.48548  22309566.67848
 -14360926.20706  21361972.96306 -11186959.64548  21361969.48648
   2357351.67206  24821302.74406   1835968.61146  24821300.29946
   6598683.84806  22985220.11906   5142794.76847  22985216.61947
 -11767880.51607  22300878.77507  -9167956.57548  22300877.28348
 08 11 15  1 23  0.0020000  0  9  3  6  7 13 16 19 21 23 25
  -6970579.91807  20287565.66607  -5484420.35048  20287563.59248
   -449913.95307  20994159.52507   -347194.17748  20994158.31848
  -5687991.35206  23460178.53306  -4429344.92847  23460176.47947
  -3421773.62506  22767248.65806  -2662175.10047  22767246.52947
   9667437.95307  22321352.15007   7548808.00248  22321349.08448
 -14406764.37506  21353250.09606 -11222677.68148  21353246.99048
   2414017.62906  24832085.49406   1880123.83746  24832083.19346
   6681959.35207  23001067.28307   5207684.73547  23001062.95547
 -11821935.82006  22290591.99406  -9210077.59148  22290590.46748
 08 11 15  1 23 30.0020000  0  9  3  6  7 13 16 19 21 23 25
  -6953561.07007  20290804.06407  -5471158.92348  20290802.27948
   -406149.03107  21002488.05707   -313091.63348  21002486.21748
  -5772367.57406  23444122.09606  -4495092.63447  23444119.76447
  -3379117.34806  22775365.72106  -2628936.43747  22775363.86147
   9729481.17207  22333158.48607   7597153.36748  22333155.57248
 -14452177.28506  21344609.02506 -11258064.36048  21344604.98248
   2471092.74606  24842946.61106   1924597.91846  24842943.75646
   6765564.48007  23016977.36907   5272831.56447  23016972.52147
 -11875667.12107  22280367.36907  -9251946.13748  22280366.38548
 08 11 15  1 24  0.0020000  0  9  3  6  7 13 16 19 21 23 25
  -6936056.32007  20294135.28307  -5457518.84748  20294133.63148
   -362004.13706  21010888.61106   -278693.02348  21010886.96748
  -5856539.36306  23428104.14306  -4560681.02047  23428102.15447
  -3335906.29306  22783588.12706  -2595265.51447  22783587.11547
   9791670.57407  22344992.70507   7645612.60047  22344989.20147
 -14497141.28506  21336052.56406 -11293101.21348  21336049.24448
   2528599.04306  24853889.53306   1969408.02546  24853887.63146
   6849519.21907  23032953.08007   5338250.82847  23032947.97947
 -11929049.23006  22270209.15806  -9293542.55948  22270207.75248
 08 11 15  1 24 30.0020000  0  9  3  6  7 13 16 19 21 23 25
  -6918095.14807  20297552.97107  -5443523.14648  20297550.86948
   -317509.46107  21019355.65007   -244021.86548  21019353.79948
  -5940532.61705  23412121.61905  -4626130.31647  23412119.70547
  -3292171.12106  22791911.17406  -2561186.19247  22791908.30347
   9853977.42607  22356849.62707   7694163.41148  22356846.31148
 -14541684.09006  21327576.16606 -11327809.89148  21327572.52948
   2586506.81605  24864908.43905   2014530.95846  24864906.56146
   6933791.82807  23048989.35407   5403917.75747  23048986.17847
 -11982108.09807  22260112.38507  -9334887.15348  22260110.90848
 08 11 15  1 25  0.0020000  0  9  3  6  7 13 16 19 21 23 25
  -6899642.73807  20301064.48607  -5429144.65648  20301062.56148
   -272631.07407  21027895.74407   -209051.70048  21027894.05748
  -6024309.23406  23396179.16606  -4691410.80847  23396176.77947
  -3247877.91006  22800339.83006  -2526672.02847  22800337.96347
   9916437.44907  22368734.93207   7742833.54348  22368732.47948
 -14585769.62906  21319187.11106 -11362162.26048  21319183.35748
   2644850.41006  24876011.41606   2059993.48246  24876008.30346
   7018414.93407  23065092.20507   5469857.80847  23065088.79547
 -12034805.97707  22250084.52507  -9375950.43948  22250082.78748
 08 11 15  1 25 30.0020000  0  9  3  6  7 13 16 19 21 23 25
  -6880736.01607  20304662.56407  -5414412.16548  20304660.87748
   -227405.95307  21036501.80707   -173811.35448  21036499.97148
  -6107901.74206  23380272.00206  -4756547.81847  23380269.79147
  -3203064.12906  22808867.16606  -2491752.20847  22808865.49047
   9979015.14507  22380643.01007   7791595.36548  22380640.84648
 -14629432.41006  21310878.29106 -11396185.19348  21310874.46348
   2703592.75006  24887189.68906   2105766.69446  24887187.55346
   7103349.68807  23081255.11907   5536040.69147  23081251.36147
 -12087176.19907  22240118.82207  -9416758.40648  22240116.68948
 08 11 15  1 26  0.0020000  0  9  3  6  7 13 16 19 21 23 25
  -6861387.89507  20308344.26807  -5399335.72048  20308342.18948
   -181847.91007  21045171.01007   -138311.58148  21045169.56448
  -6191319.59506  23364398.00206  -4821548.77147  23364396.43247
  -3157743.43806  22817492.15806  -2456437.39647  22817489.86147
  10041698.53507  22392571.81407   7840439.54348  22392567.79548
 -14672683.57006  21302647.91606 -11429887.40948  21302643.93248
   2762720.93705  24898441.86905   2151840.56946  24898438.92046
   7188581.10506  23097473.87706   5602454.74247  23097471.25647
 -12139228.22707  22230213.96307  -9457318.41048  22230210.99048
 08 11 15  1 26 30.0020000  0  9  3  6  7 13 16 19 21 23 25
  -6841549.10907  20312119.21307  -5383876.93048  20312118.34248
   -135907.59007  21053913.19707   -102513.94448  21053911.31448
  -6274509.62906  23348567.67406  -4886372.11048  23348565.94348
  -3111866.86706  22826221.95506  -2420689.45047  22826219.24047
  10104538.48807  22404529.90007   7889405.75548  22404526.85748
 -14715471.88306  21294505.29106 -11463228.94048  21294501.62748
   2822284.44105  24909776.13505   2198253.76546  24909772.51446
   7274157.34007  23113758.87707   5669137.51047  23113754.84647
 -12190909.04707  22220378.88507  -9497589.18248  22220376.24848
 08 11 15  1 27  0.0020000  0  9  3  6  7 13 16 19 21 23 25
  -6821240.49207  20315983.85407  -5368052.02048  20315982.45548
    -89606.70307  21062723.97107    -66435.33248  21062721.75248
  -6357489.10906  23332777.47906  -4951031.40048  23332775.00648
  -3065456.48406  22835053.09606  -2384525.51847  22835051.37747
  10167515.05507  22416513.47907   7938478.36547  22416511.21347
 -14757816.84006  21286447.53306 -11496225.00548  21286443.12348
   2882261.93405  24921188.86105   2244989.41546  24921185.77546
   7360054.96907  23130104.57207   5736070.71447  23130101.28747
 -12242236.44907  22210611.91607  -9537584.55248  22210609.04548
 08 11 15  1 27 30.0020000  0  9  3  6  7 13 16 19 21 23 25
  -6800478.77007  20319934.68207  -5351874.05048  20319933.09248
    -42962.55107  21071599.86107    -30089.23548  21071597.98648
  -6440271.19106  23317024.58006  -5015536.92348  23317022.24048
  -3018530.05106  22843983.20506  -2347959.47047  22843980.90047
  10230612.33207  22428520.88507   7987645.07448  22428517.93248
 -14799733.29706  21278470.85406 -11528887.15148  21278467.12348
   2942636.44905  24932678.06405   2292034.41146  24932675.85746
   7446255.18807  23146508.01807   5803239.70347  23146504.35047
 -12293223.77707  22200909.22907  -9577314.92748  22200906.74048
 08 11 15  1 28  0.0020000  0  9  3  6  7 13 16 19 21 23 25
  -6779231.28907  20323978.21307  -5335317.59248  20323976.68648
      4057.15207  21080547.26007      6549.49148  21080545.47948
  -6522819.05506  23301316.01006  -5079859.92347  23301313.49447
  -2971055.18406  22853017.41606  -2310966.09547  22853015.30347
  10293864.73006  22440557.26006   8036932.62247  22440553.85747
 -14841186.59806  21270582.97906 -11561188.42748  21270578.61548
   3003441.06605  24944248.65005   2339414.67446  24944246.25246
   7532788.90207  23162974.83007   5870668.57347  23162971.25647
 -12343834.78506  22191278.08806  -9616752.06548  22191276.16648
 08 11 15  1 28 30.0020000  0  8  3  6  7 13 16 19 23 25
  -6757547.92607  20328104.36107  -5318421.47748  20328102.44748
     51402.24607  21089557.13507     43441.75348  21089555.13948
  -6605178.31306  23285643.58006  -5144035.95647  23285641.75247
  -2923082.28506  22862146.33806  -2273584.67247  22862144.78747
  10357223.57406  22452614.12706   8086303.14048  22452611.27948
 -14882224.65606  21262773.32206 -11593166.13548  21262769.43948
   7619604.60506  23179495.15806   5938317.10247  23179491.95547
 -12394115.75806  22181709.69706  -9655932.06548  22181707.18248
 08 11 15  1 29  0.0020000  0  8  3  6  7 13 16 19 23 25
  -6735403.47707  20332318.54907  -5301166.08448  20332316.09648
     99097.04707  21098632.67407     80606.53848  21098632.06848
  -6687320.66006  23270012.17406  -5208042.95047  23270010.65447
  -2874587.48006  22871375.02506  -2235796.51447  22871372.91247
  10420714.89107  22464696.23607   8135776.86848  22464693.90848
 -14922821.12106  21255047.78306 -11624799.71948  21255044.31448
   7706724.95307  23196073.83807   6006203.05147  23196071.06447
 -12444038.29707  22172210.09607  -9694832.74448  22172207.89648
 08 11 15  1 29 30.0020000  0  8  3  6  7 13 16 19 23 25
  -6712811.22707  20336617.69707  -5283561.73548  20336616.09248
    147128.23007  21107772.98607    118033.42348  21107771.97148
  -6769255.41006  23254420.24406  -5271888.19947  23254418.58047
  -2825584.75806  22880699.57206  -2197612.58947  22880696.88547
  10484326.98007  22476801.15007   8185344.69848  22476798.82248
 -14962986.81307  21247405.11907 -11656097.67248  21247401.18248
   7794135.13307  23212707.39307   6074314.85447  23212703.34647
 -12493612.12507  22162776.49407  -9733461.70248  22162774.02548
 08 11 15  1 30  0.0020000  0  8  3  6  7 13 16 19 23 25
  -6689746.76207  20341006.57207  -5265589.43648  20341005.07648
    195519.49207  21116981.73607    155740.88948  21116980.54548
  -6850954.17206  23238873.24406  -5335549.56847  23238870.64647
  -2776050.43406  22890125.87706  -2159014.44647  22890123.87347
  10548085.26607  22488933.66607   8235026.48548  22488931.01048
 -15002695.93407  21239848.68207 -11687039.84148  21239844.25648
   7881857.56607  23229400.81407   6142669.97747  23229396.86147
 -12542809.40207  22153414.43907  -9771797.24448  22153412.39348
 08 11 15  1 30 30.0020000  0  8  3  6  7 13 16 19 23 25
  -6666212.11307  20345485.13507  -5247250.75748  20345483.51848
    244268.35907  21126258.28307    193726.99848  21126257.05348
  -6932415.18806  23223372.17406  -5399025.68447  23223370.31147
  -2725987.52306  22899652.48606  -2120004.42047  22899650.10047
  10611989.22707  22501093.64307   8284821.73747  22501091.82247
 -15041948.46107  21232379.17407 -11717626.23048  21232375.40848
   7969888.27007  23246152.10407   6211265.29447  23246148.17847
 -12591628.69507  22144124.40007  -9809838.25248  22144122.36148
 08 11 15  1 31  0.0020000  0  8  3  6  7 13 16 19 23 25
  -6642218.37507  20350051.18907  -5228554.33348  20350049.25648
    293363.93807  21135600.63507    231983.30548  21135599.17048
  -7013644.96906  23207915.08806  -5462321.55847  23207912.27147
  -2675407.27006  22909277.54906  -2080591.27147  22909275.34647
  10676029.41007  22513280.47107   8334723.16547  22513277.84247
 -15080753.44907  21224994.96307 -11747863.86748  21224991.02548
   8058214.65607  23262960.06407   6280091.03947  23262956.18947
 -12640077.01607  22134904.97907  -9847590.17148  22134903.12748
 08 11 15  1 31 30.0020000  0  8  3  6  7 13 16 19 23 25
  -6617757.34007  20354705.70507  -5209493.79148  20354704.00648
    342813.52007  21145011.08007    270515.44648  21145009.19748
  -7094631.75006  23192503.88506  -5525428.16647  23192500.34247
  -2624302.93806  22919002.27506  -2040769.71647  22918999.59647
  10740214.96106  22525494.31406   8384737.86747  22525492.97547
 -15119101.42607  21217697.52507 -11777745.41148  21217693.67448
   8146842.89107  23279825.49407   6349151.98047  23279822.04947
 -12688143.25407  22125758.33807  -9885044.40248  22125756.55748
 08 11 15  1 32  0.0020000  0  8  3  6  7 13 16 19 23 25
  -6592846.41807  20359446.11107  -5190082.69448  20359444.29948
    392598.94907  21154484.61907    309309.27748  21154483.58848
  -7175389.44906  23177135.72106  -5588356.26047  23177133.52947
  -2572692.98406  22928823.29106  -2000554.21147  22928821.45947
  10804529.57807  22537734.33007   8434853.14948  22537731.96348
 -15157008.01607  21210483.94707 -11807283.00248  21210479.84248
   8235753.20307  23296744.39307   6418432.71147  23296740.73647
 -12735841.49207  22116681.45507  -9922211.86648  22116679.25248
 08 11 15  1 32 30.0020000  0  8  3  6  7 13 16 19 23 25
  -6567475.19107  20364274.03307  -5170312.89548  20364272.12348
    442730.83207  21164024.40007    348373.08548  21164023.46748
  -7255903.14806  23161814.40006  -5651094.16647  23161811.90047
  -2520567.35206  22938742.81406  -1959936.85147  22938740.94347
  10868985.27307  22549999.76007   8485078.31148  22549997.50648
 -15194460.84007  21203356.72907 -11836467.02048  21203353.01448
   8324954.36306  23313719.05706   6487940.10247  23313715.52547
 -12783157.38306  22107677.73606  -9959081.38248  22107675.62748
 08 11 15  1 33  0.0020000  0  8  3  6  7 13 16 19 23 25
  -6541667.18407  20369185.41607  -5150202.76248  20369183.20148
    493184.95307  21173625.32207    387687.99048  21173624.31448
  -7336192.65206  23146535.65006  -5713657.43347  23146532.97147
  -2467950.32006  22948754.74406  -1918936.61747  22948753.20147
  10933559.66007  22562287.70507   8535395.99048  22562285.14648
 -15231481.58607  21196312.07207 -11865314.36548  21196308.07248
   8414421.09807  23330744.68207   6557654.39947  23330740.69747
 -12830111.11307  22098742.42407  -9995668.70748  22098740.31448
 08 11 15  1 33 30.0020000  0  8  3  6  7 13 16 19 23 25
  -6515391.54707  20374185.35407  -5129728.23148  20374183.45948
    543991.82007  21183294.03307    427277.75048  21183293.05748
  -7416222.98406  23131306.46306  -5776018.75647  23131304.52947
  -2414812.23406  22958867.06406  -1877530.34847  22958865.55347
  10998285.15207  22574604.39307   8585831.41748  22574601.86948
 -15268037.78107  21189355.53307 -11893799.71448  21189351.90048
   8504182.25406  23347825.41606   6627598.12647  23347821.36547
 -12876668.39807  22089883.15007 -10031947.11348  22089881.13948
 08 11 15  1 34  0.0020000  0  8  3  6  7 13 16 19 23 25
  -6488649.66407  20379274.06407  -5108890.40848  20379272.47148
    595149.99607  21193028.83007    467141.28148  21193027.45548
  -7495991.41806  23116127.23606  -5838175.95548  23116125.88948
  -2361155.02706  22969077.83806  -1835719.58447  22969076.15847
  11063162.17606  22586949.71306   8636384.88248  22586947.85048
 -15304128.77007  21182487.79907 -11921922.55848  21182484.05348
   8594235.03507  23364961.89307   6697769.09347  23364958.45547
 -12922826.62107  22081099.76807 -10067914.57048  22081097.23248
 08 11 15  1 34 30.0020000  0  8  3  6  7 13 16 19 23 25
  -6461465.78907  20384447.17407  -5087708.16648  20384445.13548
    646634.38307  21202826.20507    507258.96748  21202824.98248
  -7575518.55906  23100993.43206  -5900145.16647  23100991.44347
  -2307004.44906  22979382.55706  -1793524.34847  22979379.57647
  11128167.32806  22599320.33006   8687038.22148  22599318.51048
 -15339777.69507  21175703.85407 -11949700.93948  21175699.95148
   8684552.85206  23382148.07206   6768146.56447  23382144.90847
 -12968607.12907  22072387.88507 -10103587.69848  22072386.27948
 08 11 15  1 35  0.0020000  0  8  3  6  7 13 16 19 23 25
  -6433826.57407  20389706.69707  -5066171.11448  20389704.43948
    698457.87507  21212687.90807    547640.91348  21212686.67448
  -7654786.66806  23085909.56406  -5961912.50447  23085907.72947
  -2252347.67606  22989783.42406  -1750934.70847  22989781.43647
  11193315.43806  22611717.06406   8737802.95147  22611715.16647
 -15374969.09807  21169007.49407 -11977122.80048  21169003.48648
   8775147.24206  23399387.72106   6838739.59247  23399384.27947
 -13013993.05907  22063751.02507 -10138953.36148  22063749.25648
 08 11 15  1 35 30.0020000  0  8  3  6  7 13 16 19 23 25
  -6405731.34807  20395052.89307  -5044278.73348  20395051.00648
    750621.22307  21222613.86107    588287.67148  21222612.49448
  -7733791.03506  23070874.87706  -6023474.36147  23070873.62747
  -2197184.80506  23000280.18206  -1707950.66847  23000278.35447
  11258608.60907  22624141.74407   8788680.70848  22624139.94748
 -15409700.41407  21162397.99407 -12004186.16848  21162394.49048
   8866017.28106  23416679.84606   6909547.37447  23416676.02547
 -13058979.77307  22055190.40807 -10174007.95248  22055188.27148
 08 11 15  1 36  0.0020000  0  8  3  6  7 13 16 19 23 25
  -6377180.70707  20400485.83807  -5022031.47948  20400483.80348
    803122.90207  21232604.76807    629198.06548  21232603.06148
  -7812528.85206  23055891.73606  -6084828.45848  23055889.70948
  -2141517.98406  23010874.31406  -1664573.95047  23010871.66247
  11324047.28106  22636594.75206   8839671.84048  22636592.87748
 -15443971.16007  21155876.90807 -12030890.63248  21155872.71348
   8957160.01206  23434023.56406   6980567.66047  23434020.04547
 -13103564.98007  22046705.93907 -10208749.68048  22046703.86148
 08 11 15  1 36 30.0020000  0  8  3  6  7 13 16 19 23 25
  -6348196.82007  20406001.52507  -4999446.63648  20405999.21748
    855940.65607  21242655.79107    670354.76748  21242654.06148
  -7891017.81606  23040956.04906  -6145988.69748  23040953.79148
  -2085369.97306  23021558.08006  -1620822.28547  23021556.17447
  11389610.99207  22649071.99407   8890760.42248  22649069.64648
 -15477801.72307  21149439.01007 -12057252.11148  21149434.88148
   9048551.41006  23451414.58006   7051781.70247  23451411.15847
 -13147767.05107  22038295.22107 -10243192.85148  22038292.58048
 08 11 15  1 37  0.0020000  0  8  3  6  7 13 16 19 23 25
  -6318750.96907  20411604.75207  -4976501.81848  20411603.14648
    909103.21107  21252772.30707    711780.12248  21252770.93948
  -7969224.80506  23026073.65806  -6206929.19147  23026071.97147
  -2028712.59406  23032339.36106  -1576673.72247  23032338.76047
  11455330.39507  22661577.53307   8941970.30148  22661575.43248
 -15511160.92207  21143090.97107 -12083246.28948  21143086.48248
   9140219.18006  23468858.61906   7123211.10447  23468855.36547
 -13191553.23007  22029962.55707 -10277311.95448  22029960.58048
 08 11 15  1 37 30.0020000  0  8  3  6  7 13 16 19 23 25
  -6288872.39807  20417290.49407  -4953219.82948  20417289.25248
    962580.74207  21262948.54907    753450.90948  21262947.13948
  -8047175.44506  23011239.79106  -6267669.97848  23011237.61948
  -1971576.23006  23043212.11906  -1532151.93547  23043210.90047
  11521177.45707  22674107.96307   8993279.67348  22674104.95948
 -15544076.74207  21136826.85407 -12108894.96348  21136823.27948
   9232132.01606  23486349.30706   7194831.48047  23486345.28347
 -13234949.64107  22021704.81407 -10311127.34748  22021701.76848
 08 11 15  1 38  0.0020000  0  8  3  6  7 13 16 19 23 25
  -6258533.78107  20423063.72907  -4929579.35148  20423062.01848
   1016400.53907  21273190.44707    795388.41048  21273188.98248
  -8124837.66406  22996461.43206  -6328185.94847  22996459.63947
  -1913934.39506  23054181.64306  -1487236.25047  23054180.45547
  11587181.34407  22686667.92407   9044711.25748  22686664.93648
 -15576519.72307  21130653.36907 -12134175.20048  21130649.49048
   9324315.31306  23503891.50206   7266662.55847  23503887.72547
 -13277925.16007  22013526.86907 -10344614.77248  22013524.78348
 08 11 15  1 38 30.0020000  0  8  3  6  7 13 16 19 23 25
  -6227773.71107  20428917.16607  -4905610.45348  20428915.45948
   1070523.87907  21283489.36107    837562.44548  21283488.36148
  -8202245.73806  22981731.78306  -6388503.91148  22981728.89348
  -1855826.19906  23065237.96306  -1441957.16847  23065237.05347
  11653305.20707  22699251.15007   9096236.32248  22699248.55748
 -15608526.57407  21124562.58807 -12159115.60448  21124558.40848
   9416729.16406  23521477.47906   7338673.32547  23521473.96347
 -13320514.56307  22005422.01807 -10377801.29848  22005420.13948
 08 11 15  1 39  0.0020000  0  8  3  6  7 13 16 19 23 25
  -6196574.57407  20434854.18207  -4881299.44748  20434852.68948
   1124967.25407  21293849.60407    879985.83648  21293849.03348
  -8279379.00406  22967053.76006  -6448607.75448  22967050.85448
  -1797236.06306  23076387.60406  -1396302.54247  23076386.10047
  11719566.73007  22711859.91607   9147868.66347  22711857.41247
 -15640079.02307  21118558.26007 -12183701.91748  21118554.42848
   9509388.51606  23539109.90006   7410875.37347  23539104.88947
 -13362697.61307  21997395.27507 -10410671.22648  21997393.45148
 08 11 15  1 39 30.0020000  0  8  3  6  7 13 16 19 23 25
  -6164940.79307  20440873.46307  -4856649.74548  20440872.08048
   1179726.40207  21304270.34607    922655.29448  21304268.07648
  -8356237.15206  22952427.36906  -6508497.19748  22952425.92448
  -1738168.84006  23087628.32206  -1350276.17747  23087625.58047
  11785963.93406  22724494.18206   9199606.73347  22724492.83847
 -15671179.21507  21112640.63507 -12207935.83748  21112636.03748
   9602287.44906  23556788.40006   7483264.14347  23556783.28747
 -13404474.64107  21989445.18207 -10443224.75048  21989443.52548
 08 11 15  1 40  0.0020000  0  9  3  6  7 13 16 19 23 25 27
  -6132866.18407  20446977.68207  -4831656.57048  20446975.67048
   1234807.31307  21314751.72907    965575.47848  21314750.05348
  -8432809.88306  22937856.49406  -6568164.23348  22937854.18948
  -1678619.41406  23098959.97106  -1303874.02147  23098957.41247
  11852504.66006  22737156.52506   9251456.61947  22737155.58047
 -15701819.10907  21106809.77507 -12231811.07548  21106806.31848
   9695430.80906  23574512.72106   7555843.35047  23574508.66647
 -13445835.78107  21981574.39307 -10475454.20648  21981572.59648
    -81235.26615  24415119.36105    -56697.39156  24415117.36946
 08 11 15  1 40 30.0020000  0  9  3  6  7 13 16 19 23 25 27
  -6100349.37107  20453165.30707  -4806318.80148  20453164.44348
   1290210.55907  21325294.58807   1008746.80148  21325293.05348
  -8509091.98407  22923340.60407  -6627604.81548  22923337.98248
  -1618587.65606  23110384.06406  -1257096.05747  23110382.20147
  11919191.10906  22749846.85406   9303420.06147  22749845.90047
 -15731996.43407  21101067.11107 -12255325.86948  21101063.42448
   9788817.56606  23592283.04906   7628612.19247  23592280.54947
 -13486776.72707  21973783.92407 -10507356.25748  21973781.81848
   -161656.70306  24399816.29906   -119363.42847  24399815.89347
 08 11 15  1 41  0.0020000  0  9  3  6  7 13 16 19 23 25 27
  -6067389.49607  20459437.59607  -4780635.81848  20459436.24048
   1345937.30907  21335899.00207   1052170.21248  21335896.96348
  -8585077.82407  22908881.22107  -6686814.56548  22908877.67848
  -1558073.26606  23121899.86906  -1209942.00647  23121898.10747
  11986026.37906  22762565.04106   9355499.47047  22762564.11147
 -15761708.09007  21095413.44707 -12278477.79248  21095409.56148
   9882447.29306  23610100.66606   7701570.34847  23610097.01447
 -13527292.58207  21966073.18907 -10538927.04848  21966071.40048
   -241922.41405  24384542.11105   -181908.12947  24384541.51847
 08 11 15  1 41 30.0020000  0  9  3  6  7 13 16 19 23 25 27
  -6034000.58607  20465790.89307  -4754618.47948  20465789.72948
   1401973.19507  21346562.14307   1095834.55948  21346560.25648
  -8660777.26207  22894476.08807  -6745801.13948  22894473.40848
  -1497091.29706  23133504.20506  -1162423.62847  23133502.15047
  12052997.89806  22775309.31406   9407685.04647  22775308.33047
 -15790966.38707  21089845.86107 -12301276.46248  21089842.21748
   9976303.84806  23627960.78306   7774705.31047  23627956.91247
 -13567393.76607  21958442.81407 -10570174.73348  21958440.40848
   -322042.68406  24369296.01006   -244339.47747  24369295.15047
 08 11 15  1 42  0.0020000  0  9  3  6  7 13 16 19 23 25 27
  -6000205.92607  20472221.72107  -4728284.99248  20472220.33048
   1458294.68407  21357280.02507   1139721.41448  21357278.65848
  -8736209.60506  22880121.73606  -6804579.58748  22880119.10748
  -1435665.98406  23145192.95506  -1114559.75747  23145191.75247
  12120084.00406  22788075.11106   9459959.90047  22788074.18947
 -15819792.99607  21084360.18207 -12323738.75148  21084356.39648
  10070362.62106  23645859.85406   7847997.81847  23645855.55747
 -13607100.10907  21950886.87707 -10601114.73548  21950884.98248
   -402037.05906  24354073.50206   -306672.76647  24354072.81147
 08 11 15  1 42 30.0020000  0  9  3  6  7 13 16 19 23 25 27
  -5966008.96907  20478729.24407  -4701638.01548  20478727.96348
   1514897.80907  21368050.98607   1183827.73548  21368049.88548
  -8811374.30106  22865818.36106  -6863149.49048  22865815.70948
  -1373802.02005  23156965.06405  -1066354.09246  23156964.15446
  12187282.64806  22800862.85406   9512322.45847  22800861.07647
 -15848189.92207  21078956.25207 -12345866.21548  21078952.52948
  10164618.12106  23663796.09606   7921443.65847  23663792.10047
 -13646411.57007  21943405.94707 -10631747.05348  21943404.35448
   -481905.43806  24338875.65006   -368907.85547  24338874.89347
 08 11 15  1 43  0.0020000  0  9  3  6  7 13 16 19 23 25 27
  -5931364.67607  20485321.83807  -4674642.49148  20485320.27148
   1571827.44107  21378884.51007   1228188.46048  21378883.56848
  -8886221.93807  22851575.25207  -6921472.32048  22851573.31148
  -1311455.66805  23168829.41605  -1017772.57646  23168827.77546
  12254640.28106  22813681.07206   9564808.89547  22813678.56147
 -15876110.52307  21073643.38507 -12367622.54848  21073638.78348
  10259114.29706  23681778.37706   7995076.96947  23681774.54547
 -13685279.80107  21936009.54907 -10662033.98548  21936008.30348
   -561598.77006  24323710.40806   -431006.55447  24323710.13547
 08 11 15  1 43 30.0020000  0  9  3  6  7 13 16 19 23 25 27
  -5896325.09007  20491989.83807  -4647338.92948  20491988.27548
   1629031.46907  21389769.88507   1272763.02948  21389768.53748
  -8960800.33606  22837382.92406  -6979585.33448  22837381.35748
  -1248679.68405  23180775.10405   -968856.24946  23180773.53746
  12322106.84406  22826519.11106   9617380.24747  22826516.47147
 -15903604.89807  21068410.85407 -12389046.73248  21068407.09248
  10353796.62506  23699795.02506   8068855.34147  23699792.16647
 -13723752.94507  21928688.57207 -10692013.06748  21928686.31448
   -641165.16006  24308569.17406   -493006.34347  24308569.01447
 08 11 15  1 44  0.0020000  0  9  3  6  7 13 16 19 23 25 27
  -5860875.41407  20498735.76807  -4619715.82548  20498734.08448
   1686524.38307  21400710.25207   1317562.68448  21400709.39648
  -9035090.59806  22823245.59606  -7037473.84648  22823244.04148
  -1185460.09805  23192806.04905   -919594.25046  23192804.66246
  12389698.79706  22839381.74406   9670049.29247  22839378.78347
 -15930657.05507  21063263.19707 -12410126.33648  21063259.60448
  10448678.07806  23717850.76006   8142788.87747  23717846.85747
 -13761812.83607  21921445.82207 -10721670.14548  21921443.90048
   -720585.93806  24293456.10406   -554892.64547  24293455.24047
 08 11 15  1 44 30.0020000  0  9  3  6  7 13 16 19 23 25 27
  -5825002.14807  20505562.26007  -4591762.63148  20505560.18648
   1744319.80507  21411708.63507   1362598.09648  21411706.92848
  -9109074.16806  22809167.81406  -7095123.35948  22809165.13948
  -1121784.35505  23204922.56405   -869976.77746  23204921.00646
  12457431.49206  22852271.33006   9722827.97347  22852268.20947
 -15957251.01207  21058202.29107 -12430848.87448  21058198.56148
  10543771.14105  23735946.13505   8216887.31847  23735943.27947
 -13799442.05907  21914285.29907 -10750991.59548  21914283.30748
   -799843.43806  24278373.74406   -616651.73847  24278372.96747
 08 11 15  1 45  0.0020000  0  9  3  6  7 13 16 19 23 25 27
  -5788723.03907  20512466.15807  -4563493.21748  20512464.40048
   1802399.23807  21422760.59607   1407854.76148  21422759.35048
  -9182765.70706  22795144.56406  -7152545.34248  22795141.88148
  -1057671.96906  23217123.71306   -820019.12746  23217121.49046
  12525288.16806  22865183.59606   9775703.27647  22865181.16647
 -15983403.85207  21053226.19707 -12451227.72648  21053222.57248
  10639055.58206  23754079.07206   8291134.89147  23754075.21347
 -13836655.46107  21907204.05707 -10779989.06348  21907201.30348
   -878952.23806  24263319.74406   -678294.96447  24263319.63947
 08 11 15  1 45 30.0020000  0  9  3  6  7 13 16 19 23 25 27
  -5752036.09007  20519447.26807  -4534905.98048  20519445.26848
   1860764.60507  21433867.68207   1453334.25948  21433866.65448
  -9256158.38707  22781178.86107  -7209734.43048  22781176.00648
   -993121.46905  23229406.99405   -769720.04946  23229404.40046
  12593272.79306  22878121.41606   9828678.26447  22878117.90447
 -16009111.81607  21048334.14307 -12471259.88948  21048329.88548
  10734532.31305  23772247.66605   8365532.34047  23772243.74047
 -13873447.23807  21900202.51807 -10808657.97648  21900200.61148
   -957905.98806  24248294.79906   -739817.32947  24248294.21347
 08 11 15  1 46  0.0020000  0  9  3  6  7 13 16 19 23 25 27
  -5714944.03907  20526505.47907  -4506003.09348  20526503.13148
   1919413.14107  21445028.08807   1499034.41048  21445026.47148
  -9329250.62907  22767269.79107  -7266689.41648  22767267.33448
   -928137.03906  23241773.43206   -719082.85146  23241769.52146
  12661384.14806  22891082.15006   9881752.03947  22891079.58847
 -16034375.86707  21043526.51807 -12490946.16548  21043522.03348
  10830196.99605  23790451.16605   8440076.16847  23790448.99047
 -13909816.53107  21893281.35407 -10836997.68548  21893279.57248
  -1036703.78906  24233300.42406   -801218.22947  24233299.06847
 08 11 15  1 46 30.0020000  0  8  3  6  7 13 16 19 23 25
  -5677433.04707  20533643.58807  -4476773.74848  20533642.18248
   1978358.25407  21456244.55707   1544965.66148  21456243.81148
  -9402024.49207  22753421.40007  -7323396.32348  22753418.23248
   -862705.84805  23254225.06405   -668097.51946  23254221.88546
  12729637.71906  22904069.87706   9934936.61447  22904067.25247
 -16059180.86707  21038806.07207 -12510274.73049  21038801.93949
  10926061.13706  23808693.36906   8514775.49946  23808689.27946
 -13945746.18407  21886444.72107 -10864994.81748  21886443.01848
 08 11 15  1 47  0.0020000  0  8  3  6  7 13 16 19 23 25
  -5639512.91407  20540859.55707  -4447225.60248  20540857.83448
   2037590.01207  21467515.89307   1591120.26448  21467515.22948
  -9474485.58206  22739631.78306  -7379859.49948  22739629.84248
   -796838.86705  23266758.37705   -616772.63446  23266755.84246
  12798025.47706  22917083.71306   9988225.72847  22917080.82247
 -16083534.94107  21034171.62707 -12529251.93348  21034167.49848
  11022113.48405  23826972.18905   8589621.43347  23826969.13147
 -13981242.41807  21879689.72107 -10892654.22448  21879688.61148
 08 11 15  1 47 30.0020000  0  8  3  6  7 13 16 19 23 25
  -5601167.04307  20548156.58807  -4417345.71248  20548154.52948
   2097125.13707  21478845.50207   1637511.24448  21478844.13948
  -9546612.91806  22725906.70506  -7436062.62448  22725904.49848
   -730520.20705  23279378.98605   -565095.77246  23279375.63946
  12866565.87506  22930126.57206  10041633.79147  22930124.68247
 -16107419.92607  21029626.61907 -12547863.62548  21029622.41648
  11118369.33605  23845288.59605   8664625.94147  23845286.00647
 -14016284.82007  21873021.86907 -10919960.01448  21873019.60048
 08 11 15  1 48  0.0020000  0  8  3  6  7 13 16 19 23 25
  -5562419.37107  20555529.73607  -4387152.71148  20555528.52948
   2156939.18407  21490227.54107   1684119.61148  21490225.74048
  -9618426.09406  22712240.73606  -7492020.93748  22712238.98248
   -663774.96503  23292078.09603   -513086.50346  23292076.88146
  12935236.40206  22943193.97906  10095143.29547  22943191.63147
 -16130858.10506  21025166.15006 -12566127.14148  21025162.02148
  11214802.94506  23863640.47906   8739769.00047  23863636.61947
 -14050894.05507  21866436.09607 -10946928.25148  21866433.52548
 08 11 15  1 48 30.0020000  0  8  3  6  7 13 16 19 23 25
  -5523234.89807  20562986.72907  -4356619.35448  20562985.27148
   2217067.18807  21501669.55707   1730972.59748  21501668.15848
  -9689885.71506  22698642.75206  -7547703.76548  22698640.54948
   -596569.62503  23304868.13503   -460718.75446  23304866.35046
  13004073.66806  22956293.68906  10148782.69847  22956290.75647
 -16153812.82007  21020798.36107 -12584013.92049  21020794.73249
  11311447.78506  23882030.90806   8815076.63247  23882027.99447
 -14085031.69907  21859939.32207 -10973529.00848  21859937.84648
 08 11 15  1 49  0.0020000  0  8  3  6  7 13 16 19 23 25
  -5483618.19507  20570525.20507  -4325749.19748  20570524.22948
   2277504.09007  21513170.61907   1778066.25348  21513168.99448
  -9760992.46906  22685111.21306  -7603111.62248  22685109.90448
   -528909.92203  23317743.05703   -407996.98946  23317741.28746
  13073074.65206  22969424.42406  10202549.68947  22969421.69347
 -16176287.55107  21016521.55707 -12601526.70249  21016518.29549
  11408296.97706  23900460.50206   8890543.50347  23900457.27947
 -14118698.96507  21853533.17407 -10999763.25548  21853530.49048
 08 11 15  1 49 30.0020000  0  8  3  6  7 13 16 19 23 25
  -5443605.68807  20578139.92407  -4294570.61448  20578138.87748
   2338213.44507  21524722.72907   1825372.25248  21524720.86148
  -9831778.43006  22671641.30706  -7658269.50448  22671638.87348
   -460833.38303  23330697.97103   -354950.27546  23330696.38946
  13142205.29306  22982578.85406  10256417.69747  22982576.23247
 -16198317.05906  21012329.56406 -12618692.54749  21012325.81149
  11505312.64106  23918922.29106   8966140.10547  23918918.31447
 -14151928.63707  21847209.37707 -11025656.49448  21847207.32648
 08 11 15  1 50  0.0020000  0  8  3  6  7 13 16 19 23 25
  -5403198.42207  20585828.86107  -4263084.42848  20585827.24048
   2399194.35907  21536327.11907   1872889.84848  21536325.27148
  -9902239.84406  22658233.07206  -7713174.50648  22658231.04148
   -392341.54704  23343731.68204   -301580.09546  23343729.93246
  13211465.77706  22995759.47106  10310386.88747  22995755.90047
 -16219900.73007  21008221.86107 -12635510.97149  21008218.63949
  11602492.77306  23937415.26006   9041864.86547  23937411.23247
 -14184717.98007  21840969.15007 -11051206.63148  21840967.77148
 08 11 15  1 50 30.0020000  0  8  3  6  7 13 16 19 23 25
  -5362407.60907  20593591.08807  -4231299.39548  20593589.57648
   2460435.45707  21547981.19707   1920610.17448  21547979.20948
  -9972383.58206  22644885.42406  -7767831.95848  22644882.90848
   -323447.09004  23356841.60404   -247896.16846  23356840.61946
  13280846.78506  23008961.97906  10364449.98047  23008958.79547
 -16241048.08207  21004197.87707 -12651989.42949  21004193.93649
  11699824.28506  23955936.36106   9117707.54747  23955934.00247
 -14217074.71507  21834812.44707 -11076419.66648  21834810.68948
 08 11 15  1 51  0.0020000  0  8  3  6  7 13 16 19 23 25
  -5321226.64807  20601427.41607  -4199210.33248  20601426.44348
   2521943.04307  21559685.62707   1968538.15548  21559684.04548
 -10042199.08607  22631599.46307  -7822233.64648  22631596.61948
   -254144.79705  23370029.13505   -193894.41246  23370027.50646
  13350356.60906  23022189.20506  10418613.45047  23022186.95147
 -16261751.60507  21000258.07207 -12668122.04449  21000254.56149
  11797312.07006  23974487.70506   9193672.03147  23974484.23247
 -14248989.14807  21828739.20507 -11101288.07548  21828737.92848
 08 11 15  1 51 30.0020000  0  8  3  6  7 13 16 19 23 25
  -5279646.53507  20609339.82207  -4166810.23848  20609338.53348
   2583726.28107  21571442.62707   2016680.92548  21571440.70948
 -10111672.75806  22618379.02506  -7876368.97948  22618377.01048
   -184426.80505  23383296.55705   -139568.72346  23383295.56146
  13420006.16806  23035443.13506  10472885.80447  23035440.61547
 -16282000.25406  20996404.85406 -12683900.20849  20996401.61949
  11894963.49206  23993070.66606   9269764.00847  23993067.32647
 -14280448.56307  21822752.55707 -11125801.87948  21822751.14348
 08 11 15  1 52  0.0020000  0  8  3  6  7 13 16 19 23 25
  -5237660.41007  20617329.73607  -4134093.78348  20617327.66648
   2645791.70707  21583253.02507   2065043.57948  21583251.93648
 -10180793.52006  22605226.26806  -7930229.30748  22605223.61948
   -114287.28504  23396642.80704    -84914.59746  23396642.05346
  13489803.96906  23048725.36106  10527273.68247  23048722.65447
 -16301785.67207  20992639.76807 -12699317.41649  20992636.34649
  11992783.79306  24011685.26006   9345987.55247  24011681.34647
 -14311442.53507  21816854.88507 -11149953.05148  21816852.74448
 08 11 15  1 52 30.0020000  0  8  3  6  7 13 16 19 23 25
  -5195278.69107  20625394.22907  -4101069.06448  20625393.41248
   2708128.63307  21595115.84607   2113617.79048  21595113.15848
 -10249567.55106  22592138.77506  -7983819.43548  22592136.43648
    -43737.84405  23410068.24405    -29941.02346  23410067.10446
  13559741.32006  23062033.79906  10581770.26747  23062031.42447
 -16321117.36706  20988961.03306 -12714381.06848  20988957.00648
  12090760.81606  24030329.30706   9422333.23447  24030326.59647
 -14341978.34007  21811044.08007 -11173747.17448  21811041.91248
 08 11 15  1 53  0.0020000  0  8  3  6  7 13 16 19 23 25
  -5152485.38307  20633537.65807  -4067723.64948  20633536.16648
   2770753.32807  21607032.87707   2162416.25748  21607031.09648
 -10317974.11707  22579121.31407  -8037123.26948  22579119.20548
     27236.45705  23423574.67405     25363.60846  23423573.59646
  13629836.23406  23075372.37706  10636389.67947  23075370.56147
 -16339977.27007  20985372.40807 -12729077.09648  20985368.83448
  12188909.50006  24049006.83006   9498812.68047  24049003.06847
 -14372036.06607  21805324.23607 -11197168.77948  21805321.71348
 08 11 15  1 53 30.0020000  0  8  3  6  7 13 16 19 23 25
  -5109311.39107  20641753.53307  -4034081.57848  20641752.05748
   2833634.26207  21618998.56407   2211414.36948  21618996.17848
 -10386040.69106  22566168.53306  -8090162.15548  22566166.58448
     98603.11305  23437155.43205     80973.97346  23437153.90446
  13700059.14506  23088735.12706  10691108.78547  23088733.11147
 -16358395.22706  20981867.22906 -12743428.73248  20981863.51848
  12287196.58206  24067709.58806   9575400.00847  24067706.45147
 -14401643.90207  21799690.18207 -11220239.82348  21799687.77548
 08 11 15  1 54  0.0020000  0  8  3  6  7 13 16 19 23 25
  -5065764.29707  20650040.22107  -4000148.79448  20650039.29148
   2896763.87907  21631011.69707   2260606.27048  21631009.81848
 -10453770.08607  22553280.41607  -8142938.31048  22553277.95548
    170353.55505  23450808.65005    136883.37346  23450806.48646
  13770404.01206  23102121.46306  10745922.94647  23102119.48647
 -16376377.66006  20978445.58806 -12757441.02648  20978441.11148
  12385613.22706  24086437.80706   9652088.25147  24086434.37747
 -14430805.72307  21794141.07207 -11242963.33148  21794138.97548
 08 11 15  1 54 30.0020000  0  8  3  6  7 13 16 19 23 25
  -5021827.60907  20658401.14307  -3965912.42648  20658399.45548
   2960158.85507  21643075.29107   2310004.94148  21643073.81448
 -10521140.98007  22540459.71307  -8195435.08348  22540457.85448
    242502.84005  23464537.80705    193103.62546  23464536.59246
  13840889.44906  23115534.40006  10800846.61147  23115532.67447
 -16393906.33206  20975110.15006 -12771099.73549  20975105.99449
  12484174.44906  24105193.91606   9728889.16447  24105190.09647
 -14459501.36307  21788680.43207 -11265323.56448  21788678.32648
 08 11 15  1 55  0.0020000  0  8  3  6  7 13 16 19 23 25
  -4977479.68807  20666840.02507  -3931355.59948  20666838.20948
   3023841.13306  21655193.83806   2359627.47448  21655192.31848
 -10588127.56307  22527712.75207  -8247632.41548  22527710.74848
    315072.05105  23478347.47105    249650.95846  23478345.96746
  13911539.37106  23128978.97106  10855898.47047  23128975.95547
 -16410957.83206  20971865.08006 -12784386.60949  20971861.10749
  12582900.84005  24123980.55705   9805818.76447  24123977.62747
 -14487705.48407  21783313.46307 -11287300.79948  21783311.55348
 08 11 15  1 55 30.0020000  0  8  3  6  7 13 16 19 23 25
  -4932767.01607  20675348.83807  -3896514.57848  20675347.40448
   3087763.34006  21667357.68206   2409436.96148  21667356.52948
 -10654772.38307  22515031.08007  -8299563.45448  22515028.90448
    388012.67205  23492228.77505    306487.76946  23492226.82646
  13982308.31306  23142446.36906  10911043.10047  23142442.83047
 -16427577.91407  20968702.12707 -12797337.32049  20968698.57249
  12681743.49605  24142790.31405   9882838.94847  24142787.38547
 -14515461.95707  21778031.29107 -11308929.23548  21778029.44348
 08 11 15  1 56  0.0020000  0  8  3  6  7 13 16 19 23 25
  -4887672.41407  20683929.58007  -3861375.94148  20683927.80348
   3151943.10507  21679570.85407   2459447.16448  21679569.41248
 -10721053.70707  22502418.22107  -8351211.22648  22502415.78348
    461341.26605  23506182.21305    363626.95246  23506179.69346
  14053215.62906  23155939.21306  10966295.52647  23155937.34247
 -16443747.48807  20965625.17407 -12809936.98749  20965621.47149
  12780718.38706  24161624.34606   9959962.19447  24161621.51847
 -14542749.73407  21772838.64307 -11330192.44148  21772836.62748
 08 11 15  1 56 30.0020000  0  8  3  6  7 13 16 19 23 25
  -4842156.64807  20692591.52507  -3825909.11148  20692589.83848
   3216419.34407  21691840.33807   2509688.37548  21691839.11548
 -10786927.96107  22489882.81407  -8402541.81448  22489879.40848
    535095.66005  23520216.74405    421097.87646  23520214.84246
  14124302.44506  23169466.01806  11021687.82047  23169463.74447
 -16459426.27006  20962641.76006 -12822154.21749  20962637.74049
  12879863.16806  24180490.82206  10037217.83347  24180487.99847
 -14569526.34007  21767742.82207 -11351057.32848  21767741.52948
 08 11 15  1 57  0.0020000  0  8  3  6  7 13 16 19 23 25
  -4796262.37506  20701324.60406  -3790147.36348  20701323.16648
   3281149.57806  21704157.67406   2560127.49648  21704156.71348
 -10852433.27707  22477417.44707  -8453584.90548  22477414.69748
    609232.02704  23534324.39304    478866.44746  23534323.29546
  14195527.64806  23183020.24406  11077187.93647  23183017.34247
 -16474655.19107  20959743.96307 -12834020.90949  20959739.50649
  12979133.62506  24199381.74406  10114571.39647  24199378.77547
 -14595830.86706  21762737.38506 -11371554.37348  21762735.50248
 08 11 15  1 57 30.0020000  0  8  3  6  7 13 16 19 23 25
  -4749978.55506  20710132.01806  -3754082.05248  20710130.91648
   3346144.85906  21716526.07206   2610773.15848  21716524.69748
 -10917554.07407  22465024.90807  -8504328.40348  22465022.77948
    683760.12905  23548507.35405    536940.22746  23548506.13546
  14266903.99206  23196602.43906  11132805.86147  23196600.30347
 -16489422.07006  20956933.90006 -12845527.57049  20956930.37349
  13078539.50006  24218297.59606  10192030.43847  24218295.37347
 -14621648.99606  21757824.18906 -11391672.39948  21757822.38548
 08 11 15  1 58  0.0020000  0  8  3  6  7 13 16 19 23 25
  -4703344.60507  20719006.15807  -3717743.92748  20719005.22148
   3411365.41407  21728937.08807   2661594.35748  21728935.96348
 -10982326.03507  22452699.58807  -8554800.04348  22452697.24048
    758639.04304  23562755.78304    595287.39846  23562754.12746
  14338394.16806  23210207.11906  11188512.46347  23210204.53347
 -16503765.17207  20954204.40007 -12856704.01049  20954200.53349
  13178039.68006  24237232.19706  10269563.01547  24237229.22547
 -14647016.85207  21752997.08007 -11411439.56748  21752995.77148
 08 11 15  1 58 30.0020000  0  8  3  6  7 13 16 19 23 25
  -4656357.00006  20727947.84606  -3681130.21148  20727946.63148
   3476814.94107  21741391.76807   2712593.97448  21741390.84648
 -11046740.88707  22440442.00207  -8604993.41648  22440439.42448
    833871.25005  23577072.15005    653909.93746  23577070.24446
  14410003.40606  23223833.92406  11244311.84447  23223831.18947
 -16517679.62906  20951556.76006 -12867546.44449  20951553.38149
  13277636.18805  24256184.50205  10347170.64046  24256181.05746
 -14671927.50807  21748256.97907 -11430850.47548  21748255.08448
 08 11 15  1 59  0.0020000  0  8  3  6  7 13 16 19 23 25
  -4608995.87907  20736960.50207  -3644225.45848  20736958.67048
   3542513.33607  21753893.87707   2763787.52648  21753891.86148
 -11110774.53907  22428256.19707  -8654889.77548  22428254.32648
    909475.48404  23591458.86904    712822.28846  23591457.69346
  14481753.62506  23237487.40806  11300221.04447  23237484.63547
 -16531143.96907  20948994.82207 -12878038.13649  20948990.72149
  13377347.62905  24275159.21305  10424867.79447  24275156.14647
 -14696357.78507  21743608.27507 -11449887.06448  21743606.19348
 08 11 15  1 59 30.0020000  0  9  3  6  7 13 16 19 23 25 27
  -4561276.43007  20746041.16607  -3607041.49948  20746039.51848
   3608445.30507  21766440.39307   2815163.05648  21766438.91248
 -11174437.85507  22416141.95507  -8704497.56248  22416139.91248
    985435.00405  23605913.55705    772011.46346  23605912.53346
  14553631.14106  23251164.84606  11356229.45647  23251163.07247
 -16544172.44507  20946515.38507 -12888190.21849  20946511.44749
  13477156.98405  24294152.35405  10502641.29146  24294149.22946
 -14720319.54307  21739048.14307 -11468558.57548  21739046.02948
    -74887.05515  23842245.34605    -53422.45357  23842244.01447
 08 11 15  2  0  0.0020000  0  9  3  6  7 13 16 19 23 25 27
  -4513184.91007  20755192.62707  -3569567.59348  20755191.28748
   3674624.16307  21779033.55707   2866731.02648  21779032.91248
 -11237713.09807  22404100.81407  -8753802.93448  22404098.60448
   1061762.13305  23620438.50205    831487.13346  23620436.35046
  14625651.03206  23264869.83806  11412348.88347  23264867.07247
 -16556749.81607  20944121.64307 -12897990.75549  20944118.29949
  13577076.35005  24313166.30705  10580500.56647  24313163.19747
 -14743796.17607  21734581.12707 -11486852.04348  21734579.25248
   -148038.78505  23828325.69705   -110423.82447  23828324.81447
 08 11 15  2  0 30.0020000  0  9  3  6  7 13 16 19 23 25 27
  -4464727.14107  20764413.78307  -3531808.29948  20764412.92848
   3741044.78106  21791672.93906   2918487.29048  21791671.07648
 -11300601.13307  22392133.52507  -8802806.59348  22392131.60448
   1138450.07005  23635032.14305    891243.92546  23635029.19346
  14697810.10906  23278601.48606  11468576.66447  23278599.48247
 -16568880.34407  20941813.35407 -12907443.11749  20941809.88149
  13677098.80106  24332200.16606  10658440.04446  24332197.10746
 -14766789.55907  21730205.21307 -11504768.95948  21730203.37748
   -220956.09405  23814449.47105   -167242.47447  23814449.30747
 08 11 15  2  1  0.0020000  0  9  3  6  7 13 16 19 23 25 27
  -4415922.42207  20773700.93907  -3493778.63948  20773700.01448
   3807687.52006  21804354.79906   2970416.68348  21804353.28348
 -11363117.07006  22380237.58806  -8851520.31048  22380234.93948
   1215478.36305  23649690.22905    951265.92347  23649688.10047
  14770090.61706  23292356.34606  11524899.10847  23292354.08847
 -16580582.36707  20939586.52507 -12916561.56249  20939582.85749
  13777203.60506  24351249.97106  10736443.72647  24351247.15047
 -14789315.91406  21725918.39306 -11522321.99148  21725916.49048
   -293654.31606  23800616.03306   -223890.43347  23800614.94747
 08 11 15  2  1 30.0020000  0  9  3  6  7 13 16 19 23 25 27
  -4366781.53107  20783052.11907  -3455487.04548  20783050.73248
   3874541.97706  21817076.53306   3022511.03048  21817075.62348
 -11425267.28507  22368410.27507  -8899949.04248  22368409.02548
   1292834.97705  23664410.86105   1011543.78147  23664409.26447
  14842483.84006  23306131.53306  11581309.41147  23306130.09647
 -16591865.33607  20937439.29907 -12925353.50149  20937435.75649
  13877378.55505  24370312.43205  10814502.08846  24370309.15046
 -14811382.59007  21721719.43207 -11539516.81348  21721718.02948
   -366140.00006  23786822.91606   -280372.79447  23786820.81847
 08 11 15  2  2  0.0020000  0  9  3  6  7 13 16 19 23 25 27
  -4317286.75407  20792470.98607  -3416919.69748  20792468.77548
   3941625.35506  21829842.12706   3074783.78248  21829840.41248
 -11487030.04307  22356657.38507  -8948075.86548  22356655.18648
   1370535.81305  23679197.00205   1072089.87947  23679195.36147
  14915008.84006  23319932.93206  11637822.36747  23319930.96747
 -16602710.12507  20935375.81407 -12933803.98149  20935372.05349
  13977639.42605  24389391.43205  10892627.41746  24389387.09246
 -14832968.90207  21717612.12707 -11556337.32248  21717609.84248
   -438391.78906  23773072.94706   -336672.88847  23773072.94747
 08 11 15  2  2 30.0020000  0  9  3  6  7 13 16 19 23 25 27
  -4267436.00007  20801957.27507  -3378074.96048  20801955.46748
   4008939.82407  21842651.93207   3127236.58948  21842650.07648
 -11548398.71107  22344979.46307  -8995895.59748  22344977.58048
   1448582.05105  23694047.98605   1132905.04946  23694046.85446
  14987670.14806  23333759.69706  11694441.53647  23333759.15447
 -16613113.49207  20933395.90807 -12941910.50049  20933391.81449
  14077987.27005  24408487.01805  10970820.49546  24408483.06446
 -14854069.40607  21713596.06407 -11572779.27348  21713594.90448
   -510402.95306  23759370.16606   -392785.50547  23759368.96347
 08 11 15  2  3  0.0020000  0  9  3  6  7 13 16 19 23 25 27
  -4217229.78507  20811511.46307  -3338953.25548  20811509.12748
   4076484.93807  21855505.22907   3179869.12548  21855503.71348
 -11609369.78507  22333377.15807  -9043405.52148  22333374.72548
   1526971.32805  23708965.63505   1193987.62146  23708963.32646
  15060468.43006  23347612.56406  11751167.40947  23347612.13147
 -16623075.05507  20931500.53307 -12949672.76649  20931496.52949
  14178419.56306  24427598.02506  11049079.41646  24427595.01046
 -14874681.64807  21709673.95507 -11588840.77648  21709672.36148
   -582170.34006  23745713.28306   -448708.11047  23745712.62347
 08 11 15  2  3 30.0020000  0  9  3  6  7 13 16 19 23 25 27
  -4166671.99607  20821132.36907  -3299557.56248  20821130.34248
   4144256.94507  21868402.07207   3232678.46748  21868400.88948
 -11669942.74207  22321850.90007  -9090605.21248  22321848.41248
   1605698.83605  23723946.27505   1255333.71146  23723944.29146
  15133401.86706  23361492.17406  11807998.61247  23361491.20147
 -16632597.55907  20929688.47107 -12957092.90549  20929684.40849
  14278931.36705  24446725.43205  11127400.23547  24446721.92847
 -14894806.14507  21705844.74407 -11604522.20448  21705842.93948
   -653693.63306  23732103.02506   -504440.54247  23732101.47947
 08 11 15  2  4  0.0020000  0  9  3  6  7 13 16 19 23 25 27
  -4115759.32007  20830819.83007  -3259885.36148  20830818.82648
   4212259.46107  21881342.05707   3285667.42348  21881341.24048
 -11730109.13707  22310401.15807  -9137488.12648  22310399.10748
   1684766.91005  23738992.25205   1316945.14646  23738990.26046
  15206476.11306  23375398.38506  11864939.54247  23375395.85747
 -16641675.58207  20927960.74407 -12964166.68849  20927957.15449
  14379525.00405  24465867.22905  11205784.75746  24465864.82646
 -14914435.82807  21702109.08807 -11619818.05948  21702107.31148
   -724964.84806  23718540.49406   -559976.54447  23718539.71747
 08 11 15  2  4 30.0020000  0  9  3  6  7 13 16 19 23 25 27
  -4064510.24607  20840572.65007  -3219951.01748  20840572.15848
   4280473.74607  21894322.82207   3338821.40648  21894322.24448
 -11789884.20307  22299026.91607  -9184066.10948  22299024.33048
   1764155.31305  23754099.29105   1378806.22046  23754098.15446
  15279674.01206  23389327.14306  11921976.83047  23389324.16647
 -16650327.00807  20926314.64307 -12970908.07449  20926310.90849
  14480180.18405  24485021.68905  11284217.30447  24485019.19747
 -14933586.45307  21698464.97907 -11634740.63848  21698463.06448
   -795998.65606  23705022.88506   -615327.53947  23705021.74847
 08 11 15  2  5  0.0020000  0  9  3  6  7 13 16 19 23 25 27
  -4012912.95307  20850391.27507  -3179745.32548  20850389.82648
   4348911.58207  21907346.09607   3392149.57948  21907345.59248
 -11849251.20307  22287729.42407  -9230326.10448  22287726.72548
   1843874.58204  23769268.89304   1440925.08146  23769268.04546
  15353009.49606  23403281.92406  11979121.31247  23403279.53747
 -16658539.11307  20924752.02507 -12977307.11149  20924748.54949
  14580907.14506  24504189.11906  11362705.81347  24504186.73647
 -14952243.05907  21694914.74407 -11649278.24848  21694913.04948
   -866779.05106  23691554.11906   -670481.08947  23691553.27947
 08 11 15  2  5 30.0020000  0  9  3  6  7 13 16 19 23 25 27
  -3960960.88307  20860276.93907  -3139263.20548  20860276.10448
   4417579.96107  21920413.50207   3445657.39248  21920412.40848
 -11908199.05107  22276511.72107  -9276259.48148  22276509.40048
   1923929.94105  23784503.58805   1503305.83846  23784502.43246
  15426490.96106  23417264.76806  12036379.56947  23417262.69347
 -16666303.19507  20923274.89307 -12983357.05149  20923270.56849
  14681711.18405  24523371.76005  11441254.32846  24523368.97146
 -14970395.69907  21691460.31407 -11663423.17048  21691458.74048
   -937295.23406  23678135.16606   -725428.76647  23678134.19747
 08 11 15  2  6  0.0020000  0  9  3  6  7 13 16 19 23 25 27
  -3908650.74607  20870231.73607  -3098502.08748  20870230.50248
   4486481.92207  21933525.01807   3499347.19748  21933524.19348
 -11966720.66407  22265375.44707  -9321860.75048  22265372.03748
   2004323.60504  23799801.84604   1565950.28046  23799800.40446
  15500123.44106  23431276.83006  12093755.52047  23431274.07647
 -16673615.48007  20921883.09607 -12989054.93049  20921878.88949
  14782594.19105  24542569.07205  11519864.36547  24542567.20947
 -14988038.10207  21688103.61907 -11677170.50748  21688101.41648
  -1007539.85906  23664767.57206   -780164.83547  23664767.32247
 08 11 15  2  6 30.0020000  0  8  3  6  7 13 16 19 25 27
  -3855969.94507  20880256.59607  -3057452.11548  20880254.72948
   4555630.17607  21946683.76007   3553228.96648  21946682.66248
 -12024798.89807  22254323.54107  -9367116.50748  22254320.20148
   2085066.42604  23815167.11904   1628866.68646  23815165.41246
  15573921.37106  23445320.56406  12151260.38147  23445318.65847
 -16680462.22307  20920580.31407 -12994390.05249  20920575.99049
 -15005154.56307  21684845.90807 -11690508.00048  21684844.28348
  -1077496.16006  23651455.39306   -834676.18847  23651454.80347
 08 11 15  2  7  0.0020000  0  8  3  6  7 13 16 19 25 27
  -3802966.49607  20890342.84607  -3016150.73948  20890341.94348
   4624976.85507  21959880.36907   3607265.30348  21959878.39348
 -12082477.56307  22243347.48607  -9412060.91748  22243345.01848
   2166109.10204  23830588.51004   1692016.78846  23830588.79546
  15647838.57406  23459386.04906  12208858.15047  23459384.02147
 -16686890.24207  20919356.77507 -12999398.89449  20919352.34649
 -15021789.85907  21681680.40007 -11703470.57148  21681678.57248
  -1147208.03906  23638190.33806   -888997.13747  23638188.70947
 08 11 15  2  7 30.0020000  0  8  3  6  7 13 16 19 25 27
  -3749605.44507  20900497.28307  -2974570.70048  20900495.48248
   4694556.86707  21973120.91607   3661483.48048  21973119.72948
 -12139717.57007  22232455.45507  -9456663.52248  22232452.52948
   2247485.30505  23846074.97905   1755426.76946  23846073.48646
  15721911.81606  23473482.10406  12266577.56047  23473480.36147
 -16692863.37906  20918220.13506 -13004053.28049  20918216.06449
 -15037906.19107  21678613.23607 -11716028.74948  21678611.44348
  -1216636.44906  23624977.69706   -943097.17647  23624976.58047
 08 11 15  2  8  0.0020000  0  8  3  6  7 13 16 19 25 27
  -3695917.27707  20910713.58807  -2932735.77948  20910712.77948
   4764339.88307  21986399.92407   3715859.84948  21986398.43948
 -12196544.93407  22221641.47907  -9500944.59048  22221638.79548
   2329162.97305  23861617.64305   1819071.70046  23861616.03346
  15796112.90206  23487601.61106  12324396.57047  23487599.95147
 -16698411.03507  20917164.51007 -13008376.13149  20917160.29549
 -15053530.73007  21675640.40007 -11728203.71248  21675638.60048
  -1285807.52306  23611816.14306   -996996.71447  23611814.39647
 08 11 15  2  8 30.0020000  0  8  3  6  7 13 16 19 25 27
  -3641895.51207  20920993.85407  -2890640.89248  20920992.34248
   4834332.25007  21999719.08007   3770399.35448  21999717.58848
 -12252949.02707  22210907.84607  -9544895.82248  22210905.93648
   2411147.46505  23877218.36905   1882955.68746  23877215.10746
  15870449.37506  23501747.58806  12382321.03447  23501745.71747
 -16703525.89507  20916191.17407 -13012361.72149  20916187.38949
 -15068654.03107  21672762.39307 -11739988.10648  21672760.14348
  -1354710.63706  23598703.25206  -1050687.43247  23598702.16247
 08 11 15  2  9  0.0020000  0  8  3  6  7 13 16 19 25 27
  -3587534.01607  20931338.43907  -2848281.29048  20931336.95548
   4904540.75007  22013079.29907   3825107.24448  22013078.00248
 -12308918.95707  22200257.18207  -9588508.77248  22200255.35748
   2493443.78604  23892878.52504   1947082.65245  23892876.92445
  15944929.95306  23515920.47106  12440357.83647  23515919.49847
 -16708200.25807  20915301.79107 -13016004.09449  20915298.23649
 -15083266.60207  21669981.83007 -11751374.53948  21669980.08448
  -1423335.10506  23585645.04106  -1104161.03747  23585643.24047
 08 11 15  2  9 30.0020000  0  8  3  6  7 13 16 19 25 27
  -3532837.78106  20941746.57206  -2805660.87048  20941745.33448
   4974960.14806  22026479.22906   3879979.50148  22026478.24448
 -12364455.83607  22189688.82207  -9631784.26048  22189686.58448
   2576045.13704  23908596.08804   2011447.36145  23908594.54945
  16019551.35506  23530120.57206  12498504.34747  23530118.70547
 -16712438.18407  20914495.17407 -13019306.35849  20914492.05749
 -15097370.65207  21667297.70507 -11762364.70748  21667295.92048
  -1491682.02006  23572639.11906  -1157418.38647  23572637.30347
 08 11 15  2 10  0.0020000  0  9  3  6  7 11 13 16 19 25 27
  -3477802.10207  20952220.04907  -2762775.92948  20952218.31848
   5045595.48407  22039921.10407   3935019.99548  22039919.49448
 -12419550.49607  22179204.35407  -9674715.16048  22179202.65848
   -105709.76615  24674766.01005    -73664.57056  24674763.53346
   2658955.25804  23924374.72104   2076052.52745  23924371.73245
  16094320.35505  23544348.52505  12556765.86747  23544346.25247
 -16716233.63707  20913773.15007 -13022263.85549  20913769.30749
 -15110958.15607  21664712.04907 -11772952.39048  21664710.01448
  -1559742.46906  23559687.67406  -1210452.48347  23559686.06147
 08 11 15  2 10 30.0020000  0  9  3  6  7 11 13 16 19 25 27
  -3422428.64806  20962756.90806  -2719627.79948  20962755.51848
   5116444.72707  22053403.49407   3990227.17348  22053401.58848
 -12474200.97307  22168805.01007  -9717299.94748  22168801.95548
   -210632.39506  24654799.65806   -155422.35146  24654797.62746
   2742170.34402  23940209.19702   2140895.46545  23940206.95945
  16169236.40606  23558605.24406  12615141.92947  23558603.50247
 -16719587.97706  20913134.76006 -13024877.62849  20913131.48249
 -15124028.48807  21662224.91607 -11783137.07148  21662222.96348
  -1627514.51606  23546790.49406  -1263261.86847  23546789.79147
 08 11 15  2 11  0.0020000  0  9  3  6  7 11 13 16 19 25 27
  -3366738.78107  20973354.36107  -2676233.10748  20973352.85748
   5187486.79307  22066921.89307   4045584.61048  22066920.43248
 -12528424.05907  22158486.56407  -9759551.71148  22158484.50648
   -315514.46505  24634840.41605   -237148.54446  24634838.29146
   2825668.13703  23956098.28303   2205958.56345  23956096.97145
  16244280.37106  23572885.59606  12673617.74747  23572883.51847
 -16722521.06607  20912576.32207 -13027163.15549  20912573.26849
 -15136599.56607  21659833.06407 -11792932.74148  21659831.00248
  -1695015.15606  23533945.31406  -1315859.78647  23533944.69747
 08 11 15  2 11 30.0020000  0  9  3  6  7 11 13 16 19 25 27
  -3310720.31607  20984014.33007  -2632582.38048  20984013.27948
   5258734.23807  22080480.03307   4101102.08148  22080478.41648
 -12582203.17207  22148253.25207  -9801457.51048  22148250.01848
   -420339.32006  24614893.35406   -318830.10146  24614891.12746
   2909459.37904  23972043.50204   2271250.47345  23972042.31845
  16319466.38706  23587193.20506  12732204.22747  23587191.21347
 -16725019.81307  20912101.08807 -13029110.22549  20912097.06149
 -15148656.18007  21657538.51807 -11802327.49248  21657537.31848
  -1762227.75006  23521155.04906  -1368233.21447  23521154.66247
 08 11 15  2 12  0.0020000  0  9  3  6  7 11 13 16 19 25 27
  -3254361.49207  20994738.65807  -2588666.41048  20994737.71348
   5330198.84807  22094079.56407   4156788.77448  22094077.97148
 -12635522.27707  22138106.86907  -9843004.84848  22138104.27148
   -525091.15606  24594959.41606   -400454.87346  24594957.95546
   2993554.50805  23988047.22905   2336779.04546  23988045.67046
  16394808.03106  23601529.90806  12790911.94347  23601528.31147
 -16727071.28107  20911710.79907 -13030708.76749  20911706.37749
 -15160183.71107  21655345.04107 -11811309.98448  21655343.22548
  -1829136.38706  23508422.99406  -1420369.79947  23508422.13947
 08 11 15  2 12 30.0020000  0  9  3  6  7 11 13 16 19 25 27
  -3197729.83607  21005515.56407  -2544537.86348  21005513.97148
   5401812.91407  22107707.40807   4212591.90348  22107705.34248
 -12688444.89107  22128035.99407  -9884243.25648  22128033.75248
   -629833.24606  24575028.06406   -482071.94846  24575026.47146
   3077884.23405  24004095.68205   2402490.51046  24004094.15846
  16470239.55106  23615883.83806  12849689.72447  23615882.56847
 -16728742.32807  20911392.40807 -13032010.89449  20911389.05749
 -15171246.91407  21653239.69707 -11819930.67148  21653238.05348
  -1895804.41806  23495737.25206  -1472318.94347  23495734.88547
 08 11 15  2 13  0.0020000  0  9  3  6  7 11 13 16 19 25 27
  -3140777.44107  21016353.25207  -2500159.38948  21016352.68948
   5473624.85907  22121372.45507   4268549.28048  22121371.74048
 -12740918.92607  22118050.35407  -9925132.10248  22118048.92848
   -734513.45705  24555107.89305   -563640.78646  24555105.57646
   3162495.16405  24020195.40805   2468421.05946  24020194.33846
  16545810.65606  23630265.26806  12908576.27847  23630262.18647
 -16729983.67607  20911156.41607 -13032978.17849  20911152.83849
 -15181794.82807  21651232.79907 -11828149.83148  21651230.53748
  -1962180.06606  23483105.40006  -1524040.21547  23483105.07647
 08 11 15  2 13 30.0020000  0  9  3  6  7 11 13 16 19 25 27
  -3083524.95306  21027248.28306  -2455547.07348  21027246.47548
   5545613.92207  22135071.52507   4324644.59948  22135070.04148
 -12792960.66407  22108147.08807  -9965684.11248  22108145.46748
   -839147.98006  24535196.65006   -645174.13046  24535194.57246
   3247365.59004  24036346.43904   2534553.78946  24036345.44746
  16621502.97306  23644668.61106  12967557.28747  23644667.47147
 -16730815.23407  20910998.36107 -13033626.14749  20910994.55749
 -15191845.13707  21649320.26007 -11835981.24948  21649318.25248
  -2028279.54306  23470527.90006  -1575546.29047  23470526.51047
 08 11 15  2 14  0.0020000  0  9  3  6  7 11 13 16 19 25 27
  -3025955.03907  21038203.33807  -2410687.40648  21038201.89348
   5617797.64807  22148807.61107   4380891.65048  22148805.63948
 -12844548.75407  22098330.45507 -10005882.61348  22098328.37748
   -943715.12906  24515298.02506   -726654.93546  24515296.65846
   3332510.90604  24052548.29104   2600900.67045  24052547.60045
  16697335.46106  23659099.07206  13026647.52047  23659097.22547
 -16731218.28507  20910921.94707 -13033940.22949  20910917.76849
 -15201377.74607  21647506.07207 -11843409.26748  21647504.52148
  -2094081.38306  23458006.37706  -1626820.47248  23458004.33848
 08 11 15  2 14 30.0020000  0  9  3  6  7 11 13 16 19 25 27
  -2968072.52307  21049217.86907  -2365584.18148  21049217.11548
   5690171.32007  22162580.43207   4437286.69448  22162578.06148
 -12895684.29307  22088599.54107 -10045728.50248  22088597.17448
  -1048215.35905  24495412.02505   -808083.54546  24495410.39346
   3417925.18005  24068803.17405   2667457.35545  24068799.41645
  16773304.62106  23673555.53306  13085844.28647  23673553.19747
 -16731197.08207  20910925.76807 -13033923.71949  20910921.24849
 -15210394.71507  21645790.10407 -11850435.49448  21645788.75648
  -2159586.23806  23445541.25206  -1677863.20948  23445539.73248
 08 11 15  2 15  0.0020000  0  9  3  6  7 11 13 16 19 25 27
  -2909900.65607  21060287.66607  -2320255.44048  21060286.42048
   5762711.94507  22176383.73607   4493811.86848  22176381.92048
 -12946385.59407  22078951.77507 -10085235.99948  22078949.07248
  -1152667.91806  24475534.81406   -889475.05246  24475533.38546
   3503583.54305  24085102.53305   2734204.04545  24085100.41245
  16849389.63306  23688033.18906  13145131.25647  23688031.95947
 -16730773.77007  20911006.24407 -13033593.85149  20911002.35449
 -15218916.20307  21644168.69707 -11857075.60948  21644167.24848
  -2224813.16406  23433128.86906  -1728689.36847  23433127.45947
 08 11 15  2 15 30.0020000  0  9  3  6  7 11 13 16 19 25 27
  -2851426.84807  21071414.82207  -2274691.45548  21071413.69748
   5835432.20707  22190222.52507   4550476.97148  22190220.32248
 -12996636.39807  22069388.83807 -10124392.44548  22069386.87748
  -1257055.83606  24455671.03306   -970816.16146  24455669.32246
   3589497.13305  24101451.11905   2801149.64845  24101448.61945
  16925604.71105  23702537.33805  13204519.58347  23702536.65047
 -16729935.08607  20911166.04107 -13032940.33949  20911161.93649
 -15226927.14107  21642643.85407 -11863317.91048  21642642.38548
  -2289745.71906  23420772.29906  -1779286.14947  23420771.34647
 08 11 15  2 16  0.0020000  0  9  3  6  7 11 13 16 19 25 27
  -2792654.49207  21082599.40007  -2228894.83248  21082597.46748
   5908328.83207  22204094.04107   4607279.52548  22204091.93648
 -13046435.35907  22059912.22107 -10163196.84448  22059910.33848
  -1361378.06306  24435818.75206  -1052106.14447  24435817.72547
   3675661.27005  24117847.96305   2868290.65045  24117845.61945
  17001948.42206  23717064.79906  13264008.13047  23717063.98247
 -16728683.27707  20911404.09607 -13031964.90249  20911400.42049
 -15234427.93007  21641216.61107 -11869162.69148  21641215.63948
  -2354383.05506  23408472.47906  -1829652.89547  23408471.26847
 08 11 15  2 16 30.0020000  0  9  3  6  7 11 13 16 19 25 27
  -2733613.10207  21093833.99407  -2182888.57048  21093832.57648
   5981372.77307  22217994.08007   4664196.87348  22217992.31148
 -13095808.21907  22050517.03307 -10201669.21948  22050515.63948
  -1465659.70706  24415974.94706  -1133364.46946  24415973.22946
   3762045.11305  24134286.33005   2935602.56445  24134284.74445
  17078393.24206  23731612.31406  13323575.49047  23731610.47947
 -16727046.68007  20911715.76807 -13030689.63349  20911711.58049
 -15241445.16007  21639881.90007 -11874630.66148  21639880.09648
  -2418750.06606  23396224.18206  -1879808.99348  23396222.45548
 08 11 15  2 17  0.0020000  0  9  3  6  7 11 13 16 19 25 27
  -2674275.81607  21105125.33007  -2136651.74248  21105124.10748
   6054590.70307  22231926.86907   4721249.80048  22231924.68948
 -13144724.35207  22041208.82207 -10239785.68148  22041206.24848
  -1569869.94106  24396144.40806  -1214567.15946  24396142.86146
   3848673.50804  24150770.51804   3003105.13145  24150769.12345
  17154967.48806  23746183.72906  13383243.72547  23746181.18647
 -16724998.14507  20912105.48607 -13029093.38049  20912101.47149
 -15247949.52007  21638643.90807 -11879699.00848  21638642.24048
  -2482816.17606  23384032.34606  -1929730.65547  23384031.07647
 08 11 15  2 17 30.0020000  0  9  3  6  7 11 13 16 19 25 27
  -2614628.28107  21116476.05707  -2090173.13748  21116475.14348
   6127997.37906  22245895.97906   4778449.79148  22245894.07248
 -13193164.91407  22031990.84607 -10277531.58448  22031989.23648
  -1673989.76205  24376330.61905  -1295699.39846  24376329.21346
   3935559.84005  24167305.48605   3070808.74446  24167304.53346
  17231687.38706  23760782.41606  13443025.43547  23760780.60747
 -16722522.09807  20912576.72907 -13027163.99349  20912572.51449
 -15253923.78107  21637507.26807 -11884354.27748  21637505.15448
  -2546562.98806  23371902.09606  -1979403.44448  23371900.57248
 08 11 15  2 18  0.0020000  0  9  3  6  7 11 13 16 19 25 27
  -2554663.82807  21127886.93907  -2043447.61348  21127885.63148
   6201599.44506  22259901.58806   4835802.02748  22259900.14348
 -13241119.32406  22022865.46306 -10314898.65248  22022862.97148
  -1778008.25006  24356536.54106  -1376752.70646  24356534.97146
   4022709.26605  24183889.01005   3138717.31146  24183888.24046
  17308561.84406  23775412.08806  13502927.59147  23775409.78747
 -16719610.88707  20913130.40807 -13024895.52949  20913126.22949
 -15259358.48007  21636472.74407 -11888589.11948  21636470.63948
  -2609979.43006  23359834.39306  -2028818.85748  23359832.63548
 08 11 15  2 18 30.0020000  0  9  3  6  7 11 13 16 19 25 27
  -2494385.36307  21139357.67407  -1996477.38148  21139356.19748
   6275394.39506  22273944.33006   4893304.57048  22273943.38148
 -13288586.41007  22013832.64307 -10351886.00748  22013830.75248
  -1881924.04706  24336762.06406  -1457726.01046  24336760.26046
   4110117.41004  24200522.73604   3206827.54146  24200521.08046
  17385589.37106  23790070.18906  13562949.02747  23790068.06447
 -16716266.55107  20913766.79107 -13022289.55449  20913763.22949
 -15264253.84007  21635540.84607 -11892403.69148  21635538.70148
  -2673064.41806  23347829.63506  -2077976.00048  23347828.13148
 08 11 15  2 19  0.0020000  0  9  3  6  7 11 13 16 19 25 27
  -2433838.41807  21150879.57207  -1949297.96848  21150878.54148
   6349336.46106  22288015.06406   4950921.74848  22288014.49848
 -13335607.68007  22004884.64307 -10388525.94948  22004882.86948
  -1985778.68406  24316999.23606  -1538651.62347  24316997.93647
   4197736.68804  24217195.60404   3275102.26246  24217194.83046
  17462726.34006  23804747.78306  13623055.71047  23804746.41647
 -16712534.34807  20914477.39307 -13019381.35449  20914473.27949
 -15268653.11307  21634703.72107 -11895831.70848  21634701.96348
  -2735859.45706  23335879.78306  -2126907.20247  23335878.63547
 08 11 15  2 19 30.0020000  0  9  3  6  7 11 13 16 19 25 27
  -2373013.42607  21162454.28307  -1901901.87648  21162452.45548
   6423435.94107  22302115.38507   5008661.60848  22302114.14648
 -13382169.32807  21996024.47907 -10424807.75848  21996022.13548
  -2089557.68406  24297250.73606  -1619518.35846  24297248.99046
   4285575.95704  24233909.66604   3343548.43545  24233909.53745
  17539984.35206  23819450.36906  13683256.76347  23819447.49447
 -16708403.33607  20915263.06407 -13016162.37249  20915259.24049
 -15272543.62107  21633963.99407 -11898863.27548  21633961.97948
  -2798350.60206  23323988.40006  -2175601.58448  23323987.44748
 08 11 15  2 20  0.0020000  0  9  3  6  7 11 13 16 19 25 27
  -2311919.06607  21174080.22107  -1854295.88348  21174078.85748
   6497684.39506  22316244.49406   5066517.51848  22316243.43248
 -13428275.93407  21987251.15807 -10460735.00148  21987248.52948
  -2193265.43006  24277515.59606  -1700329.50847  24277514.34247
   4373624.84804  24250665.55704   3412157.94546  24250664.82646
  17617356.62906  23834173.67406  13743546.78647  23834172.02947
 -16703881.27307  20916123.49407 -13012638.69149  20916120.11149
 -15275931.40607  21633318.96307 -11901503.12048  21633317.54548
  -2860542.43006  23312153.29906  -2224062.71947  23312153.01847
 08 11 15  2 20 30.0020000  0  9  3  6  7 11 13 16 19 25 27
  -2250536.56307  21185760.51007  -1806465.36548  21185759.45548
   6572100.10907  22330405.85407   5124503.80548  22330404.18648
 -13473905.03507  21978567.61907 -10496290.11848  21978566.14348
  -2296879.42206  24257798.54106  -1781067.66247  24257796.49847
   4461900.49603  24267462.79903   3480944.04946  24267463.72546
  17694863.20306  23848922.53306  13803941.51347  23848921.17847
 -16698949.01607  20917062.02507 -13008795.36749  20917058.54949
 -15278795.40207  21632774.04107 -11903734.79648  21632773.02548
  -2922412.50806  23300379.77506  -2272273.16847  23300378.37347
 08 11 15  2 21  0.0020000  0  9  3  6  7 11 13 16 19 25 27
  -2188863.11307  21197496.72107  -1758408.14948  21197495.50248
   6646686.57006  22344598.73606   5182623.08848  22344597.96748
 -13519049.78107  21969977.17407 -10531467.84348  21969974.82648
  -2400392.41806  24238100.49406  -1861727.06246  24238098.60446
   4550404.06604  24284306.73604   3549907.79246  24284306.81146
  17772509.20706  23863697.78306  13864444.85647  23863697.04947
 -16693602.55507  20918079.96307 -13004629.30749  20918075.61549
 -15281130.21107  21632329.68207 -11905554.14648  21632328.56448
  -2983953.67306  23288668.99406  -2320227.35748  23288668.08848
 08 11 15  2 21 30.0020000  0  9  3  6  7 11 13 16 19 25 27
  -2126897.39507  21209287.93907  -1710123.18148  21209287.36948
   6721445.01207  22358825.22107   5240876.39348  22358823.67448
 -13563705.19906  21961479.36906 -10566264.26848  21961477.03348
  -2503798.75406  24218422.82206  -1942303.41546  24218421.94746
   4639135.23404  24301192.02504   3619048.93246  24301190.29546
  17850297.50006  23878500.97106  13925059.04947  23878498.88147
 -16687840.32807  20919176.26807 -13000139.25449  20919171.85749
 -15282932.11307  21631986.64307 -11906958.23748  21631985.90048
  -3045160.81606  23277021.18906  -2367921.18847  23277020.67047
 08 11 15  2 22  0.0020000  0  9  3  6  7 11 13 16 19 25 27
  -2064662.91407  21221131.11907  -1661628.81148  21221129.51848
   6796352.66006  22373079.97106   5299245.95648  22373077.82648
 -13607889.88706  21953071.04906 -10600693.89148  21953068.81448
  -2607116.98406  24198762.56406  -2022811.10846  24198760.65446
   4728069.80505  24318114.54905   3688348.55046  24318114.26046
  17928206.72706  23893326.76806  13985767.56247  23893325.10447
 -16681684.33607  20920347.53307 -12995342.38649  20920343.51849
 -15284221.41807  21631741.68907 -11907962.89248  21631739.59648
  -3106052.62906  23265434.08006  -2415369.36947  23265432.76047
 08 11 15  2 22 30.0020000  0  9  3  6  7 11 13 16 19 25 27
  -2002118.16507  21233033.15007  -1612892.60348  21233031.38548
   6871451.12506  22387369.95506   5357764.26248  22387368.56848
 -13651558.64906  21944760.73606 -10634721.47148  21944759.30348
  -2710301.64105  24179126.97105  -2103214.74846  24179124.75646
   4817247.45705  24335085.08805   3757837.56346  24335084.47146
  18006280.09806  23908184.17406  14046603.94847  23908182.11947
 -16675092.43807  20921601.78307 -12990205.83449  20921598.09649
 -15284954.46407  21631602.26007 -11908534.07448  21631599.75248
  -3166583.92106  23253915.43206  -2462536.58748  23253914.11948
 08 11 15  2 23  0.0020000  0  9  3  6  7 11 13 16 19 25 27
  -1939282.12507  21244990.30707  -1563929.50748  21244989.04548
   6946721.33606  22401693.50206   5416416.33548  22401692.33848
 -13694726.94106  21936546.33006 -10668359.14548  21936543.79948
  -2813367.85905  24159514.04905  -2183526.02547  24159512.71347
   4906647.52305  24352097.40005   3827499.82245  24352095.42845
  18084499.98406  23923068.48606  14107554.44947  23923066.51047
 -16668083.27707  20922935.71307 -12984744.16549  20922932.15049
 -15285147.84007  21631565.51807 -11908684.78448  21631562.45548
  -3226769.59806  23242462.33806  -2509434.55448  23242461.63148
 08 11 15  2 23 30.0020000  0  9  3  6  7 11 13 16 19 25 27
  -1876160.87107  21257001.61907  -1514744.11548  21256999.98248
   7022157.37106  22416048.51806   5475197.68148  22416047.62748
 -13737396.99206  21928426.74406 -10701608.53448  21928424.69748
  -2916317.08605  24139922.98605  -2263746.19046  24139921.90046
   4996262.41005  24369150.38505   3897329.61145  24369148.51045
  18162862.04706  23937980.16606  14168615.78647  23937978.26447
 -16660662.33607  20924348.36907 -12978961.61349  20924344.51849
 -15284805.27707  21631630.55707 -11908417.84948  21631627.93648
  -3286611.78106  23231075.06406  -2556064.81848  23231073.32248
 08 11 15  2 24  0.0020000  0 10  3  6  7  8 11 13 16 19 25 27
  -1812764.15207  21269066.42407  -1465344.09248  21269064.70148
   7097749.83606  22430433.09606   5534100.87148  22430432.14648
 -13779574.51607  21920400.63507 -10734474.11548  21920398.16248
   -100489.69915  24904624.17405    -69947.88356  24904622.22546
  -3019154.61304  24120353.24404  -2343879.24346  24120351.91646
   5086080.94105  24386242.15005   3967317.99245  24386240.44345
  18241358.73406  23952917.75206  14229782.00647  23952915.90047
 -16652838.28907  20925837.21307 -12972864.96449  20925833.31449
 -15283934.02007  21631796.16607 -11907738.95248  21631794.65448
  -3346116.06306  23219751.79906  -2602431.79848  23219750.66648
 08 11 15  2 24 30.0020000  0 10  3  6  7  8 11 13 16 19 25 27
  -1749111.89807  21281178.74407  -1415744.94948  21281177.48648
   7173479.38707  22444844.04907   5593110.89948  22444842.69748
 -13821275.00407  21912465.04907 -10766968.00848  21912463.40848
   -200247.53105  24885640.72905   -147681.26846  24885638.44346
  -3121895.91805  24100802.58805  -2423937.36647  24100801.50647
   5176081.86706  24403369.31406   4037448.50345  24403367.38145
  18319972.21905  23967877.26805  14291039.19347  23967875.63547
 -16644630.35207  20927399.07207 -12966469.17049  20927395.54549
 -15282551.16807  21632059.34607 -11906661.41548  21632058.17048
  -3405297.99606  23208489.58006  -2648547.57348  23208488.52148
 08 11 15  2 25  0.0020000  0 10  3  6  7  8 11 13 16 19 25 27
  -1685167.52307  21293347.03307  -1365918.17548  21293345.92848
   7249382.70706  22459288.73606   5652256.28848  22459287.13148
 -13862458.16007  21904628.14307 -10799058.76148  21904626.31148
   -299831.49205  24866690.80705   -225279.15146  24866688.61146
  -3224500.18005  24081277.87705  -2503888.70946  24081275.87746
   5266300.11305  24420537.15805   4107748.42246  24420535.55746
  18398740.65206  23982866.50206  14352417.14147  23982865.68647
 -16636000.87907  20929041.15807 -12959744.90049  20929037.21749
 -15280617.85507  21632427.01007 -11905154.94348  21632425.48248
  -3464117.12906  23197296.79106  -2694380.63948  23197295.64348
 08 11 15  2 25 30.0020000  0 10  3  6  7  8 11 13 16 19 25 27
  -1620941.59807  21305568.73607  -1315872.00948  21305566.57248
   7325449.55107  22473763.63507   5711529.12248  22473761.95548
 -13903130.71907  21896888.45507 -10830751.67448  21896886.51448
   -399247.57405  24847772.10405   -302746.25446  24847770.68646
  -3326973.62105  24061776.92405  -2583738.07746  24061774.74446
   5356723.80905  24437743.85405   4178208.44445  24437741.57245
  18477655.23806  23997883.56406  14413908.98247  23997881.68247
 -16626959.76207  20930761.70507 -12952699.87949  20930756.93949
 -15278142.28907  21632898.36907 -11903225.95848  21632897.09248
  -3522579.81306  23186171.82206  -2739935.99048  23186170.36948
 08 11 15  2 26  0.0020000  0 10  3  6  7  8 11 13 16 19 25 27
  -1556476.41807  21317835.91607  -1265639.41848  21317833.88548
   7401637.48807  22488261.41607   5770896.34148  22488260.77548
 -13943331.58207  21889238.65807 -10862077.01548  21889236.66648
   -498533.52005  24828878.98605   -380111.87146  24828877.08846
  -3429354.57805  24042295.40805  -2663515.42946  24042292.27946
   5447308.55905  24454981.41605   4248793.85145  24454981.15845
  18556675.24206  24012920.55706  14475483.01647  24012918.56147
 -16617549.12507  20932552.58007 -12945366.91849  20932548.27549
 -15275164.68407  21633464.93207 -11900905.75048  21633463.46348
  -3580724.69506  23175107.22906  -2785243.69248  23175106.17848
 08 11 15  2 26 30.0020000  0 10  3  6  7  8 11 13 16 19 25 27
  -1491733.85506  21330155.90806  -1215190.69848  21330154.47148
   7477984.75806  22502789.76006   5830387.66448  22502788.98648
 -13983018.94507  21881686.32207 -10893002.23348  21881684.29948
   -597647.28904  24810017.38504   -457343.37146  24810015.86946
  -3531600.78106  24022838.61906  -2743187.80147  24022835.99847
   5538090.93405  24472256.45505   4319533.26046  24472256.60746
  18635840.26606  24027985.16606  14537169.99047  24027982.99847
 -16607730.53107  20934420.79907 -12937716.06649  20934416.30349
 -15271644.79306  21634135.13506 -11898162.99148  21634132.88548
  -3638509.83206  23164110.80706  -2830271.07648  23164109.78748
 08 11 15  2 27  0.0020000  0 10  3  6  7  8 11 13 16 19 25 27
  -1426725.86706  21342526.76806  -1164535.13948  21342524.28748
   7554479.87906  22517346.01806   5889994.24448  22517346.31448
 -14022200.66007  21874230.24407 -10923533.43348  21874228.10748
   -696595.48005  24791187.81405   -534445.84146  24791187.18246
  -3633719.82405  24003406.22905  -2822761.03647  24003404.13547
   5629057.76605  24489567.02505   4390416.43645  24489565.92445
  18715140.25806  24043075.38506  14598962.16447  24043072.92447
 -16597514.96107  20936364.54107 -12929755.86949  20936360.63949
 -15267592.04706  21634905.88506 -11895005.00148  21634904.08448
  -3695943.15606  23153181.68906  -2875024.28248  23153180.75648
 08 11 15  2 27 30.0020000  0 10  3  6  7  8 11 13 16 19 25 27
  -1361480.11707  21354942.36907  -1113694.31948  21354941.31848
   7631095.32807  22531925.85407   5949694.56548  22531925.13548
 -14060900.76607  21866866.10407 -10953689.37248  21866864.03348
   -795401.25805  24772386.64305   -611437.35646  24772386.11946
  -3735734.87106  23983992.86906  -2902253.25047  23983991.20147
   5720179.82405  24506908.08805   4461420.67645  24506904.62345
  18794549.64106  24058186.40806  14660839.57347  24058184.71347
 -16586929.36307  20938378.99407 -12921507.37649  20938375.52549
 -15263031.83607  21635774.01007 -11891451.62248  21635771.87348
  -3753048.10206  23142315.40806  -2919521.66848  23142314.15048
 08 11 15  2 28  0.0020000  0 10  3  6  7  8 11 13 16 19 25 27
  -1295966.37507  21367409.36107  -1062644.66348  21367408.10448
   7707861.97707  22546533.79907   6009512.73048  22546533.58048
 -14099084.71507  21859599.99407 -10983443.09748  21859597.95548
   -894029.62105  24753618.42405   -688290.60346  24753617.18646
  -3837611.03506  23964606.51806  -2981637.25747  23964604.67447
   5811485.94505  24524283.18205   4532568.37546  24524280.61146
  18874100.38706  24073324.51806  14722827.14747  24073322.24447
 -16575942.38707  20940469.58807 -12912946.09549  20940465.54949
 -15257931.46107  21636744.36907 -11887477.29548  21636742.31448
  -3809789.94106  23131517.65806  -2963736.05248  23131516.52548
 08 11 15  2 28 30.0020000  0 10  3  6  7  8 11 13 16 19 25 27
  -1230191.09807  21379926.24407  -1011391.22248  21379925.22948
   7784773.58606  22561169.90006   6069443.83748  22561169.07648
 -14136755.30107  21852431.86907 -11012796.80348  21852428.77148
   -992482.44905  24734883.42405   -765007.09146  24734881.70146
  -3939350.82006  23945246.58806  -3060915.00447  23945244.22147
   5902968.23304  24541691.19704   4603853.18346  24541689.18646
  18953787.42606  24088488.43906  14784920.90747  24088485.57647
 -16564560.36307  20942635.49407 -12904076.98849  20942632.05349
 -15252295.11707  21637817.23607 -11883085.34748  21637815.12348
  -3866171.47706  23120788.36106  -3007669.72348  23120788.11948
 08 11 15  2 29  0.0020000  0 10  3  6  7  8 11 13 16 19 25 27
  -1164140.84007  21392495.11107   -959923.48348  21392493.42848
   7861843.60906  22575835.82206   6129498.39348  22575835.02948
 -14173895.80907  21845364.29907 -11041737.45948  21845361.49848
  -1090741.71105  24716184.42405   -841572.74446  24716183.56446
  -4040936.48005  23925915.12705  -3140072.59747  23925913.19347
   5994638.28904  24559135.59604   4675284.36746  24559134.77946
  19033626.17606  24103681.66606  14847132.86247  24103678.44747
 -16552769.16407  20944879.34607 -12894889.03149  20944876.08849
 -15246107.41407  21638994.62707 -11878263.76148  21638992.46748
  -3922175.59506  23110131.13506  -3051309.22348  23110131.11948
 08 11 15  2 29 30.0020000  0 10  3  6  7  8 11 13 16 19 25 27
  -1097828.42606  21405113.75206   -908251.47148  21405112.52548
   7939059.48006  22590529.40806   6189666.59648  22590529.03348
 -14210515.25407  21838395.54107 -11070272.07848  21838392.63148
  -1188815.75405  24697522.11105   -917994.02146  24697521.11146
  -4142376.62905  23906611.72105  -3219116.85147  23906609.09247
   6086481.58203  24576612.22103   4746850.47946  24576611.96746
  19113605.41406  24118901.04106  14909454.36247  24118898.43947
 -16540581.26607  20947198.72907 -12885391.95649  20947195.18949
 -15239379.10907  21640274.64307 -11873020.93848  21640272.91648
  -3977811.19106  23099544.18206  -3094661.67048  23099543.15448
 08 11 15  2 30  0.0020000  0 10  3  6  7  8 11 13 16 19 25 27
  -1031258.67206  21417781.67406   -856378.96948  21417780.63148
   8016416.74206  22605249.87706   6249944.95748  22605248.80348
 -14246614.74207  21831525.87707 -11098401.57348  21831523.84248
  -1286704.71005  24678894.85405   -994271.09746  24678893.30746
  -4243671.40206  23887335.71306  -3298047.86546  23887332.90846
   6178491.82402  24594122.26802   4818546.73045  24594121.10745
  19193722.36306  24134146.05706  14971883.07447  24134143.21747
 -16528000.47707  20949592.71307 -12875588.76949  20949589.40849
 -15232112.64506  21641657.18906 -11867358.77648  21641655.70148
  -4033078.85506  23089026.79106  -3137727.39248  23089026.40448
 08 11 15  2 30 30.0020000  0 10  3  6  7  8 11 13 16 19 25 27
   -964433.04306  21430498.37706   -804307.05748  21430497.07248
   8093913.85206  22619997.07206   6310332.30847  22619995.08847
 -14282192.05107  21824755.79107 -11126124.13448  21824753.68648
  -1384405.71106  24660302.80706  -1070401.79346  24660302.49846
  -4344819.17206  23868088.26806  -3376864.27047  23868085.70147
   6270665.99601  24611660.13501   4890370.63745  24611660.36145
  19273976.87905  24149418.33005  15034418.95346  24149416.18246
 -16515028.38707  20952061.38507 -12865480.63049  20952058.27949
 -15224307.69506  21643142.90006 -11861276.99748  21643141.55748
  -4087976.43806  23078580.48606  -3180504.70848  23078579.50648
 08 11 15  2 31  0.0020000  0 10  3  6  7  8 11 13 16 19 25 27
   -897361.96106  21443261.47906   -752043.88648  21443260.05348
   8171541.09006  22634769.02506   6370821.04448  22634768.10048
 -14317253.98807  21818083.90807 -11153445.13648  21818081.59248
  -1481924.16006  24641745.79106  -1146390.15947  24641744.88147
  -4445825.25406  23848867.45506  -3455570.29747  23848864.63147
   6362992.54313  24629231.15003   4962313.42655  24629229.08845
  19354360.30106  24164715.26806  15097055.43347  24164712.38947
 -16501674.21907  20954602.52507 -12855074.79349  20954598.82249
 -15215972.47706  21644728.99406 -11854782.04448  21644727.35048
  -4142509.92206  23068203.11106  -3222998.33848  23068202.00648
 08 11 15  2 31 30.0020000  0 10  3  6  7  8 11 13 16 19 25 27
   -830040.21106  21456072.04106   -699585.39048  21456070.38148
   8249303.91806  22649567.28306   6431415.42748  22649566.41648
 -14351791.58607  21811511.68207 -11180357.55348  21811509.39348
  -1579250.39106  24623225.09606  -1222228.73047  24623225.24447
  -4546680.06306  23829674.88506  -3534158.45947  23829673.20947
   6455474.81303  24646829.43203   5034377.53145  24646828.37745
  19434879.72306  24180037.58806  15159797.79647  24180035.20147
 -16487932.40207  20957217.59607 -12844366.88449  20957213.94349
 -15207099.35506  21646417.33006 -11847867.92748  21646415.68948
  -4196670.16806  23057896.68206  -3265201.11448  23057895.19748
 08 11 15  2 32  0.0020000  0 10  3  6  7  8 11 13 16 19 25 27
   -762488.81307  21468926.96307   -646947.96548  21468925.33048
   8327181.97706  22664387.02506   6492099.61248  22664385.15848
 -14385822.13707  21805035.96307 -11206874.88848  21805033.54148
  -1676400.53506  24604737.85406  -1297930.11447  24604736.44347
  -4647399.76206  23810509.54106  -3612641.32347  23810506.67447
   6548090.41804  24664454.20504   5106545.54245  24664452.43945
  19515516.00406  24195382.20506  15222631.19447  24195380.89647
 -16473822.96507  20959902.29107 -12833372.52949  20959898.75649
 -15197707.20707  21648204.75207 -11840549.37648  21648202.77148
  -4250474.20306  23047658.15006  -3307126.34048  23047657.16248
 08 11 15  2 32 30.0020000  0 10  3  6  7  8 11 13 16 19 25 27
   -694684.83207  21481829.55707   -594113.69748  21481827.98248
   8405198.10206  22679232.56406   6552891.38647  22679230.26447
 -14419319.16807  21798661.36107 -11232976.45348  21798658.90448
  -1773347.02706  24586289.68906  -1373472.81346  24586287.36546
  -4747958.02006  23791374.04106  -3690998.38947  23791371.23647
   6640860.68004  24682107.47904   5178833.91545  24682106.83445
  19596293.55105  24210753.37705  15285574.68846  24210752.07246
 -16459322.96907  20962661.65807 -12822073.83649  20962657.70949
 -15187771.35207  21650095.62707 -11832807.15548  21650093.40848
  -4303895.53906  23037492.53306  -3348753.35548  23037490.91648
 08 11 15  2 33  0.0020000  0 10  3  6  7  8 11 13 16 19 25 27
   -626642.51607  21494777.58807   -541093.72548  21494776.27548
   8483337.90206  22694102.56406   6613779.54248  22694101.17448
 -14452293.55507  21792386.26007 -11258670.77348  21792383.82248
  -1870099.83206  24567878.40006  -1448864.63846  24567875.44346
  -4848365.06606  23772266.76006  -3769237.59747  23772264.86947
   6733769.39503  24699787.47903   5251230.26945  24699788.05745
  19677199.44906  24226149.87706  15348618.19846  24226147.88546
 -16444446.35207  20965492.51807 -12810481.66349  20965488.58449
 -15177304.21107  21652087.22907 -11824650.94748  21652085.12348
  -4356944.85906  23027397.16606  -3390090.48248  23027395.26848
 08 11 15  2 33 30.0020000  0 10  3  6  7  8 11 13 16 19 25 27
   -558321.90607  21507778.69707   -487856.92648  21507777.30348
   8561642.34006  22709002.55706   6674795.94648  22709002.56848
 -14484701.63707  21786219.77507 -11283923.85548  21786217.27148
  -1966614.06605  24549511.32205  -1524070.49346  24549511.23246
  -4948576.12106  23753197.08006  -3847324.10947  23753195.38147
   6826855.32804  24717501.24404   5323764.64146  24717501.26846
  19758275.89106  24241577.83006  15411794.63847  24241576.56847
 -16429152.18007  20968403.24407 -12798564.14849  20968398.91649
 -15166263.54707  21654188.01807 -11816047.85048  21654185.91248
  -4409577.98406  23017381.72106  -3431103.31848  23017380.21348
 08 11 15  2 34  0.0020000  0 10  3  6  7  8 11 13 16 19 25 27
   -489760.23407  21520825.54107   -434432.24448  21520823.75248
   8640073.88706  22723928.32206   6735911.40148  22723926.81848
 -14516577.54707  21780153.44707 -11308762.20448  21780151.50248
  -2062922.26605  24531185.26805  -1599115.84846  24531183.65846
  -5048624.41006  23734158.11906  -3925283.77847  23734157.65847
   6920079.73005  24735241.60405   5396406.98146  24735241.31146
  19839486.98406  24257031.65806  15475075.96047  24257030.42447
 -16413477.32407  20971386.08007 -12786349.97749  20971381.74449
 -15154684.95307  21656391.68907 -11807025.57248  21656389.23248
  -4461828.33206  23007438.90806  -3471817.87648  23007437.77948
 08 11 15  2 34 30.0020000  0 10  3  6  7  8 11 13 16 19 25 27
   -420971.05107  21533915.94707   -380830.30348  21533914.97148
   8718619.23406  22738874.76006   6797115.54348  22738874.18948
 -14547931.58207  21774187.04907 -11333193.90948  21774185.30348
  -2159033.95705  24512895.65005  -1674007.98346  24512895.05746
  -5148519.44906  23715149.01006  -4003124.03347  23715147.55347
   7013426.90606  24753006.27506   5469144.96245  24753005.61145
  19920820.71906  24272509.32206  15538452.86646  24272507.54546
 -16397435.40207  20974438.57207 -12773849.75949  20974434.38549
 -15142580.25007  21658695.18207 -11797593.32948  21658692.87348
  -4513705.74206  22997566.35406  -3512241.79548  22997565.27948
 08 11 15  2 35  0.0020000  0 10  3  6  7  8 11 13 16 19 25 27
   -351942.32407  21547051.15007   -327041.70948  21547050.52548
   8797291.02306  22753845.35406   6858418.23148  22753845.23648
 -14578747.05907  21768323.18907 -11357205.97248  21768320.92048
  -2254931.70706  24494647.14306  -1748733.52847  24494645.51447
  -5248244.75406  23696172.29906  -4080832.04247  23696170.47547
   7106907.87104  24770793.29904   5541987.22345  24770793.03745
  20002291.45705  24288011.88505  15601936.48546  24288009.41246
 -16381013.23807  20977563.79107 -12761053.28349  20977559.56449
 -15129935.16807  21661101.33007 -11787740.05148  21661099.85448
  -4565193.77306  22987769.78306  -3552362.37248  22987767.04148
 08 11 15  2 35 30.0020000  0 10  3  6  7  8 11 13 16 19 25 27
   -282660.11307  21560235.27507   -273055.57248  21560234.69748
   8876103.77006  22768842.88506   6919830.74248  22768842.77548
 -14609007.08207  21762565.01807 -11380785.20448  21762562.95948
  -2350597.19906  24476442.34606  -1823278.02547  24476441.85447
  -5347781.82806  23677230.48606  -4158393.39847  23677228.94347
   7200534.99205  24788611.07205   5614943.34045  24788610.06845
  20083914.07006  24303544.86906  15665538.51846  24303543.11146
 -16364196.64107  20980763.44707 -12747949.43849  20980759.33849
 -15116733.77007  21663613.71307 -11777453.25548  21663611.76848
  -4616274.84406  22978048.33806  -3592165.78848  22978047.26848
 08 11 15  2 36  0.0020000  0 10  3  6  7  8 11 13 16 19 25 27
   -213176.94507  21573457.54907   -218912.87948  21573456.25248
   8955004.84006  22783856.79106   6981312.06848  22783857.01448
 -14638761.07007  21756902.60407 -11403970.12548  21756901.26448
  -2446078.17606  24458273.02506  -1897678.77947  24458272.07247
  -5447179.25806  23658315.98606  -4235845.91547  23658314.21347
   7294253.92205  24806445.08805   5687970.97745  24806443.85745
  20165637.99605  24319095.62705  15729219.42346  24319093.60746
 -16347037.76607  20984028.72107 -12734578.89249  20984024.83049
 -15103026.95307  21666221.66607 -11766772.62648  21666220.24448
  -4666998.07406  22968396.01806  -3631690.38348  22968395.15448
 08 11 15  2 36 30.0020000  0 10  3  6  7  8 11 13 16 19 25 27
   -143463.87507  21586723.22907   -164590.98648  21586722.15448
   9034023.73806  22798894.55706   7042885.20548  22798893.61148
 -14667976.50807  21751343.13507 -11426735.39548  21751341.24448
  -2541340.86306  24440145.79906  -1971909.43947  24440144.18247
  -5546404.03106  23639433.04906  -4313163.91747  23639432.66647
   7388091.97304  24824301.12704   5761091.45745  24824300.83045
  20247493.70706  24334673.08006  15793003.03246  24334670.80346
 -16329506.95307  20987364.68207 -12720918.53049  20987360.62349
 -15088783.84407  21668932.65007 -11755674.11548  21668931.30748
  -4717330.34006  22958818.89306  -3670910.32048  22958816.47548
 08 11 15  2 37  0.0020000  0  9  3  6  7  8 11 16 19 25 27
    -73508.68407  21600035.65807   -110080.47648  21600034.35448
   9113172.92606  22813956.01806   7104559.87747  22813954.58847
 -14696637.57807  21745889.03307 -11449068.69348  21745887.20548
  -2636368.87906  24422061.82206  -2045957.24147  24422060.33447
  -5645439.53506  23620587.79106  -4390334.42647  23620586.64647
  20329495.19906  24350277.62706  15856900.29346  24350275.17846
 -16311591.58207  20990773.89307 -12706958.49949  20990770.07649
 -15073990.51207  21671747.26807 -11744146.85848  21671745.68248
  -4767255.83606  22949317.85406  -3709813.31748  22949316.23248
 08 11 15  2 37 30.0020000  0  9  3  6  7  8 11 16 19 25 27
     -3323.86707  21613391.18907    -55391.01948  21613390.29148
   9192440.23406  22829040.20506   7166326.58748  22829039.13148
 -14724753.53507  21740539.11907 -11470977.23648  21740537.04948
  -2731170.08606  24404021.78306  -2119828.26447  24404020.92847
  -5744293.98406  23601776.22106  -4467363.82447  23601775.39347
  20411631.61706  24365907.18906  15920902.65547  24365906.73247
 -16293304.10507  20994254.14307 -12692708.51549  20994249.44749
 -15058657.55907  21674664.98607 -11732199.10648  21674663.68948
  -4816783.12107  22939893.39307  -3748405.98848  22939892.22548
 08 11 15  2 38  0.0020000  0  9  3  6  7  8 11 16 19 25 27
     67074.95307  21626788.02507      -534.82348  21626786.52148
   9271810.23006  22844144.10406   7228173.31447  22844142.28347
 -14752336.95707  21735289.90007 -11492470.79448  21735288.58448
  -2825755.27006  24386023.18206  -2193530.96047  24386022.10747
  -5842978.94506  23582997.17406  -4544261.20747  23582995.78747
  20493888.78906  24381560.60406  15984999.09947  24381558.94747
 -16274659.74207  20997801.73607 -12678180.42449  20997797.62749
 -15042799.10507  21677682.73607 -11719841.87348  21677681.07248
  -4865924.14506  22930541.91606  -3786697.69948  22930540.06848
 08 11 15  2 38 30.0020000  0  9  3  6  7  8 11 16 19 25 27
    137720.47307  21640231.68907     54513.61248  21640229.98648
   9351315.99206  22859273.51806   7290125.81648  22859271.99048
 -14779351.57007  21730149.91607 -11513521.16448  21730147.17048
  -2920086.53106  24368072.73606  -2267035.83447  24368070.65847
  -5941457.45306  23564257.06406  -4620997.68447  23564255.53747
  20576300.94506  24397242.59606  16049216.32047  24397241.76447
 -16255625.26207  21001424.13507 -12663348.37949  21001420.67049
 -15026380.69107  21680806.74407 -11707048.32948  21680805.36148
  -4914642.42207  22921271.36907  -3824659.98548  22921269.78748
 08 11 15  2 39  0.0020000  0  9  3  6  7  8 11 16 19 25 27
    208604.47707  21653719.78307    109747.86248  21653718.51048
   9430949.46906  22874427.80706   7352177.83148  22874425.33848
 -14805802.48407  21725116.49407 -11534132.28748  21725113.93248
  -3014168.37106  24350169.36906  -2340346.39047  24350167.14347
  -6039733.65606  23545556.36106  -4697576.54447  23545554.97547
  20658861.28106  24412954.01006  16113549.00146  24412952.17046
 -16236208.68807  21005118.83007 -12648218.60249  21005115.32249
 -15009409.13707  21684036.71307 -11693823.75748  21684034.94348
  -4962942.75806  22912079.66606  -3862296.63548  22912079.39348
 08 11 15  2 39 30.0020000  0  9  3  6  7  8 11 16 19 25 27
    279742.04707  21667257.14307    165179.72648  21667255.99448
   9510726.34406  22889607.90006   7414341.62047  22889606.45147
 -14831671.07007  21720193.29107 -11554289.62248  21720191.47148
  -3107980.62506  24332317.59606  -2413446.81847  24332314.86147
  -6137788.01206  23526896.45506  -4773982.54947  23526895.32647
  20741586.98806  24428696.37706  16178010.55147  24428695.07647
 -16216394.19507  21008889.68207 -12632778.73149  21008886.18249
 -14991867.39107  21687374.62707 -11680154.86448  21687372.97948
  -5010806.05906  22902971.81406  -3899592.70848  22902970.72948
 08 11 15  2 40  0.0020000  0  9  3  6  7  8 11 16 19 25 27
    351100.07407  21680836.09607    220783.37548  21680834.71348
   9590613.53106  22904810.08006   7476591.34947  22904808.47547
 -14856987.65207  21715375.48607 -11574016.82048  21715373.35748
  -3201552.18306  24314511.22106  -2486359.66847  24314509.21347
  -6235650.14106  23508274.06406  -4850238.76947  23508272.86947
  20824446.14806  24444463.17406  16242576.10546  24444463.15846
 -16196215.07007  21012729.17407 -12617054.73249  21012726.29549
 -14973787.12907  21690815.25207 -11666066.33948  21690813.60448
  -5058261.89106  22893940.97106  -3936571.26748  22893939.50648
 08 11 15  2 40 30.0020000  0  9  3  6  7  8 11 16 19 25 27
    422668.89107  21694454.91607    276551.27648  21694453.75648
   9670601.63306  22920031.72906   7538919.67647  22920030.76047
 -14881758.53507  21710661.91607 -11593318.79748  21710659.96748
  -3294887.80105  24296748.98605  -2559088.69646  24296748.31146
  -6333325.21506  23489687.79106  -4926349.20247  23489686.24847
  20907430.52005  24460254.43905  16307239.18746  24460254.84246
 -16175680.46906  21016637.16606 -12601053.72049  21016633.44349
 -14955176.46106  21694356.69706 -11651564.52148  21694355.16648
  -5105316.36706  22884986.87706  -3973237.09348  22884985.83848
 08 11 15  2 41  0.0020000  0  9  3  6  7  8 11 16 19 25 27
    494466.01606  21708117.55706    332497.05448  21708116.38548
   9750708.98406  22935275.39306   7601340.97847  22935273.30747
 -14905962.72307  21706055.77507 -11612179.21648  21706054.32648
  -3387964.99205  24279036.81405  -2631616.30446  24279036.74046
  -6430791.05106  23471140.61106  -5002296.59347  23471138.59247
  20990559.73005  24476074.06405  16372015.14546  24476073.32646
 -16154772.22307  21020615.86107 -12584761.59149  21020611.98649
 -14936016.06307  21698003.11907 -11636634.34648  21698001.11148
  -5151947.82006  22876113.17406  -4009573.27848  22876112.14648
 08 11 15  2 41 30.0020000  0  9  3  6  7  8 11 16 19 25 27
    566485.52307  21721822.47107    388616.15448  21721821.00248
   9830929.53506  22950540.08806   7663850.48647  22950539.05347
 -14929603.40207  21701557.47107 -11630600.51848  21701555.67448
  -3480785.34406  24261374.83006  -2703943.80247  24261373.28747
  -6528050.02706  23452632.79906  -5078082.81247  23452631.03347
  21073828.85506  24491920.18206  16436900.10747  24491918.56847
 -16133496.30107  21024664.54907 -12568182.95349  21024660.96349
 -14916310.55107  21701752.51807 -11621279.42048  21701750.98248
  -5198158.83206  22867319.86906  -4045581.85648  22867317.43648
 08 11 15  2 42  0.0020000  0  9  3  6  7  8 11 16 19 25 27
    638732.53907  21735570.54907    444912.51748  21735569.90048
   9911268.91806  22965829.13506   7726452.57647  22965826.93247
 -14952671.93407  21697167.58807 -11648575.99348  21697165.57248
  -3573339.03506  24243762.33006  -2776063.51947  24243761.56447
  -6625092.66806  23434166.26006  -5153700.43247  23434164.61947
  21157244.87906  24507793.14306  16501899.61346  24507791.38146
 -16111847.02007  21028784.15007 -12551313.37249  21028780.21749
 -14896053.18807  21705607.79107 -11605494.45348  21705606.10048
  -5243940.51606  22858607.67406  -4081255.88448  22858606.14648
 08 11 15  2 42 30.0020000  0  9  3  6  7  8 11 16 19 25 27
    711186.19907  21749358.26007    501369.87048  21749356.59248
   9991706.59006  22981135.44706   7789131.26147  22981134.90447
 -14975186.28907  21692883.14307 -11666119.65748  21692881.54948
  -3665642.44506  24226196.95506  -2847988.24047  24226196.45547
  -6721935.77705  23415736.90005  -5229162.60447  23415735.30347
  21240788.34005  24523690.69705  16566998.37446  24523688.92846
 -16089845.24606  21032971.24406 -12534169.13949  21032967.10749
 -14875263.51606  21709563.70506 -11589294.71948  21709561.91648
  -5289310.36306  22849973.63506  -4116609.02148  22849972.38548
 08 11 15  2 43  0.0020000  0  9  3  6  7  8 11 16 19 25 27
    783872.26607  21763190.23607    558008.35748  21763188.60448
  10072268.48806  22996466.24406   7851906.72448  22996465.51448
 -14997117.89107  21688710.26807 -11683209.21748  21688707.75648
  -3757665.25006  24208685.52506  -2919694.31346  24208683.94346
  -6818549.60206  23397352.11906  -5304446.06247  23397350.74047
  21324486.28505  24539617.87705  16632217.53846  24539616.09246
 -16067465.04707  21037229.90807 -12516730.02649  21037225.24449
 -14853914.32407  21713626.52507 -11572658.98948  21713624.49048
  -5334238.93406  22841424.08006  -4151618.27648  22841423.36948
 08 11 15  2 43 30.0030000  0  9  3  6  7  8 11 16 19 25 27
    856790.84407  21777065.36607    614828.03248  21777064.47248
  10152955.57006  23011819.93706   7914779.74747  23011819.64447
 -15018466.50807  21684647.28007 -11699844.51648  21684645.46048
  -3849408.03906  24191228.24106  -2991182.17847  24191227.08947
  -6914935.07406  23379011.31906  -5379551.63047  23379008.49547
  21408341.14105  24555575.18705  16697558.87846  24555574.00346
 -16044707.30507  21041560.67907 -12498996.71549  21041556.08949
 -14832005.68807  21717795.17107 -11555587.32648  21717793.64748
  -5378726.27707  22832958.60107  -4186283.75148  22832957.35848
 08 11 15  2 44  0.0030000  0  9  3  6  7  8 11 16 19 25 27
    929909.13307  21790979.83507    671803.28148  21790978.65948
  10233734.81306  23027192.53006   7977724.59447  23027190.64047
 -15039255.36307  21680691.47607 -11716043.60848  21680689.35448
  -3940887.76606  24173819.60106  -3062465.03847  24173818.85147
  -7011109.91406  23360710.10106  -5454493.07547  23360707.45247
  21492320.67605  24571556.22605  16762997.47446  24571554.44446
 -16021601.32007  21045957.39007 -12480992.04949  21045953.56949
 -14809565.48807  21722065.71007 -11538101.47348  21722063.38648
  -5422793.63307  22824572.80407  -4220621.93548  22824572.42948
 08 11 15  2 44 30.0030000  0  9  3  6  7  8 11 16 19 25 27
   1003242.29707  21804935.17907    728946.00348  21804933.77248
  10314622.19906  23042584.10106   8040753.70947  23042583.53047
 -15059469.42207  21676844.75707 -11731794.82048  21676842.69048
  -4032090.25406  24156464.60806  -3133531.89447  24156464.06947
  -7107060.32006  23342450.83506  -5529259.60447  23342449.38647
  21576442.26605  24587563.60805  16828546.70546  24587562.36646
 -15998132.99207  21050423.01507 -12462705.05349  21050419.52649
 -14786578.78507  21726439.78007 -11520189.74948  21726438.52648
  -5466425.93807  22816270.39007  -4254621.14448  22816269.30848
 08 11 15  2 45  0.0030000  0  9  3  6  7  8 11 16 19 25 27
   1076780.63307  21818928.44407    786248.59248  21818927.78848
  10395608.05906  23057995.89006   8103859.53047  23057995.23347
 -15079115.70307  21673106.06207 -11747103.60548  21673104.17948
  -4123020.67606  24139161.03006  -3204386.79847  24139160.06947
  -7202792.05906  23324233.96006  -5603855.71947  23324231.91747
  21660697.37905  24603597.06905  16894200.00647  24603596.08947
 -15974312.14107  21054956.21807 -12444143.35249  21054952.50749
 -14763054.14807  21730916.57707 -11501858.87948  21730915.39748
  -5509629.91407  22808048.78007  -4288286.57648  22808046.97648
 08 11 15  2 45 30.0030000  0  9  3  6  7  8 11 16 19 25 27
   1150502.85507  21832957.31207    843694.46748  21832955.95648
  10476671.32406  23073421.69406   8167025.68147  23073420.56247
 -15098212.74607  21669472.12407 -11761984.42448  21669469.65548
  -4213695.91006  24121906.22606  -3275042.83847  24121904.77247
  -7298322.41806  23306055.31906  -5678294.96047  23306052.21047
  21745065.88105  24619652.09305  16959941.56746  24619650.78846
 -15950160.18007  21059552.12407 -12425323.64549  21059547.89049
 -14739011.86307  21735491.85107 -11483124.63248  21735490.20248
  -5552423.63707  22799905.19407  -4321632.34548  22799903.81248
 08 11 15  2 46  0.0030000  0  9  3  6  7  8 11 16 19 25 27
   1224435.75407  21847026.68707    901304.50948  21847025.89448
  10557839.31306  23088867.00706   8230273.47248  23088866.19448
 -15116730.72307  21665948.67107 -11776414.02448  21665945.94448
  -4304084.32006  24104705.48306  -3345475.36147  24104705.18747
  -7393620.43406  23287920.81206  -5752553.13247  23287917.85147
  21829576.53104  24635733.81904  17025794.00847  24635732.34347
 -15925649.89507  21064216.50707 -12406224.72449  21064212.58149
 -14714423.51207  21740170.55407 -11463964.88648  21740168.73348
  -5594776.31307  22791845.95207  -4354634.43348  22791844.56948
 08 11 15  2 46 30.0030000  0  9  3  6  7  8 11 16 19 25 27
   1298590.95707  21861138.04607    959087.78248  21861136.43748
  10639123.86306  23104334.93706   8293612.05447  23104333.66747
 -15134655.26207  21662537.21007 -11790381.19348  21662534.99148
  -4394170.03105  24087562.93705  -3415672.00347  24087562.95647
  -7488670.69106  23269832.97606  -5826618.23847  23269829.80847
  21914242.32005  24651845.11605  17091767.31646  24651844.15546
 -15900769.35507  21068951.26507 -12386837.30349  21068947.48749
 -14689276.60907  21744956.16307 -11444369.89948  21744954.21048
  -5636673.05507  22783873.19407  -4387281.26448  22783872.15148
 08 11 15  2 47  0.0030000  0  9  3  6  7  8 11 16 19 25 27
   1372962.28907  21875290.35107   1017039.43848  21875288.67548
  10720519.24206  23119824.13206   8357037.00447  23119823.59747
 -15151989.15607  21659238.92907 -11803888.12648  21659236.98748
  -4483954.32805  24070477.99105  -3485633.77547  24070477.20647
  -7583474.85506  23251792.24106  -5900491.60247  23251789.06247
  21999057.95705  24667986.05405  17157857.39947  24667983.88647
 -15875524.39807  21073755.14007 -12367165.90449  21073751.66749
 -14663575.86307  21749846.57707 -11424343.34448  21749844.24148
  -5678116.42207  22775986.62407  -4419574.78448  22775985.55848
 08 11 15  2 47 30.0030000  0  9  3  6  7  8 11 16 19 25 27
   1447546.26606  21889483.58506   1075156.81348  21889481.85148
  10802022.62906  23135333.88206   8420546.08847  23135333.44847
 -15168733.31606  21656052.72606 -11816935.52048  21656050.61648
  -4573436.01605  24053449.02205  -3555359.71146  24053447.85846
  -7678032.47706  23233798.35106  -5974172.82147  23233796.01547
  22084021.87105  24684153.68705  17224062.94547  24684152.15147
 -15849918.48407  21078627.75707 -12347213.25749  21078623.51949
 -14637323.30107  21754842.03007 -11403886.80648  21754840.54648
  -5719106.35207  22768186.60107  -4451514.99248  22768184.80048
 08 11 15  2 48  0.0030000  0  9  3  6  7  8 11 16 19 25 27
   1522318.01206  21903711.46806   1133420.51548  21903710.30848
  10883609.24206  23150859.39706   8484120.06647  23150857.82347
 -15184909.82807  21652974.09307 -11829540.59848  21652972.47948
  -4662635.41405  24036475.15505  -3624865.72946  24036474.67146
  -7772364.62506  23215847.67906  -6047678.31947  23215844.81547
  22169110.59005  24700346.04605  17290365.79447  24700344.47647
 -15823976.20707  21083563.94407 -12326998.48949  21083560.10149
 -14610542.98807  21759938.26507 -11383019.03048  21759936.96048
  -5759664.40607  22760468.59307  -4483118.64848  22760467.12848
 08 11 15  2 48 30.0030000  0  9  3  6  7  8 11 16 19 25 27
   1597298.39507  21917980.24107   1191846.76148  21917978.87048
  10965300.02706  23166404.99106   8547775.20348  23166404.15148
 -15200495.21907  21650008.49107 -11841685.07048  21650006.85848
  -4751527.08206  24019560.17106  -3694131.94847  24019559.22647
  -7866446.33206  23197944.10106  -6120988.72447  23197941.99147
  22254346.21105  24716564.43705  17356783.16346  24716563.74946
 -15797676.74206  21088568.61606 -12306505.40249  21088565.07749
 -14583212.86306  21765139.06206 -11361722.85348  21765137.98348
  -5799766.35906  22752837.03006  -4514366.94048  22752836.34748
 08 11 15  2 49  0.0030000  0  9  3  6  7  8 11 16 19 25 27
   1672485.52307  21932287.92907   1250434.13748  21932286.40148
  11047093.71106  23181968.83506   8611510.50747  23181968.18347
 -15215488.37107  21647155.27207 -11853368.04948  21647153.72648
  -4840108.58206  24002703.06906  -3763156.43147  24002702.77247
  -7960275.62106  23180088.99106  -6194102.40847  23180086.71447
  22339728.60905  24732812.42105  17423314.79146  24732811.52646
 -15771022.04306  21093640.65506 -12285735.50049  21093636.92149
 -14555333.77306  21770444.56906 -11339998.89348  21770443.29248
  -5839410.78106  22745293.30406  -4545258.67548  22745292.10848
 08 11 15  2 49 30.0030000  0  9  3  6  7  8 11 16 19 25 27
   1747854.53907  21946629.90507   1309163.21948  21946628.06548
  11128965.35506  23197549.04606   8675306.55647  23197547.51947
 -15229912.26607  21644410.60807 -11864607.45448  21644408.82748
  -4928400.64506  23985901.71006  -3831955.44447  23985901.34747
  -8053873.08606  23162278.14006  -6267035.46947  23162276.05047
  22425233.59405  24749084.28805  17489942.06446  24749082.38646
 -15744036.77707  21098775.94407 -12264708.02549  21098772.54649
 -14526929.87907  21775849.74907 -11317866.00048  21775848.08948
  -5878619.51607  22737831.92107  -4575810.93748  22737830.64048
 08 11 15  2 50  0.0030000  0  9  3  6  7  8 11 16 19 25 27
   1823405.87906  21961006.46006   1368034.37348  21961005.71448
  11210916.43406  23213143.81906   8739164.53147  23213141.65947
 -15243762.69107  21641775.28807 -11875400.01748  21641773.24948
  -5016397.15206  23969156.52206  -3900524.11547  23969156.24547
  -8147234.10906  23144512.39006  -6339784.29248  23144510.15548
  22510863.64505  24765378.68705  17556666.66046  24765377.03846
 -15716719.47707  21103974.16307 -12243421.82849  21103970.29649
 -14497998.89807  21781355.36607 -11295322.37648  21781352.88648
  -5917388.14806  22730454.70206  -4606020.25948  22730453.47248
 08 11 15  2 50 30.0030000  0  9  3  6  7  8 11 16 19 25 27
   1899151.74606  21975420.93706   1427057.13548  21975418.85448
  11292959.70706  23228756.06206   8803094.35447  23228754.66347
 -15257024.80506  21639251.43706 -11885734.13248  21639249.43348
  -5104081.63306  23952470.72606  -3968849.64447  23952471.44447
  -8240342.53106  23126793.71006  -6412336.26147  23126791.27247
  22596632.64505  24781699.80405  17623499.58746  24781698.29246
 -15689058.00807  21109238.03807 -12221867.42949  21109234.52249
 -14468527.68006  21786963.36606 -11272357.79648  21786961.60848
  -5955701.11307  22723164.31907  -4635874.50148  22723162.67148
 08 11 15  2 51  0.0030000  0  9  3  6  7  8 11 16 19 25 27
   1975102.77706  21989873.89706   1486239.73748  21989871.92148
  11375105.80106  23244388.23306   8867104.22747  23244387.09347
 -15269685.68806  21636841.81906 -11895599.79148  21636840.59348
  -5191438.94906  23935848.24906  -4036920.31347  23935847.56547
  -8333183.91406  23109126.59306  -6484680.17447  23109124.83547
  22682552.41405  24798050.36605  17690450.03646  24798048.44846
 -15661042.05507  21114569.27207 -12200036.85449  21114565.60149
 -14438504.73407  21792676.31907 -11248963.31548  21792674.21048
  -5993544.36707  22715962.60807  -4665362.75848  22715960.92148
 08 11 15  2 51 30.0030000  0  9  3  6  7  8 11 16 19 25 27
   2051236.60506  22004361.71006   1545564.79948  22004360.21448
  11457332.23006  23260035.04606   8931176.77247  23260034.85447
 -15281765.70707  21634543.28807 -11905012.78348  21634541.40548
  -5278487.44506  23919283.07706  -4104750.27347  23919283.49547
  -8425776.85206  23091507.13206  -6556830.45847  23091505.06247
  22768601.17205  24814425.08505  17757501.00946  24814423.49946
 -15632694.39807  21119963.93707 -12177947.75849  21119959.86649
 -14407952.02707  21798490.63207 -11225156.00448  21798488.32348
  -6030937.62107  22708846.89007  -4694500.36748  22708846.40148
 08 11 15  2 52  0.0030000  0  9  3  6  7  8 11 16 19 25 27
   2127558.72307  22018885.46807   1605036.54248  22018884.42948
  11539645.44506  23275699.35806   8995316.89747  23275697.77247
 -15293256.20307  21632356.83507 -11913966.41248  21632355.14448
  -5365216.74606  23902779.03806  -4172331.53847  23902778.40947
  -8518111.56306  23073936.13206  -6628779.55847  23073934.50347
  22854786.51205  24830825.28005  17824658.34646  24830824.30046
 -15604008.74607  21125422.77207 -12155595.31249  21125418.32349
 -14376862.66807  21804406.71807 -11200930.55248  21804404.77648
  -6067871.71907  22701818.64707  -4723280.19048  22701818.12048
 08 11 15  2 52 30.0030000  0  9  3  6  7  8 11 16 19 25 27
   2204073.32007  22033445.21807   1664658.30948  22033443.51148
  11622049.77306  23291380.11606   9059528.04947  23291379.89447
 -15304150.41807  21630283.88207 -11922455.43848  21630281.80448
  -5451618.25806  23886337.19406  -4239657.39147  23886337.19447
  -8610180.34006  23056415.96806  -6700521.44047  23056414.19047
  22941113.33205  24847253.07705  17891925.98046  24847250.07746
 -15574980.95307  21130946.30407 -12132976.25049  21130942.17149
 -14345231.78107  21810425.92907 -11176283.11048  21810423.74548
  -6104339.42206  22694879.16306  -4751696.57448  22694877.59348
 08 11 15  2 53  0.0030000  0  9  3  6  7  8 11 16 19 25 27
   2280823.06307  22048050.12407   1724463.27448  22048049.51548
  11704588.27006  23307087.02206   9123843.74348  23307086.55848
 -15314403.44107  21628332.86607 -11930444.80148  21628330.26148
  -5537644.71506  23869967.16306  -4306690.94347  23869966.05047
  -8701936.42606  23038955.58506  -6772019.63847  23038953.56947
  23027625.93005  24863715.79605  17959338.39646  24863714.21046
 -15545568.07807  21136543.71007 -12110057.12049  21136539.64749
 -14313015.64507  21816556.60107 -11151179.63848  21816554.36648
  -6140294.50806  22688036.96806  -4779713.51848  22688035.32748
 08 11 15  2 53 30.0030000  0  9  3  6  7  8 11 16 19 25 27
   2357758.39107  22062690.83507   1784412.85748  22062689.35848
  11787211.69906  23322809.53806   9188225.60447  23322809.06247
 -15324062.13307  21626494.27207 -11937971.07148  21626492.93748
  -5623340.84805  23853659.17905  -4373467.14547  23853657.92947
  -8793425.21906  23021545.80406  -6843309.57447  23021544.44847
  23114276.25005  24880204.24105  18026858.06146  24880203.07346
 -15515819.83207  21142204.49107 -12086876.68349  21142200.40549
 -14280263.05507  21822788.86607 -11125658.15048  21822787.28048
  -6175783.47706  22681283.85806  -4807367.27148  22681282.93748
 08 11 15  2 54  0.0030000  0  9  3  6  7  8 11 16 19 25 27
   2434870.99207  22077364.55407   1844500.60948  22077363.66348
  11869912.27006  23338546.71806   9252667.56647  23338545.54647
 -15333132.48807  21624768.65507 -11945038.86548  21624766.79248
  -5708710.28906  23837414.18706  -4439988.77347  23837413.05847
  -8884651.26206  23004186.28006  -6914394.74947  23004184.39447
  23201057.22705  24896718.72605  18094479.54546  24896716.97246
 -15485744.57407  21147927.89007 -12063441.43249  21147923.95249
 -14246981.39507  21829122.33507 -11099724.39648  21829120.56548
  -6210811.39106  22674618.20206  -4834661.76548  22674616.89448
 08 11 15  2 54 30.0030000  0  9  3  6  7  8 11 16 19 25 27
   2512155.55507  22092071.25707   1904722.32448  22092070.65548
  11952684.95706  23354298.24906   9317165.73648  23354297.64048
 -15341617.45307  21623154.07707 -11951650.53948  21623151.93748
  -5793754.31606  23821230.80406  -4506256.83747  23821229.71047
  -8975615.89106  22986875.92906  -6985276.24648  22986873.95648
  23287964.56605  24913256.08505  18162199.48446  24913254.61246
 -15455347.37507  21153711.60107 -12039755.29749  21153707.97949
 -14213175.36707  21835555.64007 -11073382.04748  21835553.50748
  -6245380.43806  22668039.99906  -4861598.68348  22668038.57348
 08 11 15  2 55  0.0030000  0  9  3  6  7  8 11 16 19 25 27
   2589612.67207  22106811.17907   1965078.47948  22106809.72648
  12035530.85506  23370062.99906   9381720.96147  23370062.66347
 -15349513.86707  21621651.13207 -11957803.57148  21621650.05848
  -5878467.72306  23805110.26506  -4572267.24247  23805108.49947
  -9066314.49206  22969616.70206  -7055950.45947  22969614.61247
  23375000.54905  24929819.46005  18230019.62646  24929817.40146
 -15424627.59807  21159557.53007 -12015817.81649  21159553.89749
 -14178843.42207  21842088.44407 -11046629.87748  21842086.81248
  -6279486.64806  22661550.00706  -4888174.96348  22661548.37448
 08 11 15  2 55 30.0030000  0  9  3  6  7  8 11 16 19 25 27
   2667254.70707  22121586.02207   2025578.73448  22121584.84348
  12118462.63306  23385843.96806   9446343.07347  23385843.92547
 -15356807.06307  21620263.06907 -11963486.60448  21620261.38248
  -5962833.62906  23789056.37406  -4638006.89247  23789054.80847
  -9156731.19106  22952410.73306  -7126405.01047  22952409.36647
  23462178.61305  24946408.40505  18297950.64446  24946407.28446
 -15393572.96107  21165467.08507 -11991619.40449  21165463.09749
 -14143972.58607  21848723.96007 -11019457.81948  21848722.40148
  -6313114.79307  22655150.72607  -4914378.71748  22655149.51148
 08 11 15  2 56  0.0030000  0  9  3  6  7  8 11 16 19 25 27
   2745058.88307  22136391.92107   2086205.33148  22136391.02248
  12201457.89106  23401638.01506   9511014.64947  23401637.04647
 -15363517.40207  21618986.29607 -11968715.44348  21618984.36648
  -6046869.97706  23773064.71806  -4703489.76247  23773062.68347
  -9246884.32806  22935255.31206  -7196654.18648  22935253.49148
  23549477.44105  24963021.08505  18365975.63846  24963018.55046
 -15362205.86707  21171436.22607 -11967177.52549  21171432.07749
 -14108584.75807  21855457.86607 -10991882.90948  21855456.67548
  -6346284.46907  22648838.79607  -4940225.23048  22648837.62448
 08 11 15  2 56 30.0030000  0  9  3  6  7  8 11 16 19 25 27
   2823032.75007  22151229.73307   2146964.14148  22151228.31548
  12284524.22306  23417445.18706   9575741.66147  23417444.12847
 -15369635.70307  21617821.96807 -11973482.95348  21617820.29248
  -6130565.62906  23757138.18706  -4768707.14347  23757136.36247
  -9336763.30906  22918151.90506  -7266689.75048  22918150.07748
  23636904.75405  24979657.20205  18434100.82646  24979656.03446
 -15330519.48407  21177466.01507 -11942486.85749  21177461.55849
 -14072672.29707  21862291.88207 -10963899.19948  21862290.65148
  -6378985.47707  22642616.06207  -4965706.53848  22642614.56548
 08 11 15  2 57  0.0030000  0  9  3  6  7  8 11 16 19 25 27
   2901172.46107  22166099.02207   2207852.24048  22166097.55048
  12367658.55506  23433265.06906   9640521.63247  23433263.82347
 -15375163.13707  21616770.46007 -11977790.03548  21616768.61248
  -6213919.37505  23741276.14705  -4833658.10047  23741274.90547
  -9426367.74206  22901100.88206  -7336511.34148  22901098.56548
  23724458.81904  24996319.11604  18502324.78145  24996316.95245
 -15298517.10507  21183555.65507 -11917549.91749  21183551.66349
 -14036237.91807  21869225.50707 -10935508.76648  21869223.80048
  -6411217.89807  22636482.40507  -4990822.70348  22636481.40948
 08 11 15  2 57 30.0030000  0  9  3  6  7  8 11 16 19 25 27
   2979483.21907  22181000.92907   2268873.58648  22180999.99548
  12450866.19506  23449098.53806   9705358.70447  23449098.03847
 -15380092.02007  21615832.72607 -11981630.72848  21615830.62848
  -6296921.46906  23725481.02206  -4898335.05547  23725478.02647
  -9515688.82406  22884103.22606  -7406112.16147  22884100.65547
  23812146.08204  25013004.89004  18570652.36546  25013003.03046
 -15266193.84807  21189706.43707 -11892362.98249  21189702.84749
 -13999276.01607  21876259.00707 -10906707.28948  21876257.23748
  -6442974.00007  22630439.32707  -5015567.71948  22630437.60148
 08 11 15  2 58  0.0030000  0  9  3  6  7  8 11 16 19 25 27
   3057922.98407  22195928.10107   2329995.45648  22195926.89048
  12534105.71906  23464938.89706   9770220.63047  23464937.20647
 -15384462.71907  21615001.29607 -11985036.47548  21614999.32348
  -6379609.63706  23709745.92906  -4962767.36747  23709744.71447
  -9604764.57006  22867152.71806  -7475521.82947  22867150.78847
  23899925.60904  25029709.53004  18639051.90046  25029706.46846
 -15233591.60507  21195910.45207 -11866958.63749  21195907.11649
 -13961828.02707  21883385.12407 -10877527.05448  21883383.47948
  -6474292.59407  22624479.81207  -5039971.82248  22624479.07348
 08 11 15  2 58 30.0030000  0  9  3  6  7  8 11 16 19 25 27
   3136521.84807  22210884.80407   2391241.27948  22210883.47248
  12617407.62506  23480790.89706   9835131.18047  23480789.22947
 -15388242.67207  21614281.70207 -11987981.88648  21614279.49148
  -6461949.42206  23694077.60806  -5026928.20447  23694076.88647
  -9693560.81306  22850255.22606  -7544713.68447  22850253.33947
  23987828.92605  25046437.66305  18707547.96545  25046435.24545
 -15200679.96907  21202173.53007 -11841313.20649  21202169.31549
 -13923863.13307  21890609.61607 -10847944.02748  21890607.49548
  -6505140.39106  22618609.06906  -5064009.06248  22618608.39748
 08 11 15  2 59  0.0030000  0  9  3  6  7  8 11 16 19 25 27
   3215316.34807  22225879.18707   2452639.56748  22225877.01948
  12700808.41406  23496661.27206   9900118.75147  23496660.27247
 -15391393.31607  21613681.68707 -11990436.92948  21613680.05048
  -6543899.98006  23678482.73306  -5090785.76647  23678481.70247
  -9782037.87106  22833418.75706  -7613656.83847  22833416.93747
  24075893.23405  25063195.50705  18776169.53946  25063191.50346
 -15167422.94907  21208502.34307 -11815398.65549  21208498.49549
 -13885344.59807  21897939.63207 -10817929.59648  21897938.22948
  -6535478.45706  22612836.10106  -5087649.14448  22612835.44048
 08 11 15  2 59 30.0030000  0  9  3  6  7  8 11 16 19 25 27
   3294312.12507  22240911.14707   2514194.69748  22240909.84748
  12784314.65206  23512551.94406   9965188.51347  23512550.78847
 -15393906.77307  21613203.71807 -11992395.47748  21613201.22248
  -6625450.83606  23662964.79606  -5154331.87347  23662963.00347
  -9870185.63706  22816645.06906  -7682343.37947  22816641.65547
  24164125.42205  25079985.13205  18844921.82445  25079982.40945
 -15133814.61707  21214897.49907 -11789210.35849  21214894.03849
 -13846265.93407  21905375.85807 -10787478.69148  21905374.07748
  -6565297.74207  22607161.42907  -5110884.94648  22607160.89448
 08 11 15  3  0  0.0030000  0  8  3  6  7  8 11 19 25 27
   3373458.42607  22255972.36607   2575867.09748  22255970.80048
  12867875.55106  23528453.17106  10030300.83247  23528452.52247
 -15395832.01607  21612837.19407 -11993895.68548  21612835.28848
  -6706648.83606  23647512.12406  -5217603.02247  23647511.55047
  -9958051.97706  22799924.73306  -7750810.66148  22799921.89048
 -15099906.00407  21221350.14707 -11762788.08249  21221346.10849
 -13806677.69107  21912908.68707 -10756630.72248  21912907.36648
  -6594646.23006  22601576.66306  -5133753.91748  22601575.33548
 08 11 15  3  0 30.0030000  0  8  3  6  7  8 11 19 25 27
   3452779.09407  22271066.74107   2637675.38248  22271064.71848
  12951515.47706  23544369.60806  10095474.75347  23544367.73747
 -15397143.12507  21612587.71807 -11994917.34448  21612585.82748
  -6787465.41406  23632134.10106  -5280576.97247  23632132.80847
 -10045608.60206  22783263.26506  -7819036.59448  22783260.38648
 -15065673.32007  21227864.23307 -11736113.25749  21227860.15149
 -13766555.56607  21920543.71007 -10725366.73748  21920542.60448
  -6623497.31306  22596086.79606  -5156235.28848  22596085.48748
 08 11 15  3  1  0.0030000  0  8  3  6  7  8 11 19 25 27
   3532277.66007  22286194.84307   2699622.30948  22286193.25748
  13035238.60506  23560300.81206  10160713.54047  23560300.26147
 -15397834.20307  21612456.01507 -11995455.84248  21612454.23748
  -6867892.70706  23616829.17106  -5343247.57447  23616828.66747
 -10132847.98806  22766662.42106  -7887015.32048  22766660.26148
 -15031112.61707  21234441.02207 -11709182.84449  21234437.10149
 -13725895.26607  21928281.70207 -10693683.40448  21928279.76148
  -6651844.06306  22590692.89706  -5178323.66648  22590691.64748
 08 11 15  3  1 30.0030000  0  8  3  6  7  8 11 19 25 27
   3611956.91807  22301357.49907   2761709.98848  22301356.34348
  13119047.61306  23576249.28006  10226019.23447  23576248.69847
 -15397901.05107  21612443.33507 -11995507.95548  21612442.02648
  -6947923.62506  23601599.74106  -5405609.34147  23601598.34747
 -10219764.24206  22750122.81206  -7954742.27447  22750119.69847
 -14996221.87907  21241080.66307 -11681995.27949  21241076.80449
 -13684694.25007  21936121.78807 -10661578.73748  21936120.20248
  -6679681.47706  22585395.31906  -5200015.16948  22585393.96848
 08 11 15  3  2  0.0030000  0  8  3  6  7  8 11 19 25 27
   3691825.27007  22316555.36607   2823945.04448  22316554.32348
  13202951.67606  23592216.21006  10291398.96847  23592215.74147
 -15397333.15607  21612551.67107 -11995065.43248  21612549.78048
  -7027545.17606  23586448.28006  -5467652.08547  23586447.22947
 -10306345.11306  22733646.31906  -8022207.86747  22733643.72247
 -14960992.08607  21247784.80407 -11654543.49049  21247780.40549
 -13642943.30507  21944066.73307 -10629045.53448  21944064.80448
  -6706997.89106  22580196.85806  -5221300.68748  22580195.97648
 08 11 15  3  2 30.0030000  0  8  3  6  7  8 11 19 25 27
   3771846.42607  22331783.73307   2886299.16248  22331781.82748
  13286914.57806  23608194.14006  10356824.53047  23608193.10447
 -15396164.42607  21612774.19407 -11994154.75748  21612772.08148
  -7106789.39106  23571368.78806  -5529400.83947  23571367.20247
 -10392623.22306  22717228.17906  -8089437.54447  22717226.48747
 -14925460.13307  21254546.45207 -11626856.26949  21254541.62849
 -13600678.52007  21952109.73307 -10596111.95748  21952107.98748
  -6733827.00406  22575092.12406  -5242206.51948  22575090.44848
 08 11 15  3  3  0.0030000  0  8  3  6  7  8 11 19 25 27
   3851999.42207  22347035.53007   2948756.04748  22347034.73748
  13370915.87506  23624178.20206  10422280.06547  23624178.64747
 -15394414.66007  21613106.64707 -11992791.31148  21613104.98748
  -7185673.21906  23556357.66306  -5590868.76247  23556355.82747
 -10478615.80106  22700864.39706  -8156444.72448  22700862.81948
 -14889647.57407  21261361.25707 -11598950.38949  21261356.76149
 -13557920.89107  21960245.99907 -10562794.30548  21960243.80048
  -6760187.09406  22570075.86606  -5262746.83648  22570074.83148
 08 11 15  3  3 30.0030000  0  8  3  6  7  8 11 19 25 27
   3932328.09406  22362321.09306   3011349.79048  22362321.12848
  13454999.80106  23640179.39006  10487799.96947  23640178.94847
 -15392038.17206  21613559.32706 -11990939.52248  21613557.07748
  -7264148.10205  23541423.47605  -5652017.99447  23541422.53447
 -10564275.40206  22684564.07706  -8223192.44148  22684562.35448
 -14853509.78107  21268238.17907 -11570791.06649  21268233.72949
 -13514626.04707  21968484.58507 -10529058.08748  21968483.20248
  -6786031.44906  22565157.60806  -5282885.29848  22565156.56248
 08 11 15  3  4  0.0030000  0  8  3  6  7  8 11 19 25 27
   4012792.61307  22377633.66307   3074049.37448  22377632.71848
  13539126.91406  23656188.02206  10553353.56547  23656188.09747
 -15389072.75006  21614123.96006 -11988628.81848  21614121.33548
  -7342249.83205  23526560.66305  -5712876.46147  23526560.58147
 -10649638.36706  22668320.03806  -8289709.02148  22668317.76148
 -14817086.91806  21275169.07706 -11542409.63749  21275165.45249
 -13470833.58207  21976818.34307 -10494934.09048  21976816.76548
  -6811397.12506  22560330.92906  -5302650.79248  22560329.65548
 08 11 15  3  4 30.0030000  0  8  3  6  7  8 11 19 25 27
   4093410.80907  22392974.72607   3136868.74348  22392974.30848
  13623315.75406  23672209.01506  10618955.23147  23672209.30047
 -15385498.81306  21614803.70206 -11985843.93048  21614800.85848
  -7419955.96506  23511774.32706  -5773426.68547  23511773.75747
 -10734682.62506  22652136.47606  -8355977.25348  22652134.46448
 -14780361.02307  21282157.74907 -11513792.06249  21282153.86649
 -13426525.18407  21985250.17907 -10460408.08048  21985248.30448
  -6836263.34806  22555598.78806  -5322027.06148  22555597.94848
 08 11 15  3  5  0.0030000  0  8  3  6  7  8 11 19 25 27
   4174171.06607  22408342.42907   3199798.78848  22408342.05048
  13707554.58606  23688239.15506  10684595.84047  23688238.31547
 -15381326.40206  21615597.64006 -11982592.69648  21615595.37448
  -7497274.07406  23497061.94406  -5833674.51247  23497061.18747
 -10819416.57806  22636012.22606  -8422003.66548  22636009.57748
 -14743344.13707  21289201.46807 -11484947.71749  21289197.80049
 -13381712.74607  21993777.47607 -10425489.29848  21993776.06548
  -6860639.38706  22550960.68706  -5341021.38248  22550958.44448
 08 11 15  3  5 30.0030000  0  8  3  6  7  8 11 19 25 27
   4255107.10207  22423744.52207   3262865.79547  22423742.55447
  13791877.62506  23704285.02206  10750302.12847  23704284.01147
 -15376519.92106  21616511.92906 -11978847.36948  21616510.01948
  -7574165.94706  23482429.05406  -5893590.23147  23482428.40947
 -10903803.00106  22619954.10106  -8487759.25848  22619952.33948
 -14706002.90107  21296307.49907 -11455850.64149  21296303.94449
 -13336362.31307  22002407.03807 -10390151.33648  22002405.82748
  -6884488.93406  22546421.78806  -5359605.45848  22546420.45248
 08 11 15  3  6  0.0030000  0  8  3  6  7  8 11 19 25 27
   4336191.40606  22439174.53806   3326048.35447  22439173.02247
  13876258.01206  23720341.73306  10816052.98947  23720341.63647
 -15371105.05507  21617542.71807 -11974628.02448  21617540.58948
  -7650654.68806  23467874.26506  -5953191.87247  23467872.62847
 -10987865.62506  22603957.09306  -8553262.60647  22603954.96047
 -14668364.41807  21303470.03807 -11426521.99649  21303466.08149
 -13290500.99607  22011134.31907 -10354415.24348  22011132.80048
  -6907836.53906  22541978.99106  -5377798.38248  22541977.03848
 08 11 15  3  6 30.0030000  0  8  3  6  7  8 11 19 25 27
   4417438.55107  22454635.11607   3389357.80048  22454633.99148
  13960710.84006  23736413.06906  10881860.33747  23736411.71047
 -15365065.64106  21618691.87406 -11969922.02048  21618690.12048
  -7726721.60907  23453399.52207  -6012464.80547  23453397.95247
 -11071586.03506  22588025.83506  -8618499.26748  22588023.11248
 -14630414.32006  21310691.66306 -11396950.50449  21310687.64049
 -13244113.99607  22019961.61607 -10318269.53848  22019960.18348
  -6930664.96906  22537634.73306  -5395586.77648  22537633.06248
 08 11 15  3  7  0.0030000  0  8  3  6  7  8 11 19 25 27
   4498853.93006  22470127.50706   3452798.32948  22470126.86248
  14045241.68806  23752499.61606  10947728.48247  23752497.44047
 -15358394.63306  21619961.09306 -11964723.82548  21619959.35448
  -7802356.96906  23439006.64706  -6071401.42247  23439005.14047
 -11154955.55506  22572161.21806  -8683462.49248  22572158.71448
 -14592147.51206  21317973.92906 -11367132.21949  21317969.89749
 -13197196.15207  22028889.79607 -10281710.17748  22028888.70248
  -6952966.37906  22533390.66306  -5412964.49948  22533389.53448
 08 11 15  3  7 30.0030000  0  8  3  6  7  8 11 19 25 27
   4580428.66807  22485651.22607   3516363.04448  22485650.32748
  14129841.83606  23768597.63206  11013650.67347  23768596.37447
 -15351099.80906  21621349.62406 -11959039.56548  21621347.71048
  -7877565.83206  23424694.82706  -6130005.73747  23424692.75347
 -11237979.69106  22556361.96006  -8748156.61847  22556359.80447
 -14553573.31606  21325314.14006 -11337074.43049  21325310.12049
 -13149756.40607  22037916.92907 -10244744.16148  22037915.44448
  -6974747.33606  22529245.96006  -5429936.67848  22529245.25748
 08 11 15  3  8  0.0030000  0  8  3  6  7  8 11 19 25 27
   4662153.88706  22501202.45206   3580045.03447  22501202.28447
  14214502.78106  23784708.73306  11079620.23747  23784706.68747
 -15343188.47706  21622855.05406 -11952874.87448  21622852.83948
  -7952352.86706  23410463.30406  -6188281.34747  23410461.47247
 -11320663.87906  22540627.85106  -8812585.78848  22540625.62048
 -14514700.76206  21332711.06906 -11306784.10949  21332707.50749
 -13101803.61307  22047042.09307 -10207378.34748  22047041.08948
  -6996013.95306  22525199.47606  -5446508.07248  22525198.89448
 08 11 15  3  8 30.0030000  0  8  3  6  7  8 11 19 25 27
   4744007.39107  22516779.18707   3643826.95148  22516778.56248
  14299202.89506  23800826.17106  11145620.28747  23800825.24147
 -15334681.15206  21624474.35806 -11946245.82348  21624472.00348
  -8026735.96106  23396308.45206  -6246242.19447  23396307.18747
 -11403026.62106  22524954.70206  -8876764.54548  22524952.30048
 -14475552.04706  21340160.86606 -11276278.63548  21340157.12048
 -13053360.07007  22056260.53007 -10169630.14848  22056258.80848
  -7016786.16006  22521246.64006  -5462694.23348  22521245.94048
 08 11 15  3  9  0.0030000  0  8  3  6  7  8 11 19 25 27
   4826032.24207  22532388.56207   3707742.40448  22532387.57348
  14383985.50806  23816960.54606  11211684.61847  23816959.10147
 -15325533.47706  21626215.10806 -11939117.77748  21626212.79248
  -8100667.53506  23382239.73306  -6303851.23747  23382237.92947
 -11485021.37906  22509351.39006  -8940656.53748  22509349.22948
 -14436084.46506  21347671.22606 -11245524.67448  21347667.18748
 -13004382.58207  22065580.84307 -10131465.88448  22065578.81248
  -7037018.24606  22517396.54606  -5478459.50048  22517395.72248
 08 11 15  3  9 30.0030000  0  8  3  6  7  8 11 19 25 27
   4908177.13306  22548019.79606   3771751.41947  22548019.05447
  14468799.64106  23833099.62406  11277773.54647  23833099.06947
 -15315795.48806  21628067.74106 -11931529.71148  21628065.72948
  -8174195.04706  23368247.23306  -6361145.37247  23368246.70247
 -11566696.23006  22493808.84306  -9004299.23148  22493806.76548
 -14396349.37506  21355232.56206 -11214562.23848  21355229.30448
 -12954922.67207  22074992.69407 -10092925.69248  22074991.28448
  -7056759.17206  22513639.87406  -5493842.01848  22513638.62048
 08 11 15  3 10  0.0030000  0  8  3  6  7  8 11 19 25 27
   4990458.63707  22563677.25707   3835866.82748  22563677.74548
  14553662.48006  23849248.53806  11343900.39147  23849247.99547
 -15305449.02306  21630036.67906 -11923467.55448  21630034.87848
  -8247297.57006  23354336.17906  -6418108.37047  23354336.31547
 -11648030.77306  22478331.75706  -9067676.79048  22478329.26948
 -14356330.57006  21362847.89706 -11183378.77048  21362844.18348
 -12904963.94107  22084499.61607 -10053996.82648  22084497.81248
  -7075990.16006  22509980.09306  -5508827.22148  22509979.48348
 08 11 15  3 10 30.0030000  0  8  3  6  7  8 11 19 25 27
   5072876.73806  22579361.30406   3900088.69548  22579360.37048
  14638574.52306  23865406.72606  11410065.57347  23865406.44447
 -15294492.45707  21632121.53807 -11914929.99548  21632119.07748
  -8319970.85206  23340507.60806  -6474736.90147  23340506.76947
 -11729021.44906  22462919.99906  -9130786.38948  22462917.59348
 -14316027.87107  21370517.35107 -11151974.09049  21370514.08549
 -12854506.16007  22094101.51507 -10014679.09548  22094100.07348
  -7094708.39106  22506418.32706  -5523412.84948  22506416.71048
 08 11 15  3 11  0.0030000  0  8  3  6  7  8 11 19 25 27
   5155450.85506  22595074.35106   3964432.15947  22595073.16347
  14723555.45706  23881578.06206  11476284.45047  23881577.55447
 -15282905.35506  21634326.65506 -11905901.09348  21634324.32348
  -8392191.49206  23326764.52206  -6531012.71547  23326763.27247
 -11809645.44106  22447578.06906  -9193610.26448  22447575.62848
 -14275422.27006  21378244.41306 -11120333.37748  21378240.06548
 -12803530.19507  22103801.95207  -9974957.58548  22103800.18348
  -7112892.04406  22502958.15506  -5537581.97648  22502957.15148
 08 11 15  3 11 30.0030000  0  8  3  6  7  8 11 19 25 27
   5238158.55506  22610813.56906   4028879.69148  22610813.21848
  14808583.07006  23897758.33506  11542539.70047  23897757.25747
 -15270708.70707  21636647.59307 -11896397.21748  21636645.44048
  -8463977.88306  23313103.67906  -6586950.14747  23313102.72647
 -11889921.93006  22432301.31906  -9256163.35248  22432299.46048
 -14234536.27306  21386024.55406 -11088474.16348  21386020.06548
 -12752058.78507  22113596.79607  -9934849.98748  22113595.65548
  -7130561.43807  22499595.96007  -5551350.28948  22499594.53048
 08 11 15  3 12  0.0030000  0  8  3  6  7  8 11 19 25 27
   5321019.42206  22626581.48306   4093446.60148  22626580.61248
  14893677.93006  23913951.52206  11608847.39347  23913949.69047
 -15257881.72707  21639088.50707 -11886402.16448  21639086.46048
  -8535305.85206  23299530.58506  -6642530.38747  23299529.80447
 -11969827.54307  22417096.10807  -9318427.44248  22417093.69448
 -14193350.30106  21393861.81906 -11056381.20548  21393858.35148
 -12700071.98007  22123489.15507  -9894340.80348  22123487.96848
  -7147694.10907  22496335.24907  -5564700.41548  22496334.23348
 08 11 15  3 12 30.0030000  0  8  3  6  7  8 11 19 25 27
   5404002.98006  22642372.57706   4158109.04547  22642372.35847
  14978809.16006  23930151.03006  11675183.38047  23930150.49147
 -15244453.66007  21641643.74107 -11875938.78548  21641641.53048
  -8606202.29306  23286039.14706  -6697774.35347  23286038.17147
 -12049389.92607  22401955.66307  -9380424.09848  22401953.85848
 -14151895.47306  21401750.92106 -11024078.77948  21401747.26148
 -12647601.32407  22133473.89007  -9853454.60548  22133472.78048
  -7164319.03507  22493172.07707  -5577654.92948  22493170.97648
 08 11 15  3 13  0.0030000  0  8  3  6  7  8 11 19 25 27
   5487100.64107  22658185.71007   4222860.46947  22658183.91747
  15063968.71106  23946356.89006  11741541.48047  23946355.22247
 -15230432.28907  21644312.27207 -11865012.99348  21644309.90148
  -8676671.87106  23272629.97606  -6752685.65747  23272628.20247
 -12128614.38206  22386879.62406  -9442157.38148  22386877.74948
 -14110180.92506  21409688.74106 -10991573.88048  21409684.34348
 -12594655.49606  22143548.60806  -9812198.10148  22143547.14448
  -7180442.40606  22490103.64006  -5590218.58048  22490102.72648
 08 11 15  3 13 30.0030000  0  8  3  6  7  8 11 19 25 27
   5570322.97506  22674022.47606   4287709.04147  22674020.42947
  15149167.94106  23962568.98306  11807930.44847  23962568.54647
 -15215805.38707  21647095.61607 -11853615.43748  21647093.51148
  -8746699.69506  23259304.18706  -6807252.81947  23259302.54247
 -12207486.77706  22371871.12406  -9503616.41548  22371869.45648
 -14068195.94106  21417678.01506 -10958858.36448  21417674.79248
 -12541224.05507  22153716.86607  -9770563.25448  22153715.22648
  -7196051.26207  22487133.56207  -5602381.34748  22487132.59348
 08 11 15  3 14  0.0030000  0  8  3  6  7  8 11 19 25 27
   5653697.71906  22689888.16306   4352676.33047  22689886.01547
  15234434.84806  23978794.93706  11874372.13247  23978794.79247
 -15200544.41807  21649999.52207 -11841723.78048  21649996.94848
  -8816253.71506  23246068.03006  -6861450.74647  23246066.94047
 -12285975.89807  22356935.15507  -9564776.74748  22356932.78048
 -14025912.88707  21425724.56907 -10925910.51648  21425721.77248
 -12487279.45307  22163982.42107  -9728528.49848  22163980.65948
  -7211115.47307  22484267.10107  -5614119.68048  22484265.98348
 08 11 15  3 14 30.0030000  0  8  3  6  7  8 11 19 25 27
   5737140.85906  22705766.74106   4417696.92547  22705765.42947
  15319685.84006  23995018.41306  11940801.47247  23995017.85847
 -15184732.11707  21653008.46007 -11829402.51248  21653006.49148
  -8885414.20706  23232906.89006  -6915342.02347  23232906.10847
 -12364162.19506  22342056.24106  -9625701.11248  22342054.02648
 -13983415.98807  21433811.65507 -10892796.06648  21433807.92148
 -12432906.10207  22174329.37407  -9686159.66248  22174327.92548
  -7225716.85907  22481488.40507  -5625497.39248  22481487.23348
 08 11 15  3 15  0.0030000  0  8  3  6  7  8 11 19 25 27
   5820708.37106  22721668.86606   4482814.42947  22721667.87447
  15404977.11706  24011248.14006  12007262.17847  24011248.57347
 -15168311.80507  21656133.45207 -11816607.47448  21656131.45248
  -8954121.29706  23219832.48306  -6968880.03047  23219831.60447
 -12441986.91806  22327246.46806  -9686343.74848  22327245.17548
 -13940649.90607  21441949.90507 -10859471.86449  21441945.55849
 -12378048.71906  22184768.37406  -9643413.66348  22184766.40148
  -7239797.68407  22478808.79607  -5636469.47248  22478807.47248
 08 11 15  3 15 30.0030000  0  8  3  6  7  8 11 19 25 27
   5904406.91006  22737595.67906   4548034.06847  22737595.27647
  15490315.69006  24027487.93706  12073759.71447  24027487.64447
 -15151275.55107  21659374.94407 -11803332.47948  21659372.60148
  -9022363.98406  23206846.67106  -7022056.12947  23206845.75347
 -12519439.96107  22312507.53007  -9746696.72248  22312506.09748
 -13897607.98807  21450140.18707 -10825932.71648  21450136.06948
 -12322700.77307  22195300.74907  -9600285.41948  22195298.90548
  -7253348.89806  22476229.82706  -5647028.87548  22476228.36648
 08 11 15  3 16  0.0030000  0  8  3  6  7  8 11 19 25 27
   5988244.55506  22753550.39706   4613362.07847  22753549.53847
  15575710.12505  24043737.35105  12140300.76847  24043738.24147
 -15133614.43207  21662735.47607 -11789570.59448  21662733.51148
  -9090130.84406  23193951.07706  -7074861.47347  23193949.92947
 -12596510.01707  22297841.76507  -9806751.33748  22297840.08148
 -13854282.53907  21458384.42107 -10792172.62348  21458380.70248
 -12266854.76007  22205927.89707  -9556769.09548  22205926.85448
  -7266360.57806  22473753.86606  -5657167.84948  22473752.40548
 08 11 15  3 16 30.0030000  0  8  3  6  7  8 11 19 25 27
   6072180.57806  22769522.75706   4678766.74547  22769521.03447
  15661120.12506  24059991.14006  12206853.95147  24059990.46447
 -15115368.24207  21666207.77207 -11775352.77048  21666205.89048
  -9157458.29706  23181138.96006  -7127324.43147  23181137.89747
 -12673234.56607  22283241.78007  -9866536.66648  22283239.47948
 -13810714.60207  21466674.93707 -10758223.61048  21466671.98348
 -12210551.73407  22216641.75707  -9512896.61148  22216640.60848
  -7278871.08206  22471373.29606  -5666916.31648  22471371.86648
 08 11 15  3 17  0.0030000  0  8  3  6  7  8 11 19 25 27
   6156233.88306  22785517.47606   4744262.77447  22785515.97947
  15746564.97306  24076250.89706  12273434.31347  24076251.39747
 -15096516.85207  21669795.14007 -11760663.37648  21669793.30848
  -9224323.06606  23168414.98306  -7179426.82047  23168412.82747
 -12749591.20707  22268711.39007  -9926035.32948  22268709.83948
 -13766885.43807  21475015.60807 -10724071.01848  21475012.10848
 -12153773.30507  22227446.63207  -9468653.68148  22227445.09348
  -7290859.64506  22469092.19406  -5676258.05648  22469090.43348
 08 11 15  3 17 30.0030000  0  8  3  6  7  8 11 19 25 27
   6240411.85907  22801536.46807   4809855.98447  22801534.61647
  15832052.34406  24092518.31206  12340047.78647  24092518.22647
 -15077052.29706  21673499.03006 -11745496.20948  21673496.97948
  -9290714.29306  23155781.11606  -7231160.24747  23155779.01547
 -12825569.64807  22254253.49107  -9985239.28048  22254251.85448
 -13722788.19107  21483407.30407 -10689709.53148  21483403.58548
 -12096512.48407  22238342.79607  -9424034.87548  22238341.58948
  -7302316.83606  22466911.59306  -5685185.75148  22466909.98348
 08 11 15  3 18  0.0030000  0  8  3  6  7  8 11 19 25 27
   6324716.99607  22817579.08507   4875548.29447  22817577.56547
  15917585.11306  24108795.39706  12406696.65647  24108794.39047
 -15056971.47306  21677320.23306 -11729848.81748  21677318.55448
  -9356625.82806  23143238.89006  -7282519.89247  23143236.23347
 -12901164.44507  22239868.30407 -10044144.30948  22239866.05448
 -13678420.32407  21491850.50707 -10655137.18848  21491846.44848
 -12038767.67607  22249331.52207  -9379038.94548  22249329.89048
  -7313238.43006  22464833.49106  -5693696.08848  22464832.70248
 08 11 15  3 18 30.0030000  0  8  3  6  7  8 11 19 25 27
   6409151.64806  22833646.39006   4941341.50347  22833645.51947
  16003166.13706  24125080.58506  12473383.14147  24125080.01947
 -15036270.91407  21681259.78007 -11713718.52548  21681257.22648
  -9422050.85206  23130789.06906  -7333500.43847  23130787.30447
 -12976369.47707  22225557.06207 -10102745.61748  22225554.74148
 -13633779.75007  21500345.37407 -10620352.33948  21500341.44848
 -11980536.73407  22260412.53007  -9333664.20148  22260411.22648
  -7323619.75806  22462858.00706  -5701785.44148  22462857.85848
 08 11 15  3 19  0.0030000  0  8  3  6  7  8 11 19 25 27
   6493708.36706  22849737.13206   5007229.82647  22849734.92147
  16088788.25806  24141373.61606  12540101.59647  24141373.11247
 -15014957.65606  21685315.17906 -11697110.79148  21685313.53848
  -9486993.51606  23118430.78806  -7384105.12147  23118429.33547
 -13051189.67207  22211319.38207 -10161047.06948  22211317.68748
 -13588874.90607  21508890.14007 -10585361.56848  21508886.78048
 -11921827.93407  22271584.56907  -9287917.09748  22271582.88648
  -7333466.47306  22460984.21006  -5709458.22648  22460983.10448
 08 11 15  3 19 30.0030000  0  8  3  6  7  8 11 19 25 27
   6578386.48806  22865850.64006   5073212.76847  22865848.87847
  16174451.29706  24157674.96806  12606851.99347  24157674.63247
 -14993031.18007  21689488.17907 -11680025.23648  21689485.56548
  -9551450.09006  23106164.84306  -7434330.99547  23106163.98347
 -13125622.14807  22197155.08507 -10219046.37948  22197152.78448
 -13543706.20307  21517485.25707 -10550165.16748  21517481.92948
 -11862642.35207  22282846.97607  -9241798.47848  22282845.63648
  -7342777.08606  22459212.46006  -5716713.26948  22459211.73348
 08 11 15  3 20  0.0030000  0  8  3  6  7  8 11 19 25 27
   6663189.69106  22881988.14706   5139293.13247  22881986.88247
  16260159.69506  24173984.47606  12673637.69047  24173984.24147
 -14970487.14106  21693778.05406 -11662458.47048  21693775.74948
  -9615413.34006  23093992.80406  -7484172.48047  23093991.91747
 -13199659.34007  22183066.01507 -10276737.69348  22183064.47948
 -13498269.82807  21526131.64707 -10514760.22048  21526128.39448
 -11802976.70307  22294201.18707  -9195305.78148  22294200.17148
  -7351546.08207  22457543.92907  -5723546.25848  22457542.58148
 08 11 15  3 20 30.0030000  0  8  3  6  7  8 11 19 25 27
   6748098.05506  22898145.92906   5205455.45647  22898143.91747
  16345893.40605  24190299.17905  12740443.10547  24190299.09347
 -14947344.74606  21698181.66306 -11644425.44648  21698180.09748
  -9678899.50006  23081911.91306  -7533642.19847  23081911.29647
 -13273318.93807  22169049.64707 -10334134.76348  22169047.78048
 -13452586.38307  21534824.81207 -10479162.71948  21534821.03048
 -11742852.10507  22305643.08507  -9148455.48348  22305641.07348
  -7359791.89506  22455974.85106  -5729971.56448  22455972.90148
 08 11 15  3 21  0.0030000  0  8  3  6  7  8 11 19 25 27
   6833105.66806  22914322.04606   5271695.14647  22914320.27647
  16431647.01205  24206617.27205  12807264.03846  24206616.62846
 -14923609.74606  21702698.37406 -11625930.65048  21702696.44048
  -9741910.66406  23069921.61606  -7582741.80447  23069920.53847
 -13346603.78907  22155103.78007 -10391239.83648  22155101.56548
 -13406662.12907  21543564.52207 -10443377.61848  21543560.96848
 -11682274.82807  22317170.60807  -9101252.41448  22317168.93348
  -7367518.30907  22454504.39007  -5735992.17048  22454503.47248
 08 11 15  3 21 30.0030000  0  8  3  6  7  8 11 19 25 27
   6918246.71506  22930523.26506   5338038.76647  22930522.39447
  16517455.43005  24222945.31905  12874127.69947  24222946.17547
 -14899246.95706  21707334.64706 -11606946.69348  21707332.66748
  -9804408.33606  23058028.39006  -7631441.29947  23058027.62847
 -13419476.49607  22141236.99107 -10448023.77148  22141234.17148
 -13360463.24207  21552355.83507 -10407378.48548  21552351.90948
 -11621211.24207  22328790.37407  -9053670.42748  22328788.30048
  -7374689.27007  22453139.92907  -5741579.93948  22453138.77248
 08 11 15  3 22  0.0030000  0  8  3  6  7  8 11 19 25 27
   7003521.32806  22946751.56906   5404486.49747  22946750.42947
  16603318.67605  24239285.76505  12941034.09147  24239285.27647
 -14874255.95706  21712089.99906 -11587473.17448  21712088.21048
  -9866389.28506  23046233.59306  -7679738.10247  23046232.83147
 -13491933.99207  22127448.46007 -10504484.13048  22127446.40148
 -13313990.13307  21561199.24107 -10371165.68348  21561195.15548
 -11559662.34807  22340502.56207  -9005710.26648  22340500.61648
  -7381303.29706  22451881.24106  -5746733.73348  22451880.07748
 08 11 15  3 22 30.0030000  0  8  3  6  7  8 11 19 25 27
   7088876.16006  22962993.17106   5470996.70647  22962993.46447
  16689184.05905  24255625.68705  13007942.10647  24255625.46847
 -14848689.32007  21716955.53807 -11567551.14048  21716952.45248
  -9927902.95306  23034528.35806  -7727670.85247  23034527.16747
 -13564026.60907  22113729.56907 -10560660.19248  22113727.54248
 -13267296.55507  21570084.78007 -10334781.09348  21570080.72648
 -11497681.97307  22352297.27207  -8957413.89948  22352294.44448
  -7387411.74606  22450719.10806  -5751493.57648  22450718.22648
 08 11 15  3 23  0.0030000  0  8  3  6  7  8 11 19 25 27
   7174337.70706  22979256.41306   5537590.09247  22979255.85147
  16775078.06305  24271970.07705  13074872.46146  24271970.05046
 -14822520.57407  21721934.85807 -11547159.88848  21721932.92948
  -9988919.25006  23022917.47606  -7775216.01247  23022916.29247
 -13635725.18007  22100086.01507 -10616529.21548  22100083.17148
 -13220356.22507  21579016.78007 -10298204.18948  21579013.26548
 -11435244.83207  22364178.81207  -8908761.59048  22364176.23748
  -7392986.74807  22449658.37407  -5755837.69648  22449656.43348
 08 11 15  3 23 30.0030000  0  8  3  6  7  8 11 19 25 27
   7259913.53906  22995541.42906   5604272.49947  22995540.46847
  16861009.10906  24288323.39006  13141831.67647  24288322.40947
 -14795741.29706  21727030.89706 -11526292.95248  21727028.58948
 -10049426.61306  23011402.85806  -7822364.58347  23011402.06547
 -13707018.70707  22086519.21807 -10672082.60048  22086517.36648
 -13173161.89806  21587997.88206 -10261429.42848  21587993.92548
 -11372343.89107  22376148.61607  -8859747.86148  22376146.34748
  -7398018.88706  22448700.65506  -5759758.86448  22448698.90548
 08 11 15  3 24  0.0030000  0  8  3  6  7  8 11 19 25 27
   7345595.80106  23011845.53006   5671037.87347  23011844.85847
  16946969.56306  24304680.91306  13208813.78047  24304679.34347
 -14768359.10906  21732241.51506 -11504956.20048  21732239.52648
 -10109429.70306  22999984.27206  -7869120.22747  22999983.20647
 -13777912.10207  22073028.99107 -10727324.22548  22073026.05448
 -13125721.60907  21597025.26507 -10224462.98848  21597021.89448
 -11308987.77307  22388204.20207  -8810379.48748  22388202.47248
  -7402514.36706  22447844.53806  -5763261.84148  22447843.44448
 08 11 15  3 24 30.0030000  0  8  3  6  7  8 11 19 25 27
   7431392.69906  23028172.09306   5737892.56247  23028171.60147
  17032968.26606  24321045.34306  13275825.75147  24321045.06247
 -14740365.14107  21737569.05407 -11483142.71848  21737566.97948
 -10168916.30906  22988664.67906  -7915473.40847  22988663.80847
 -13848393.91807  22059615.92107 -10782245.10348  22059614.35848
 -13078027.60906  21606101.49106 -10187298.84248  21606097.80048
 -11245169.07807  22400348.93707  -8760650.66748  22400347.18748
  -7406463.18407  22447093.72607  -5766338.85748  22447092.27648
 08 11 15  3 25  0.0030000  0  8  3  6  7  8 11 19 25 27
   7517313.07006  23044522.73306   5804843.44547  23044521.40147
  17119014.43806  24337420.02206  13342874.70247  24337419.33147
 -14711750.27707  21743013.78807 -11460845.42648  21743011.53048
 -10227873.90606  22977445.25706  -7961414.37647  22977444.24947
 -13918452.59007  22046284.42107 -10836836.25648  22046281.62448
 -13030071.30907  21615227.14007 -10149930.28948  21615223.95248
 -11180879.66007  22412582.64707  -8710555.02948  22412580.83948
  -7409854.73406  22446447.75706  -5768981.61948  22446447.38248
 08 11 15  3 25 30.0030000  0  8  3  6  7  8 11 19 25 27
   7603314.68806  23060888.19406   5871857.65247  23060887.31247
  17205066.07806  24353794.71006  13409927.90647  24353793.45247
 -14682556.17207  21748569.41307 -11438096.78648  21748567.57748
 -10286341.20706  22966319.71806  -8006973.33047  22966318.70247
 -13988127.51607  22033025.71007 -10891128.39748  22033023.89748
 -12981895.05907  21624394.85107 -10112390.36648  21624390.79248
 -11116162.92607  22424897.74107  -8660126.41248  22424896.16348
  -7412729.96506  22445900.60806  -5771222.06148  22445900.32348
 08 11 15  3 26  0.0030000  0  8  3  6  7  8 11 19 25 27
   7689429.34806  23077275.47606   5938959.96547  23077274.08547
  17291155.37906  24370177.51506  13477010.41346  24370177.00746
 -14652751.39507  21754241.28807 -11414872.30548  21754239.00348
 -10344282.84806  22955293.49106  -8052122.63748  22955292.79248
 -14057384.07407  22019846.76507 -10945094.51748  22019844.85148
 -12933467.77707  21633609.88207 -10074654.83048  21633606.55448
 -11050987.97307  22437300.49107  -8609340.74748  22437298.37448
  -7415055.90606  22445458.23306  -5773034.47648  22445456.69448
 08 11 15  3 26 30.0030000  0  8  3  6  7  8 11 19 25 27
   7775633.17206  23093679.46806   6006131.73347  23093678.75747
  17377258.84005  24386561.49105  13544103.97546  24386560.75346
 -14622359.14507  21760024.27207 -11391190.04148  21760022.93348
 -10401718.86306  22944363.97606  -8096877.97148  22944363.08948
 -14126243.28507  22006743.72607 -10998751.05348  22006741.62048
 -12884813.78907  21642868.17107 -10036742.64248  21642865.03848
 -10985379.61707  22449784.83507  -8558217.37048  22449783.09348
  -7416854.86707  22445116.29607  -5774436.27248  22445114.46048
 08 11 15  3 27  0.0030000  0  8  3  6  7  8 11 19 25 27
   7861962.06606  23110107.27206   6073400.95747  23110106.86647
  17463412.73806  24402956.60806  13611236.85947  24402956.47647
 -14591343.17207  21765926.64007 -11367021.75848  21765924.51548
 -10458610.13706  22933537.69406  -8141208.83048  22933536.92548
 -14194666.42207  21993722.78007 -11052067.74148  21993720.82348
 -12835897.60907  21652177.03007  -9998626.15348  21652172.65548
 -10919303.02307  22462359.23307  -8506729.13948  22462357.29648
  -7418089.30907  22444881.36607  -5775398.17448  22444879.78448
 08 11 15  3 27 30.0030000  0  8  3  6  7  8 11 19 25 27
   7948369.56306  23126550.09306   6140731.46847  23126549.29647
  17549570.89806  24419351.51506  13678373.04246  24419351.38246
 -14559750.25007  21771939.09307 -11342403.91248  21771936.97648
 -10514999.90606  22922807.43706  -8185148.91348  22922806.19848
 -14262697.09807  21980777.10107 -11105078.64448  21980774.26948
 -12786765.98807  21661526.47607  -9960341.77948  21661522.13248
 -10852805.60507  22475012.94407  -8454912.97048  22475011.11248
  -7418804.29307  22444745.50707  -5775955.30348  22444744.13248
 08 11 15  3 28  0.0030000  0  8  3  6  7  8 11 19 25 27
   8034891.18406  23143014.50706   6208150.86947  23143014.20647
  17635769.47706  24435754.42906  13745540.68747  24435754.91747
 -14527544.53907  21778067.09307 -11317308.57248  21778065.47648
 -10570848.91406  22912179.79606  -8228667.61848  22912178.41748
 -14330296.94907  21967913.48307 -11157753.85948  21967911.00348
 -12737383.86307  21670923.64007  -9921862.22648  21670919.74548
 -10785852.82007  22487753.79607  -8402741.99548  22487751.21448
  -7418962.87107  22444714.98307  -5776078.89848  22444714.24148
 08 11 15  3 28 30.0030000  0  8  3  6  7  8 11 19 25 27
   8121494.99206  23159494.92906   6275634.35847  23159493.93347
  17721976.44906  24452158.80406  13812714.89747  24452160.03447
 -14494758.00007  21784306.36607 -11291760.62848  21784304.35148
 -10626185.89806  22901649.29606  -8271787.32848  22901648.14448
 -14397495.12507  21955126.01507 -11210116.06648  21955123.26548
 -12687783.50407  21680362.38207  -9883212.61448  21680357.90548
 -10718477.87107  22500574.49107  -8350242.03748  22500572.62048
  -7418595.75807  22444785.52207  -5775792.84548  22444784.22948
 08 11 15  3 29  0.0030000  0  8  3  6  7  8 11 19 25 27
   8208193.16406  23175992.96806   6343191.33047  23175992.16347
  17808205.15206  24468568.67906  13879906.08947  24468568.97947
 -14461377.78907  21790658.34307 -11265750.08748  21790655.96048
 -10680994.52706  22891219.42906  -8314495.36848  22891218.27648
 -14464276.32807  21942417.60807 -11262153.36148  21942416.01548
 -12637952.64107  21689844.75707  -9844383.36948  21689840.85148
 -10650669.05107  22513478.38207  -8297404.02848  22513476.60448
  -7417688.87507  22444957.41307  -5775086.16748  22444956.70648
 08 11 15  3 29 30.0030000  0  8  3  6  7  8 11 19 25 27
   8294964.31606  23192505.19406   6410805.14647  23192504.43747
  17894434.17206  24484977.19406  13947097.50547  24484977.88247
 -14427425.73807  21797119.25707 -11239293.93548  21797116.80848
 -10735293.07806  22880886.94406  -8356805.91047  22880885.47247
 -14530659.61707  21929785.75707 -11313880.58648  21929783.56248
 -12587913.46507  21699366.84307  -9805391.83048  21699363.66748
 -10582449.16807  22526460.29607  -8244245.70748  22526458.52648
  -7416262.79307  22445228.95207  -5773974.94648  22445227.87048
 08 11 15  3 30  0.0030000  0  8  3  6  7  8 11 19 25 27
   8381821.94507  23209033.71007   6478486.38647  23209032.96447
  17980677.37106  24501388.49906  14014299.95647  24501387.83147
 -14392888.10207  21803691.69407 -11212381.51848  21803689.93748
 -10789064.91406  22870654.12406  -8398706.06247  22870653.05847
 -14596628.79707  21917232.17907 -11365285.15548  21917230.64048
 -12537652.64807  21708931.39007  -9766227.59248  21708928.22648
 -10513805.98807  22539522.72607  -8190757.52148  22539520.84748
  -7414302.64107  22445601.90507  -5772447.57448  22445600.64048
 08 11 15  3 30 30.0030000  0  8  3  6  7  8 11 19 25 27
   8468783.80506  23225581.93706   6546248.84147  23225580.46847
  18066952.46306  24517806.60106  14081527.20447  24517806.91347
 -14357747.78107  21810378.52207 -11184999.45848  21810376.71448
 -10842289.16406  22860525.78806  -8440179.51047  22860524.20247
 -14662163.60507  21904761.38207 -11416351.21448  21904759.16748
 -12487153.68407  21718540.97607  -9726877.76148  21718537.31248
 -10444723.21207  22552668.74907  -8136926.84648  22552667.44848
  -7411789.76207  22446080.12407  -5770489.50048  22446078.99948
 08 11 15  3 31  0.0030000  0  8  3  6  7  8 11 19 25 27
   8555837.05906  23242147.30406   6614082.49547  23242146.89047
  18153247.75805  24534228.12405  14148770.27747  24534227.68347
 -14322016.54307  21817178.00707 -11157156.94348  21817176.44048
 -10894974.49206  22850499.76506  -8481232.98747  22850499.06247
 -14727273.23407  21892371.10807 -11467085.97948  21892368.91748
 -12436429.01207  21728193.68707  -9687352.05248  21728189.33548
 -10375214.08607  22565895.99107  -8082763.87148  22565894.28848
  -7408734.97307  22446661.34307  -5768109.15448  22446659.86648
 08 11 15  3 31 30.0030000  0  8  3  6  7  8 11 19 25 27
   8642989.00806  23258732.44406   6681993.13047  23258730.98747
  18239570.65205  24550654.81205  14216034.81247  24550653.96847
 -14285687.94107  21824091.43707 -11128848.94248  21824089.85148
 -10947110.51606  22840578.75706  -8521858.44047  22840577.35147
 -14791948.75407  21880063.92107 -11517482.46648  21880061.28448
 -12385471.71107  21737889.76507  -9647645.06448  21737887.22648
 -10305272.80507  22579205.21007  -8028264.17048  22579203.73348
  -7405130.31607  22447347.56907  -5765300.33848  22447346.06548
 08 11 15  3 32  0.0030000  0  8  3  6  7  8 11 19 25 27
   8730196.99206  23275326.98306   6749947.36747  23275325.91347
  18325878.57005  24567078.46805  14283287.69247  24567078.35447
 -14248804.78907  21831109.76507 -11100108.81148  21831107.91348
 -10998737.09406  22830754.96006  -8562086.95847  22830753.28447
 -14856229.90207  21867831.68707 -11567571.68448  21867829.62048
 -12334325.06607  21747623.33507  -9607790.54848  21747619.40948
 -10234943.53907  22592588.48307  -7973462.14548  22592587.01948
  -7401017.47707  22448130.03807  -5762095.53448  22448128.91748
 08 11 15  3 32 30.0030000  0  8  3  6  7  8 11 19 25 27
   8817480.69106  23291935.98306   6817960.60247  23291935.86247
  18412191.85905  24583503.70205  14350544.73847  24583504.07347
 -14211347.54707  21838237.29607 -11070921.37848  21838235.92948
 -11049831.18406  22821031.75706  -8601900.52947  22821030.34347
 -14920094.34807  21855678.14007 -11617336.18548  21855675.28848
 -12282970.02307  21757396.17107  -9567773.68148  21757392.21048
 -10164207.61707  22606049.26507  -7918343.27048  22606047.90548
  -7396375.53907  22449013.40507  -5758478.46348  22449011.74148
 08 11 15  3 33  0.0030000  0  8  3  6  7  8 11 19 25 27
   8904852.67206  23308562.98306   6886042.58247  23308562.75747
  18498523.26205  24599932.36605  14417815.92947  24599932.26547
 -14173303.64807  21845476.99907 -11041276.78848  21845474.83148
 -11100376.79706  22811413.81906  -8641286.73147  22811412.04647
 -14983526.89107  21843607.30407 -11666764.12748  21843605.68348
 -12231394.44907  21767210.53807  -9527584.91748  21767206.62048
 -10093053.84806  22619588.97606  -7862898.80048  22619587.92548
  -7391191.06307  22449999.64007  -5754438.61948  22449998.78048
 08 11 15  3 33 30.0030000  0  8  3  6  7  8 11 19 25 27
   8992296.91806  23325202.89706   6954180.96947  23325203.47247
  18584857.56305  24616360.38205  14485089.36246  24616360.63246
 -14134689.19506  21852824.98306 -11011187.61248  21852822.47648
 -11150386.56606  22801897.78006  -8680255.38148  22801895.38648
 -15046540.84807  21831616.41307 -11715865.89348  21831613.83948
 -12179614.33607  21777063.49907  -9487236.79048  21777060.26148
 -10021499.05506  22633205.07706  -7807141.86748  22633204.03848
  -7385478.45707  22451087.10107  -5749987.24848  22451085.81948
 08 11 15  3 34  0.0030000  0  8  3  6  7  8 11 19 25 27
   9079833.44506  23341861.02206   7022391.21247  23341860.06547
  18671214.91805  24632793.60105  14552380.70647  24632793.79247
 -14095484.64807  21860285.68707 -10980638.58448  21860283.22648
 -11199837.22306  22792487.38206  -8718788.34048  22792485.29648
 -15109113.79307  21819709.28807 -11764624.01948  21819707.19048
 -12127610.19907  21786959.73307  -9446714.09848  21786955.63648
  -9949524.66406  22646901.13206  -7751057.94348  22646900.33948
  -7379216.80907  22452278.81207  -5745108.06648  22452277.12848
 08 11 15  3 34 30.0030000  0  8  3  6  7  8 11 19 25 27
   9167466.02006  23358537.06206   7090676.29947  23358536.44047
  18757599.08605  24649232.68705  14619693.06747  24649233.03047
 -14055686.59807  21867859.29607 -10949627.12648  21867856.90948
 -11248721.95306  22783184.50706  -8756880.34448  22783183.52248
 -15171239.52007  21807887.09307 -11813033.66548  21807884.61648
 -12075378.75807  21796899.51507  -9406014.29048  21796895.46048
  -9877128.64806  22660677.87406  -7694645.47448  22660677.05448
  -7372401.69107  22453575.88207  -5739797.59148  22453573.94848
 08 11 15  3 35  0.0030000  0  8  3  6  7  8 11 19 25 27
   9255164.70706  23375225.03806   7159012.92347  23375225.33147
  18843981.41006  24665670.17106  14687003.91447  24665670.87447
 -14015324.79707  21875539.71807 -10918176.37348  21875537.51548
 -11297067.46106  22773984.66306  -8794552.14148  22773983.38648
 -15232944.82407  21796144.90507 -11861115.70748  21796142.49148
 -12022950.30507  21806875.93707  -9365160.94648  21806872.15148
  -9804341.55507  22674529.39707  -7637928.25648  22674527.63248
  -7365061.34007  22454972.58507  -5734077.83448  22454970.47948
 08 11 15  3 35 30.0030000  0  8  3  6  7  8 11 19 25 27
   9342960.00006  23391932.58506   7227424.76547  23391931.99947
  18930392.14106  24682113.81206  14754336.88547  24682114.41747
 -13974369.57407  21883333.47607 -10886263.23548  21883331.46048
 -11344840.14506  22764893.91306  -8831777.62448  22764891.61648
 -15294197.32407  21784489.35807 -11908844.93348  21784486.42948
 -11970294.77007  21816896.14007  -9324130.67748  21816892.38648
  -9731134.71506  22688459.56206  -7580883.97948  22688458.32748
  -7357164.63707  22456474.93707  -5727924.58048  22456472.99948
 08 11 15  3 36  0.0030000  0  8  3  6  7  8 11 19 25 27
   9430832.41406  23408653.40506   7295896.72047  23408653.47947
  19016812.26606  24698559.31906  14821677.22147  24698559.21447
 -13932840.93007  21891235.67907 -10853903.27448  21891233.67548
 -11392056.49606  22755908.74106  -8868569.60848  22755907.78048
 -15355013.92207  21772915.97607 -11956234.47948  21772913.96448
 -11917432.17207  21826955.28007  -9282939.03148  21826951.39448
  -9657529.02006  22702466.71006  -7523528.90548  22702465.84748
  -7348730.15207  22458079.79607  -5721352.25648  22458078.46448
 08 11 15  3 36 30.0030000  0  8  3  6  7  8 11 19 25 27
   9518780.89506  23425389.53006   7364427.97047  23425387.67547
  19103241.19106  24715006.71806  14889024.40346  24715006.63246
 -13890739.82806  21899247.85806 -10821097.21548  21899244.17948
 -11438714.63306  22747029.97606  -8904926.58248  22747029.05848
 -15415393.19107  21761425.56907 -12003283.25748  21761424.25748
 -11864363.95707  21837053.96807  -9241587.17948  21837050.13248
  -9583526.71506  22716548.76506  -7465864.79348  22716548.06248
  -7339758.26207  22459787.35807  -5714361.18048  22459785.75348
 08 11 15  3 37  0.0030000  0  8  3  6  7  8 11 19 25 27
   9606805.70706  23442140.56906   7433018.69747  23442139.55847
  19189679.16406  24731455.17906  14956378.59346  24731455.60846
 -13848067.18807  21907367.46007 -10787845.80448  21907364.97948
 -11484811.48806  22738257.78006  -8940846.20248  22738256.59748
 -15475332.70307  21750020.19407 -12049989.36648  21750017.71448
 -11811090.66007  21847191.60107  -9200075.52248  21847188.24148
  -9509129.38307  22730706.56907  -7407892.87148  22730704.65548
  -7330248.17607  22461596.96807  -5706950.74348  22461596.03848
 08 11 15  3 37 30.0030000  0  8  3  6  7  8 11 19 25 27
   9694899.23806  23458903.62406   7501662.95747  23458904.44447
  19276119.36706  24747904.49906  15023734.47446  24747903.22646
 -13804830.29706  21915595.08506 -10754154.74848  21915593.04248
 -11530351.20706  22729592.39706  -8976331.73447  22729590.66747
 -15534837.30507  21738696.78007 -12096356.58048  21738694.37848
 -11757619.87907  21857366.24907  -9158409.99748  21857362.57748
  -9434345.67206  22744937.26506  -7349619.89448  22744935.85148
  -7320206.27307  22463507.56907  -5699125.91148  22463506.84748
 08 11 15  3 38  0.0030000  0  8  3  6  7  8 11 19 25 27
   9783077.09806  23475683.46806   7570372.93447  23475683.96047
  19362577.95305  24764356.61605  15091104.70546  24764356.30446
 -13761014.07406  21923932.95206 -10720012.27348  21923930.84348
 -11575315.16806  22721035.81906  -9011368.53848  22721035.27248
 -15593888.93807  21727459.72607 -12142370.83448  21727457.32748
 -11703936.68007  21867582.22607  -9116578.93248  21867579.32748
  -9359161.25807  22759244.76507  -7291034.65848  22759243.18748
  -7309615.76607  22465523.19407  -5690873.58248  22465521.98748
 08 11 15  3 38 30.0030000  0  8  3  6  7  8 11 19 25 27
   9871325.10506  23492477.10806   7639137.58647  23492476.56547
  19449040.55905  24780809.95205  15158478.12846  24780809.19446
 -13716633.91007  21932378.29607 -10685430.34348  21932377.03448
 -11619714.80906  22712586.50706  -9045965.65848  22712585.58948
 -15652499.71507  21716306.18707 -12188041.56148  21716303.62848
 -11650055.54707  21877835.08507  -9074593.64448  21877832.32348
  -9283592.21507  22773625.31907  -7232149.69948  22773623.48748
  -7298490.61707  22467640.62407  -5682204.64548  22467639.12048
 08 11 15  3 39  0.0030000  0  8  3  6  7  8 11 19 25 27
   9959644.53906  23509283.88206   7707957.88947  23509282.89047
  19535509.53805  24797264.71805  15225856.43946  24797263.20246
 -13671688.44507  21940931.48307 -10650407.92048  21940929.83548
 -11663545.19506  22704246.08506  -9080119.22047  22704244.79647
 -15710665.65207  21705237.60807 -12233365.66948  21705235.10448
 -11595975.05507  21888126.51507  -9032453.01148  21888123.11648
  -9207638.23407  22788078.56907  -7172964.81848  22788077.03048
  -7286828.43807  22469859.40507  -5673117.22148  22469858.36648
 08 11 15  3 39 30.0030000  0  8  3  6  7  8 11 19 25 27
  10048024.28906  23526101.89706   7776825.14947  23526101.06947
  19621974.13305  24813717.57705  15293231.45146  24813717.14746
 -13626189.29307  21949589.58507 -10614954.06348  21949587.66348
 -11706815.15206  22696012.16306  -9113836.08748  22696010.89048
 -15768395.22307  21694252.21807 -12278349.76648  21694249.95248
 -11541706.94907  21898453.28807  -8990166.20648  21898450.14748
  -9131311.87106  22802602.31906  -7113489.76048  22802601.22648
  -7274639.54307  22472179.59307  -5663619.40248  22472177.40148
 08 11 15  3 40  0.0030000  0  8  3  6  7  8 11 19 25 27
  10136506.52006  23542940.01506   7845772.30047  23542938.05047
  19708475.80505  24830179.12405  15360635.32446  24830177.68746
 -13580095.90607  21958361.35807 -10579037.13548  21958358.96848
 -11749480.19506  22687893.67906  -9147081.55748  22687892.21048
 -15825645.15607  21683358.09307 -12322960.09948  21683355.55048
 -11487210.62507  21908823.72607  -8947701.54448  21908820.09748
  -9054573.51607  22817205.46007  -7053693.65548  22817203.65148
  -7261882.15207  22474606.88207  -5653678.58148  22474605.21848
 08 11 15  3 40 30.0030000  0  8  3  6  7  8 11 19 25 27
  10225057.22706  23559789.83506   7914772.80547  23559788.76947
  19794981.68404  24846640.49104  15428042.40645  24846638.47645
 -13533442.46907  21967239.00707 -10542683.81348  21967237.30848
 -11791570.76606  22679883.67906  -9179879.40448  22679881.80448
 -15882446.75007  21672548.78807 -12367221.06548  21672546.47648
 -11432519.94507  21919231.17907  -8905085.43048  21919227.92948
  -8977458.16406  22831880.09306  -6993603.78048  22831878.33148
  -7248588.87907  22477135.94407  -5643320.19248  22477135.73348
 08 11 15  3 41  0.0030000  0  8  3  6  7  8 11 19 25 27
  10313683.93406  23576655.24106   7983832.52047  23576654.01547
  19881499.91002  24863104.15502  15495459.19545  24863103.56545
 -13486221.74207  21976224.42107 -10505888.45148  21976222.27648
 -11833076.20706  22671985.21806  -9212221.30948  22671983.82348
 -15938789.73807  21661827.23307 -12411124.68748  21661825.07748
 -11377627.34007  21929676.93707  -8862311.99448  21929673.02648
  -8899959.41006  22846627.43706  -6933215.15748  22846626.01548
  -7234751.22707  22479769.40507  -5632537.63948  22479768.60148
 08 11 15  3 41 30.0030000  0  8  3  6  7  8 11 19 25 27
  10402380.19507  23593534.13207   8052946.47147  23593532.66347
  19968024.45702  24879568.92902  15562880.84845  24879569.90145
 -13438440.76606  21985316.63206 -10468656.52648  21985314.76948
 -11874000.15206  22664198.38206  -9244110.09148  22664196.68748
 -15994678.12107  21651191.92907 -12454674.05448  21651189.90148
 -11322539.71507  21940159.88207  -8819386.56948  21940156.57748
  -8822085.35206  22861446.49106  -6872534.07948  22861444.90548
  -7220375.15207  22482505.54607  -5621335.48748  22482503.91348
 08 11 15  3 42  0.0030000  0  8  3  6  7  8 11 19 25 27
  10491154.02706  23610427.55406   8122120.84047  23610427.03447
  20054562.68801  24896037.06201  15630313.13745  24896037.47945
 -13390093.72307  21994516.90507 -10430983.54948  21994515.38248
 -11914333.09806  22656521.92906  -9275538.36048  22656521.56248
 -16050102.80107  21640644.61607 -12497862.10048  21640643.04248
 -11267250.50807  21950680.73307  -8776304.09148  21950677.33148
  -8743830.58607  22876338.02207  -6811556.36348  22876336.58548
  -7205453.09007  22485345.14707  -5609707.92348  22485343.97948
 08 11 15  3 42 30.0030000  0  8  3  6  7  8 11 19 25 27
  10580012.46906  23627336.45206   8191361.15647  23627336.55047
  20141122.95711  24912508.78801         0.00000         0.00000
 -13341173.02707  22003826.49107 -10392863.54148  22003824.77248
 -11954064.52006  22648962.01506  -9306497.91548  22648961.33148
 -16105053.87507  21630188.35807 -12540681.11948  21630185.05448
 -11211752.37907  21961242.03007  -8733058.82648  21961238.14448
  -8665188.82806  22891302.87406  -6750277.10148  22891301.54248
  -7189976.74607  22488290.17907  -5597648.42548  22488288.31948
 08 11 15  3 43  0.0030000  0  8  3  6  7  8 11 19 25 27
  10668921.36306  23644254.54606   8260640.79347  23644254.94847
         0.00000  24928975.95201         0.00000         0.00000
 -13291713.78907  22013238.47607 -10354323.90048  22013236.51548
 -11993225.74606  22641510.24906  -9337013.16848  22641509.14448
 -16159563.75007  21619815.24907 -12583156.33348  21619812.58148
 -11156080.34007  21971836.18707  -8689678.02648  21971832.22948
  -8586195.95706  22906335.08506  -6688724.23648  22906333.50748
  -7173979.78507  22491334.05407  -5585183.27648  22491332.70248
 08 11 15  3 43 30.0030000  0  8  3  6  7  8 11 19 25 27
  10757908.94506  23661188.41306   8329981.73547  23661188.00347
  20314236.53111  24945451.81901         0.00000         0.00000
 -13241688.35507  22022757.85107 -10315343.04248  22022756.24548
 -12031785.52006  22634172.14706  -9367059.73548  22634170.62448
 -16213601.31607  21609532.43707 -12625263.51448  21609529.55048
 -11100205.62107  21982468.03007  -8646139.27948  21982465.29248
  -8506825.22706  22921438.74906  -6626876.92148  22921437.11648
  -7157433.30907  22494482.74907  -5572289.90948  22494481.43348
 08 11 15  3 44  0.0030000  0  8  3  6  7  8 11 19 25 27
  10846973.05106  23678136.67906   8399382.27247  23678135.91747
  20400816.06301  24961927.76501         0.00000         0.00000
 -13191100.56607  22032384.35107 -10275924.00648  22032381.99948
 -12069744.19106  22626949.64006  -9396637.91848  22626948.31248
 -16267167.62507  21599338.90507 -12667003.48248  21599337.09348
 -11044131.86707  21993138.99907  -8602445.47848  21993136.03048
  -8427081.18806  22936613.56906  -6564738.73048  22936612.55848
  -7140339.74607  22497735.15507  -5558970.25648  22497734.53848
 08 11 15  3 44 30.0030000  0  9  3  6  7  8 11 19 25 27 28
  10936100.35206  23695097.50706   8468832.05947  23695096.54247
         0.00000  24978405.89001         0.00000         0.00000
 -13139964.69906  22042114.72606 -10236077.87248  22042112.78048
 -12107112.11306  22619838.71806  -9425755.77448  22619837.01948
 -16320272.79707  21589233.28007 -12708384.12048  21589231.36248
 -10987872.73807  22003844.84307  -8558607.18548  22003841.09748
  -8346978.55906  22951855.94406  -6502321.11548  22951855.42148
  -7122711.64107  22501089.99107  -5545234.07248  22501089.53848
    -82681.96915  25503543.19405    -57528.79256  25503542.21846
 08 11 15  3 45  0.0030000  0  8  3  7  8 11 19 25 27 28
  11025311.58206  23712073.61606   8538347.27347  23712073.01147
 -13088260.08207  22051954.24107 -10195788.57448  22051951.89048
 -12143865.60907  22612844.74907  -9454394.86048  22612842.94448
 -16372894.52007  21579219.72607 -12749388.03848  21579217.48348
 -10931407.23007  22014589.82707  -8514608.10948  22014586.49148
  -8266497.62106  22967171.14706  -6439608.74948  22967169.84748
  -7104527.38707  22504550.61607  -5531064.51848  22504549.18348
   -164915.30506  25487895.11606   -121606.68147  25487893.90147
 08 11 15  3 45 30.0030000  0  8  3  7  8 11 19 25 27 28
  11114587.94506  23729062.10106   8607913.27347  23729060.27247
 -13036007.13706  22061897.81906 -10155072.00548  22061896.22248
 -12180021.45707  22605964.24907  -9482568.24348  22605964.14448
 -16425049.87507  21569294.81907 -12790028.55748  21569292.60848
 -10874755.33607  22025370.17107  -8470463.77348  22025366.44448
  -8185659.59806  22982554.29606  -6376618.06948  22982552.18348
  -7085805.88307  22508112.65507  -5516476.34648  22508111.65148
   -247190.98805  25472238.92105   -185717.56947  25472237.42547
 08 11 15  3 46  0.0030000  0  8  3  7  8 11 19 25 27 28
  11203944.79306  23746065.80406   8677541.98447  23746065.76547
 -12983191.35506  22071948.37406 -10113916.88648  22071946.35148
 -12215561.35507  22599201.46007  -9510261.68248  22599200.06248
 -16476721.05907  21559461.84307 -12830291.80848  21559459.69848
 -10817902.34807  22036189.21007  -8426162.76448  22036185.56548
  -8104450.82406  22998008.39706  -6313338.52748  22998005.93748
  -7066531.70307  22511780.59307  -5501457.52048  22511780.01148
   -329491.52305  25456577.66305   -249847.79646  25456575.85846
 08 11 15  3 46 30.0030000  0  8  3  7  8 11 19 25 27 28
  11293341.78506  23763077.70206   8747201.87747  23763077.17947
 -12929854.34007  22082097.81207 -10072355.60548  22082095.76148
 -12250523.76606  22592547.91306  -9537505.11148  22592546.61248
 -16527946.94507  21549713.69407 -12870208.08348  21549711.77648
 -10760888.66807  22047038.64007  -8381736.54148  22047035.60848
  -8022913.74206  23013524.01506  -6249803.16747  23013522.42947
  -7046745.26207  22515545.72607  -5486039.52448  22515544.35448
   -411855.99605  25440903.56905   -314027.89046  25440901.72946
 08 11 15  3 47  0.0030000  0  8  3  7  8 11 19 25 27 28
  11382806.51605  23780102.73305   8816914.61047  23780101.95247
 -12875969.04706  22092352.03806 -10030367.08648  22092350.17948
 -12284877.86306  22586010.53806  -9564274.55848  22586009.47248
 -16578697.29707  21540056.52207 -12909753.82448  21540054.31948
 -10703687.01607  22057923.66307  -8337163.84848  22057920.31948
  -7941021.95306  23029107.43706  -6185991.40048  23029105.64748
  -7026417.94506  22519413.49106  -5470200.06648  22519412.90548
   -494254.14805  25425223.59305   -378234.15146  25425221.05446
 08 11 15  3 47 30.0030000  0  8  3  7  8 11 19 25 27 28
  11472321.82806  23797137.01506   8886666.74147  23797136.78047
 -12821554.18806  22102706.42906  -9987965.88148  22102705.01948
 -12318639.08606  22579585.86606  -9590581.99648  22579584.60448
 -16628987.75407  21530486.66307 -12948941.17448  21530484.35148
 -10646315.29307  22068841.03007  -8292458.61748  22068838.21448
  -7858794.64506  23044755.18706  -6121918.19848  23044753.33148
  -7005566.96907  22523381.92107  -5453952.56048  22523380.97248
   -576701.80505  25409534.44405   -442479.08746  25409532.28446
 08 11 15  3 48  0.0030000  0  8  3  7  8 11 19 25 27 28
  11561884.37906  23814179.88206   8956455.74147  23814179.03447
 -12766613.68007  22113161.41307  -9945155.11348  22113160.10848
 -12351807.75806  22573273.71006  -9616427.71148  22573272.84748
 -16678819.28107  21521004.39007 -12987770.93448  21521001.37448
 -10588777.21507  22079790.26507  -8247623.72248  22079786.36248
  -7776236.77006  23060465.15506  -6057587.38048  23060463.47648
  -6984195.21906  22527448.85806  -5437299.23948  22527447.89448
   -659199.95305  25393835.42105   -506763.36746  25393832.52646
 08 11 15  3 48 30.0030000  0  8  3  7  8 11 19 25 27 28
  11651500.14806  23831233.56206   9026286.15747  23831232.45647
 -12711143.03907  22123717.65507  -9901931.25948  22123715.78848
 -12384375.53506  22567076.67906  -9641805.21148  22567075.30048
 -16728184.42207  21511610.06907 -13026237.28848  21511607.85148
 -10531066.98807  22090772.01507  -8202654.72248  22090768.47248
  -7693344.32406  23076238.40506  -5992995.90148  23076238.18348
  -6962296.89507  22531616.08507  -5420235.63348  22531614.60448
   -741740.98005  25378128.27205   -571080.99346  25378125.57346
 08 11 15  3 49  0.0030000  0  8  3  7  8 11 19 25 27 28
  11741197.13706  23848302.35106   9096179.89147  23848301.21447
 -12655115.03907  22134378.94407  -9858273.10748  22134377.27648
 -12416311.89106  22560999.53806  -9666690.70748  22560997.98748
 -16777052.74607  21502310.55407 -13064316.49048  21502308.54248
 -10473157.12106  22101791.77206  -8157530.15248  22101787.62848
  -7610090.84406  23092081.26506  -5928123.06848  23092080.85448
  -6939843.51607  22535888.82707  -5402739.50848  22535887.75748
   -824294.59005  25362418.65505   -635408.43246  25362416.31546
 08 11 15  3 49 30.0030000  0  8  3  7  8 11 19 25 27 28
  11830979.81306  23865387.86606   9166140.39947  23865386.76147
 -12598526.77007  22145147.68707  -9814178.35248  22145145.52648
 -12447610.59806  22555043.40506  -9691079.31348  22555042.56548
 -16825418.57407  21493106.90507 -13102004.16048  21493104.82748
 -10415044.03507  22112850.45207  -8112247.25548  22112846.49948
  -7526474.13306  23107993.71806  -5862967.24948  23107992.10848
  -6916830.85907  22540267.10107  -5384807.57948  22540266.61248
   -906854.80805  25346707.79605   -699740.96246  25346705.95246
 08 11 15  3 50  0.0030000  0  8  3  7  8 11 19 25 27 28
  11920827.80106  23882485.32706   9236151.79547  23882484.63647
 -12541400.04307  22156018.55407  -9769664.02248  22156016.39448
 -12478289.67606  22549205.66306  -9714985.08248  22549204.82348
 -16873300.57807  21483995.49907 -13139314.80248  21483993.25748
 -10356748.59807  22123943.71007  -8066822.25548  22123939.91348
  -7442516.70706  23123969.83506  -5797545.88048  23123968.47948
  -6893279.43807  22544749.13207  -5366455.81848  22544748.53048
   -989440.54305  25330992.82705   -764093.57846  25330990.28046
 08 11 15  3 50 30.0030000  0  9  3  6  7  8 11 19 25 27 28
  12010730.05906  23899593.32706   9306205.43847  23899592.31947
     38122.39511  25176201.05401         0.00000         0.00000
 -12483746.63307  22166989.56207  -9724739.30548  22166987.65548
 -12508357.94106  22543484.05406  -9738414.90348  22543482.81548
 -16920707.47707  21474974.14707 -13176255.24748  21474972.22248
 -10298281.80906  22135069.63206  -8021263.75448  22135066.33948
  -7358230.87106  23140008.82706  -5731868.64947  23140007.24147
  -6869199.79307  22549331.53007  -5347692.51448  22549330.62048
  -1072060.79606  25315270.49106   -828472.90946  25315268.49546
 08 11 15  3 51  0.0030000  0  9  3  6  7  8 11 19 25 27 28
  12100664.70306  23916707.35806   9376284.36847  23916705.10847
    124746.41411  25192684.79601         0.00000         0.00000
 -12425590.37507  22178056.10107  -9679422.74048  22178053.71048
 -12537835.14507  22537874.37407  -9761384.12848  22537873.28848
 -16967659.62507  21466039.49907 -13212841.32648  21466037.47948
 -10239666.52307  22146223.53007  -7975589.49248  22146219.69848
  -7273640.92607  23156105.64007  -5665954.42348  23156104.27248
  -6844614.21507  22554010.13207  -5328534.92748  22554009.29648
  -1154735.21506  25299537.33506   -892894.49046  25299536.38646
 08 11 15  3 51 30.0030000  0  9  3  6  7  8 11 19 25 27 28
  12190664.55505  23933833.19405   9446414.06847  23933832.01147
    211379.52001  25209170.80401         0.00000         0.00000
 -12366899.32807  22189224.42907  -9633689.46448  22189222.50748
 -12566685.81607  22532384.26507  -9783865.18748  22532383.12848
 -17014122.40607  21457198.06207 -13249046.10148  21457196.12448
 -10180870.18007  22157412.48307  -7929774.16948  22157408.16348
  -7188715.79706  23172266.53806  -5599779.01548  23172265.37448
  -6819489.69507  22558791.69407  -5308957.39848  22558789.85448
  -1237429.03506  25283802.24906   -957331.20947  25283801.04647
 08 11 15  3 52  0.0030000  0  8  3  7  8 11 19 25 27 28
  12280748.63306  23950975.28806   9516609.43647  23950975.51947
 -12307655.42607  22200498.31907  -9587525.40048  22200496.38648
 -12594888.57807  22527017.28807  -9805841.35948  22527016.53448
 -17060074.68407  21448453.60107 -13284853.05248  21448451.16348
 -10121874.10207  22168639.16307  -7883803.19848  22168635.80848
  -7103437.96907  23188494.52207  -5533328.78248  23188493.85848
  -6793806.95307  22563678.42907  -5288944.85948  22563677.73748
  -1320121.27006  25268066.41306  -1021766.69447  25268064.77647
 08 11 15  3 52 30.0030000  0  8  3  7  8 11 19 25 27 28
  12370891.86705  23968128.93705   9586850.84147  23968129.18747
 -12247885.66407  22211872.31907  -9540951.59348  22211870.46448
 -12622467.10907  22521768.98307  -9827331.13748  22521768.41748
 -17105540.21507  21439801.99907 -13320280.74448  21439799.24548
 -10062703.86707  22179899.10807  -7837696.55948  22179895.89048
  -7017835.12107  23204784.67907  -5466625.30848  23204783.47248
  -6767591.75807  22568666.67107  -5268517.48248  22568665.64048
  -1402835.55906  25252326.04606  -1086219.35146  25252324.38646
 08 11 15  3 53  0.0030000  0  8  3  7  8 11 19 25 27 28
  12461060.54306  23985287.89006   9657112.11447  23985288.28047
 -12187624.91007  22223339.61607  -9493995.17548  22223337.52248
 -12649452.87507  22516633.99107  -9848358.99348  22516632.72948
 -17150551.00407  21431236.46807 -13355354.08448  21431233.60148
 -10003393.84807  22191185.32707  -7791480.95648  22191182.47248
  -6931942.73406  23221129.42106  -5399696.17847  23221127.56547
  -6740877.68007  22573750.65507  -5247701.32648  22573749.35448
  -1485603.57405  25236575.85805  -1150713.90546  25236574.41746
 08 11 15  3 53 30.0030000  0  8  3  7  8 11 19 25 27 28
  12551310.62106  24002462.17106   9727436.79147  24002461.69847
 -12126818.60907  22234911.16307  -9446613.65148  22234908.60148
 -12675787.81607  22511622.42907  -9868879.73848  22511621.27248
 -17195049.43407  21422768.47607 -13390028.17348  21422766.13248
  -9943888.27307  22202508.56207  -7745113.00448  22202505.52248
  -6845706.80106  23237539.64706  -5332499.37448  23237538.59748
  -6713608.91406  22578939.80406  -5226452.94348  22578938.96448
  -1568367.35506  25220826.96806  -1215205.13146  25220825.24146
 08 11 15  3 54  0.0030000  0  8  3  7  8 11 19 25 27 28
  12641623.69106  24019648.16306   9797810.55447  24019647.58147
 -12065486.49206  22246581.38206  -9398822.42248  22246580.16748
 -12701488.16407  22506732.61607  -9888905.98448  22506730.43748
 -17239051.82807  21414395.21007 -13424315.75348  21414392.56548
  -9884206.19506  22213866.12406  -7698607.50048  22213862.82748
  -6759147.41406  23254010.74906  -5265050.56548  23254010.40548
  -6685803.83606  22584231.17106  -5204786.67248  22584229.46448
  -1651143.29306  25205074.74906  -1279705.79446  25205073.64746
 08 11 15  3 54 30.0030000  0  8  3  7  8 11 19 25 27 28
  12731992.28906  24036844.81206   9868227.54847  24036844.62847
 -12003638.06307  22258351.64707  -9350628.83248  22258349.38248
 -12726559.64107  22501962.03807  -9908442.19848  22501960.58548
 -17282564.74207  21406115.10107 -13458221.90448  21406112.67148
  -9824355.80107  22225254.56207  -7651970.83448  22225251.53448
  -6672274.61706  23270542.55406  -5197357.49648  23270541.36648
  -6657470.50006  22589622.37406  -5182708.73348  22589620.98348
  -1733937.33205  25189319.17105  -1344220.58746  25189317.48746
