     2              OBSERVATION DATA                        RINEX VERSION / TYPE
DAT2RINW 3.10 001   .                   16NOV08 14:21:19    PGM / RUN BY / DATE 
.                   .                                       OBSERVER / AGENCY   
0220363320          TRIMBLE 5700        Nav 2.23 Sig 2.23   REC # / TYPE / VERS 
0                   TRM39105.00     NONE                    ANT # / TYPE        
----------------------------------------------------------- COMMENT             
Offset from BOTTOM OF ANTENNA to PHASE CENTER is  46.0 mm   COMMENT             
----------------------------------------------------------- COMMENT             
0230                                                        MARKER NAME
0230                                                        MARKER NUMBER       
 -3063637.2332  4049883.6379  3846376.3335                  APPROX POSITION XYZ 
        1.4473        0.0000        0.0000                  ANTENNA: DELTA H/E/N
*** Above antenna height is from mark to BOTTOM OF ANTENNA. COMMENT             
----------------------------------------------------------- COMMENT             
Note: The above offsets are CORRECTED.                      COMMENT             
Raw Offsets: H=      1.4890 E=      0.0000 N=      0.0000   COMMENT             
----------------------------------------------------------- COMMENT             
     1     1     0                                          WAVELENGTH FACT L1/2
     4    L1    C1    L2    P2                              # / TYPES OF OBSERV 
    30                                                      INTERVAL            
  2008    11    15     0     0    0.000000                  TIME OF FIRST OBS   
  2008    11    15     8    10    0.000000                  TIME OF LAST OBS    
    20                                                      # OF SATELLITES     
     2     5     5     5     5                              PRN / # OF OBS      
     3   631   631   631   631                              PRN / # OF OBS      
     4   246   247   246   247                              PRN / # OF OBS      
     6   558   558   558   558                              PRN / # OF OBS      
     7   539   539   539   539                              PRN / # OF OBS      
     8   456   456   456   456                              PRN / # OF OBS      
    11   693   693   693   693                              PRN / # OF OBS      
    13   424   424   424   424                              PRN / # OF OBS      
    16   454   454   454   454                              PRN / # OF OBS      
    17   414   414   414   414                              PRN / # OF OBS      
    19   732   732   732   732                              PRN / # OF OBS      
    20   444   444   444   444                              PRN / # OF OBS      
    21   240   240   240   240                              PRN / # OF OBS      
    23   440   440   440   440                              PRN / # OF OBS      
    25   573   573   573   573                              PRN / # OF OBS      
    27   464   464   464   464                              PRN / # OF OBS      
    28   543   543   543   543                              PRN / # OF OBS      
    29    13    13    13    13                              PRN / # OF OBS      
    31   232   232   232   232                              PRN / # OF OBS      
    32   465   465   465   465                              PRN / # OF OBS      
                                                            END OF HEADER       
 08 11 14 23 59 59.9990000  0  8  3  6 13 16 19 21 23 31
  -9956750.28907  20708377.43307  -7730530.78548  20708375.22248
  -7321649.87107  20406071.44807  -5693931.44949  20406069.20649
  -7014873.22706  22606006.07306  -5448179.44547  22606002.21847
    -62293.75407  20388649.32307    -51405.75049  20388645.96849
  -2285154.12506  23393596.43306  -1777200.00847  23393592.43347
  -3249454.48406  23841216.23706  -2527718.50447  23841213.12447
  -5243595.57007  21268965.92507  -4084577.66048  21268961.17548
   3552273.21907  21772620.73707   2762774.28548  21772618.11248
 08 11 15  0  0 29.9990000  0  8  3  6 13 16 19 21 23 31
 -10044616.91007  20691657.08107  -7798998.27348  20691655.49548
  -7377095.02307  20395520.35407  -5737135.46949  20395518.35849
  -7090827.50406  22591551.84706  -5507364.59047  22591548.24147
    -50498.07807  20390893.94807    -42214.32049  20390890.51549
  -2406453.81306  23370514.39406  -1871719.24247  23370510.18747
  -3289081.32806  23833674.30806  -2558596.53547  23833672.16347
  -5270520.60207  21263842.37807  -4105558.19948  21263837.76548
   3605077.36707  21782669.12007   2803920.35948  21782666.03848
 08 11 15  0  0 59.9990000  0  9  3  6 13 16 19 21 23 25 31
 -10132039.23807  20675020.91707  -7867119.54748  20675019.24948
  -7432045.70307  20385063.56507  -5779954.17249  20385061.59749
  -7166274.40606  22577195.12806  -5566154.39547  22577191.87447
    -38470.43007  20393182.57307    -32842.13749  20393179.22649
  -2527581.93806  23347463.50306  -1966104.75847  23347460.09747
  -3328307.08606  23826209.55806  -2589162.05147  23826207.63247
  -5296816.45706  21258838.58906  -4126048.49248  21258833.20648
   -167058.48015  24155807.17505   -124355.55956  24155804.01146
   3658200.30907  21792777.97907   2845314.82448  21792776.05848
 08 11 15  0  1 29.9990000  0  9  3  6 13 16 19 21 23 25 31
 -10219027.56607  20658468.08107  -7934902.66048  20658465.49548
  -7486513.20307  20374698.87807  -5822396.37149  20374696.56549
  -7241223.19506  22562932.42506  -5624556.05147  22562929.72647
    -26224.06607  20395512.96407    -23299.53149  20395509.64049
  -2648548.27706  23324444.99506  -2060364.21147  23324441.29247
  -3367141.83606  23818821.17506  -2619422.91047  23818817.27247
  -5322494.89507  21253951.89407  -4146057.67648  21253947.47648
   -270109.27705  24136197.45605   -204654.88746  24136194.56246
   3711629.94907  21802945.37807   2886948.30148  21802942.85448
 08 11 15  0  1 59.9990000  0  9  3  6 13 16 19 21 23 25 31
 -10305572.19107  20641998.89407  -8002340.02048  20641996.37848
  -7540488.82007  20364427.65907  -5864455.29349  20364425.81949
  -7315663.27306  22548766.88606  -5682561.31347  22548764.44047
    -13751.83607  20397886.12007    -13580.91849  20397882.88249
  -2769342.76606  23301458.18306  -2154489.76647  23301454.01147
  -3405576.16006  23811505.58906  -2649371.69947  23811503.89747
  -5347547.73007  21249184.21407  -4165579.37148  21249179.78048
   -373140.79305  24116591.51905   -284939.18447  24116588.63247
   3765373.67207  21813172.41707   2928826.50048  21813170.06948
 08 11 15  0  2 29.9990000  0  9  3  6 13 16 19 21 23 25 31
 -10391664.95307  20625615.74507  -8069425.28148  20625613.73748
  -7593965.47707  20354250.98707  -5906125.40649  20354249.15149
  -7389586.05906  22534699.57306  -5740163.49647  22534697.56547
     -1048.04707  20400304.15107     -3681.87549  20400300.46049
  -2889956.46906  23278506.11206  -2248474.44547  23278502.11247
  -3443601.93406  23804270.26106  -2679002.13347  23804267.39447
  -5371968.02707  21244537.65107  -4184608.19948  21244532.74948
   -476145.40206  24096989.97906   -365202.48847  24096988.78447
   3819437.44107  21823460.19007   2970954.10248  21823457.82348
 08 11 15  0  2 59.9990000  0  9  3  6 13 16 19 21 23 25 31
 -10477310.51607  20609318.31507  -8136162.06348  20609316.37048
  -7646948.74607  20344169.01907  -5947411.06349  20344167.33149
  -7462995.57006  22520730.98706  -5797365.70347  22520727.71847
     11879.96907  20402764.02607      6391.90249  20402761.21049
  -3010393.48806  23255587.48706  -2342321.48847  23255583.79247
  -3481224.23806  23797111.08106  -2708318.18447  23797108.92547
  -5395761.62907  21240010.11207  -4203148.66448  21240004.96048
   -579127.64505  24077393.12005   -445448.38346  24077390.15146
   3873814.73407  21833807.90107   3013326.01248  21833805.64748
 08 11 15  0  3 29.9990000  0  9  3  6 13 16 19 21 23 25 31
 -10562507.85207  20593106.08107  -8202549.60548  20593103.32348
  -7699438.35207  20334180.61207  -5988312.05949  20334178.22949
  -7535889.85906  22506859.27606  -5854166.45347  22506855.93747
     25031.01607  20405266.95607     16639.46149  20405263.70649
  -3130651.75406  23232703.69006  -2436029.21547  23232699.68347
  -3518441.12906  23790029.18306  -2737318.34047  23790026.36247
  -5418928.60907  21235600.67507  -4221200.87548  21235596.19448
   -682086.44105  24057800.22205   -525676.04746  24057797.06546
   3928504.57807  21844215.37807   3055941.45348  21844212.92548
 08 11 15  0  3 59.9990000  0  9  3  6 13 16 19 21 23 25 31
 -10647251.64507  20576979.36207  -8268583.73048  20576977.31248
  -7751430.46907  20324286.65107  -6028825.38349  20324284.65149
  -7608264.09006  22493087.62806  -5910561.94947  22493083.72247
     38407.25807  20407811.97907     27062.50449  20407808.90149
  -3250725.85906  23209853.99506  -2529593.45347  23209850.18747
  -3555248.03506  23783024.81506  -2765999.02747  23783021.24547
  -5441465.43406  21231312.77606  -4238762.04348  21231308.09748
   -785017.15206  24038213.75306   -605881.78947  24038211.25747
   3983509.82407  21854682.07307   3098802.66048  21854679.78048
 08 11 15  0  4 29.9990000  0  9  3  6 13 16 19 21 23 25 31
 -10731541.05907  20560939.69807  -8334263.78549  20560937.62049
  -7802925.39807  20314487.85407  -6068951.30549  20314485.18749
  -7680117.09806  22479414.02606  -5966551.30547  22479411.37447
     52006.98807  20410400.11207     37659.68049  20410396.25749
  -3370614.34806  23187039.84706  -2623013.00847  23187036.09347
  -3591644.51206  23776099.01906  -2794359.91047  23776095.63247
  -5463372.82807  21227143.86207  -4255832.75448  21227138.76148
   -887919.02006  24018632.06506   -686065.06647  24018629.14747
   4038829.34407  21865209.33107   3141908.74248  21865206.65948
 08 11 15  0  4 59.9990000  0  9  3  6 13 16 19 21 23 25 31
 -10815376.10207  20544986.62807  -8399589.79749  20544984.52649
  -7853923.55507  20304782.95607  -6108690.12549  20304781.20249
  -7751447.43806  22465840.86206  -6022133.40247  22465837.24147
     65827.99207  20413030.17507     48429.28549  20413026.87449
  -3490315.98806  23164260.55806  -2716287.00047  23164257.22947
  -3627629.99606  23769250.66706  -2822400.50847  23769247.68347
  -5484651.77007  21223094.70607  -4272413.75448  21223089.96048
   -990791.78505  23999056.61205   -766225.64847  23999053.42147
   4094461.12907  21875796.01907   3185258.16448  21875792.85848
 08 11 15  0  5 29.9990000  0  9  3  6 13 16 19 21 23 25 31
 -10898758.79307  20529119.30007  -8464563.32049  20529116.89749
  -7904428.00807  20295172.69007  -6148044.25449  20295170.06949
  -7822256.92206  22452365.79206  -6077309.62147  22452362.64747
     79866.05107  20415701.65107     59368.01249  20415698.17949
  -3609832.12906  23141517.90906  -2809416.44547  23141514.31947
  -3663206.43406  23762480.52606  -2850122.36747  23762478.05447
  -5505305.63707  21219164.31507  -4288507.67248  21219159.78048
  -1093637.35506  23979485.78406   -846365.02347  23979483.49147
   4150401.07007  21886441.18307   3228847.70748  21886438.17548
 08 11 15  0  5 59.9990000  0  9  3  6 13 16 19 21 23 25 31
 -10981685.30507  20513339.05807  -8529181.39148  20513336.13648
  -7954436.28507  20285655.84707  -6187011.73849  20285653.50349
  -7892541.35506  22438991.52606  -6132076.71947  22438988.21847
     94122.13307  20418414.41707     70476.64149  20418411.24549
  -3729158.53106  23118811.10406  -2902398.03947  23118806.81947
  -3698370.38306  23755789.16706  -2877522.83247  23755785.48347
  -5525332.44507  21215353.55807  -4304112.98848  21215348.49548
  -1196452.43005  23959919.64405   -926480.61347  23959917.68347
   4206650.91007  21897145.12007   3272678.72748  21897141.96848
 08 11 15  0  6 29.9990000  0  9  3  6 13 16 19 21 23 25 31
 -11064149.73807  20497646.56507  -8593439.39849  20497644.36649
  -8003943.60907  20276235.22907  -6225588.88349  20276233.16749
  -7962294.55906  22425717.63606  -6186429.86347  22425715.06547
    108599.71107  20421169.35407     81757.85549  20421165.72249
  -3848288.70306  23096141.65106  -2995226.70347  23096137.75347
  -3733115.91805  23749176.89405  -2904597.21946  23749174.30446
  -5544727.70707  21211661.97207  -4319226.18448  21211657.51948
  -1299231.21905  23940361.47205  -1006567.88747  23940359.55447
   4263214.14107  21907908.55807   3316753.94548  21907905.90148
 08 11 15  0  6 59.9990000  0  9  3  6 13 16 19 21 23 25 31
 -11146158.42207  20482040.79207  -8657342.25049  20482038.39749
  -8052956.92607  20266908.06507  -6263781.08249  20266905.97649
  -8031521.89806  22412543.32306  -6240373.24247  22412541.27647
    123290.26607  20423964.91707     93205.03149  20423961.67549
  -3967227.87106  23073508.67506  -3087906.54747  23073504.08947
  -3767449.21506  23742643.84706  -2931350.42247  23742641.38247
  -5563498.74607  21208090.21407  -4333852.98848  21208086.01148
  -1401979.59806  23920808.91706  -1086631.54347  23920806.60147
   4320082.85907  21918729.79207   3361067.22748  21918727.46048
 08 11 15  0  7 29.9990000  0  9  3  6 13 16 19 21 23 25 31
 -11227705.56607  20466522.58107  -8720885.47749  20466520.21049
  -8101471.66007  20257676.35407  -6301584.77049  20257673.97949
  -8100217.41806  22399471.59706  -6293902.23047  22399468.88647
    138197.14507  20426801.43307    104820.77349  20426798.22649
  -4085969.81306  23050912.04206  -3180432.68447  23050908.78847
  -3801364.59806  23736190.30806  -2957777.96547  23736186.97247
  -5581641.31607  21204637.84707  -4347990.07448  21204633.12848
  -1504691.88306  23901264.67506  -1166667.10246  23901260.81546
   4377260.72307  21929610.58907   3405621.37948  21929607.25748
 08 11 15  0  7 59.9990000  0  9  3  6 13 16 19 21 23 25 31
 -11308791.99208  20451092.47908  -8784069.69549  20451090.06549
  -8149489.37107  20248538.65907  -6339001.17249  20248536.40949
  -8168381.40206  22386500.09706  -6347017.01247  22386497.46447
    153317.19507  20429678.63607    116602.61349  20429675.64049
  -4204514.09406  23028354.24506  -3272804.78947  23028350.51147
  -3834862.75006  23729816.42506  -2983880.39147  23729812.32347
  -5599157.66807  21201304.69807  -4361639.18048  21201299.54248
  -1607368.72706  23881725.22906  -1246675.05147  23881722.40547
   4434744.92207  21940549.78407   3450414.21548  21940547.22948
 08 11 15  0  8 29.9990000  0  9  3  6 13 16 19 21 23 25 31
 -11389410.42207  20435751.60407  -8846889.24649  20435748.96049
  -8197004.14107  20239496.92507  -6376025.66449  20239494.76549
  -8236005.80106  22373632.05006  -6399711.34447  22373628.35847
    168655.21107  20432597.70607    128554.29349  20432594.26949
  -4322852.84406  23005834.47206  -3365016.76247  23005831.20647
  -3867936.97306  23723522.08106  -3009652.49647  23723518.15947
  -5616042.12107  21198092.37807  -4374795.89548  21198087.23748
  -1710002.97705  23862194.55805  -1326649.75447  23862191.55847
   4492540.34007  21951547.79207   3495449.58648  21951545.34348
 08 11 15  0  8 59.9990000  0  9  3  6 13 16 19 21 23 25 31
 -11469558.11707  20420499.97907  -8909341.98049  20420497.70249
  -8244013.98807  20230551.23707  -6412656.71949  20230548.92949
  -8303087.59806  22360866.86206  -6451982.88347  22360863.77247
    184211.78907  20435557.80007    140676.29749  20435554.22649
  -4440982.63706  22983355.42506  -3457065.89147  22983351.34747
  -3900584.21505  23717309.10405  -3035091.88747  23717305.98747
  -5632293.37107  21194999.19807  -4387459.20348  21194993.95648
  -1812591.61705  23842672.97205  -1406588.92247  23842670.03447
   4550648.12107  21962605.39407   3540728.35248  21962603.19448
 08 11 15  0  9 29.9990000  0  9  3  6 13 16 19 21 23 25 31
 -11549239.23408  20405336.93308  -8971431.15249  20405335.00349
  -8290524.38707  20221700.58107  -6448898.57849  20221698.20249
  -8369630.36707  22348204.24507  -6503834.39547  22348201.61647
    199980.38307  20438558.78407    152963.50449  20438555.01149
  -4558906.78106  22960914.73706  -3548954.80147  22960911.23747
  -3932808.57805  23711176.65105  -3060201.78547  23711173.66747
  -5647917.14107  21192026.22907  -4399633.57848  21192021.55448
  -1915138.87105  23823158.31505  -1486495.82847  23823155.51547
   4609061.76207  21973721.23707   3586245.44948  21973719.13248
 08 11 15  0  9 59.9990000  0  9  3  6 13 16 19 21 23 25 31
 -11628453.71908  20390263.30808  -9033156.70749  20390260.63249
  -8336536.25807  20212944.71407  -6484751.98849  20212942.82749
  -8435634.27006  22335643.86206  -6555266.00047  22335640.96047
    215958.33607  20441599.12807    165413.85249  20441595.98749
  -4676624.52006  22938513.41706  -3640682.85247  22938509.59747
  -3964610.26205  23705125.30005  -3084982.28546  23705122.29246
  -5662915.03907  21189171.92507  -4411320.24648  21189167.24548
  -2017644.53105  23803652.53405  -1566370.34047  23803649.23347
   4667779.50807  21984894.87807   3631999.52048  21984892.86248
 08 11 15  0 10 29.9990000  0  9  3  6 13 16 19 21 23 25 31
 -11707200.53907  20375277.90107  -9094517.86349  20375275.44849
  -8382049.71907  20204283.98707  -6520217.00449  20204281.73749
  -8501097.25006  22323186.37006  -6606276.11347  22323183.75747
    232144.62107  20444679.15907    178026.53149  20444675.63649
  -4794133.94106  22916152.20606  -3732248.60947  22916148.78847
  -3995988.34406  23699154.00306  -3109432.72347  23699151.75347
  -5677287.40607  21186437.04207  -4422519.50448  21186432.24148
  -2120107.27706  23784154.43306  -1646211.44147  23784151.61647
   4726800.14107  21996126.04207   3677989.60248  21996124.16348
 08 11 15  0 10 59.9990000  0  9  3  6 13 16 19 21 23 25 31
 -11785476.91407  20360382.44007  -9155512.42249  20360380.16749
  -8427062.89807  20195718.02607  -6555292.20749  20195715.67549
  -8566015.91006  22310833.44006  -6656862.07847  22310829.89447
    248539.89107  20447799.46407    190802.06349  20447796.17949
  -4911431.53106  22893830.48706  -3823649.26247  22893827.42147
  -4026939.99606  23693264.31506  -3133550.90247  23693260.43747
  -5691032.92207  21183821.37807  -4433230.30148  21183817.06548
  -2222524.13305  23764664.83905  -1726016.77347  23764661.77247
   4786124.43807  22007415.15107   3724216.30548  22007412.53048
 08 11 15  0 11 29.9990000  0  9  3  6 13 16 19 21 23 25 31
 -11863281.44907  20345576.69807  -9216139.32049  20345574.76149
  -8471575.27707  20187247.75307  -6589977.17649  20187245.38649
  -8630387.88707  22298583.44007  -6707022.05947  22298580.57747
    265143.64107  20450958.44007    203740.04749  20450955.49549
  -5028514.73806  22871551.19806  -3914882.88747  22871547.68747
  -4057463.78106  23687455.70606  -3157335.65647  23687453.08147
  -5704151.78107  21181324.69807  -4443452.77748  21181320.63248
  -2324893.28905  23745184.80005  -1805784.93447  23745181.28047
   4845752.05907  22018762.19807   3770679.35948  22018760.04648
 08 11 15  0 11 59.9990000  0  9  3  6 13 16 19 21 23 25 31
 -11940612.29707  20330861.08107  -9276397.12149  20330858.57749
  -8515586.41407  20178872.79207  -6624271.57049  20178870.58549
  -8694212.28106  22286438.21406  -6756755.35947  22286434.51147
    281955.00807  20454157.67507    216839.79749  20454154.11249
  -5145381.17606  22849312.03406  -4005947.63347  22849308.49547
  -4087557.94906  23681729.30806  -3180785.67247  23681727.18347
  -5716643.84007  21178947.69807  -4453186.87148  21178943.42948
  -2427213.04706  23725714.02606  -1885514.60947  23725711.49947
   4905682.51607  22030165.83107   3817378.39848  22030164.10148
 08 11 15  0 12 29.9990000  0  9  3  6 13 16 19 21 23 25 31
 -12017465.92207  20316235.92507  -9336283.05149  20316233.77249
  -8559093.79307  20170593.48707  -6658173.41849  20170591.19049
  -8757484.15206  22274397.65906  -6806058.11347  22274394.92547
    298975.14807  20457396.33107    230102.23049  20457392.73349
  -5262026.39506  22827115.19006  -4096839.97747  22827111.55847
  -4117219.09806  23676084.53406  -3203898.22747  23676081.07747
  -5728507.13307  21176690.47907  -4462430.99648  21176686.14448
  -2529479.28906  23706253.70606  -1965202.56347  23706250.67547
   4965917.58207  22041628.98707   3864314.77048  22041626.76548
 08 11 15  0 12 59.9990000  0  9  3  6 13 16 19 21 23 25 31
 -12093848.58607  20301701.08107  -9395801.99649  20301698.90149
  -8602104.79307  20162408.92507  -6691688.47349  20162406.87849
  -8820209.75807  22262461.86207  -6854935.20747  22262458.79647
    316195.81307  20460673.72907    243520.93049  20460670.04249
  -5378455.97306  22804959.18306  -4187564.32047  22804954.94847
  -4146453.68406  23670521.75306  -3226678.43847  23670518.45647
  -5739749.80507  21174550.91707  -4471191.51648  21174546.63248
  -2631698.51606  23686801.57306  -2044853.90647  23686798.58147
   5026448.30907  22053147.68307   3911481.55948  22053144.71848
 08 11 15  0 13 29.9990000  0  9  3  6 13 16 19 21 23 25 31
 -12169756.03507  20287256.35407  -9454950.66049  20287254.73749
  -8644615.93407  20154319.12807  -6724814.04349  20154317.00749
  -8882384.64806  22250630.10406  -6903383.15647  22250627.03447
    333619.33607  20463989.17507    257097.68849  20463985.84749
  -5494664.55506  22782845.42506  -4278116.41847  22782841.14747
  -4175257.04706  23665040.15106  -3249122.61747  23665038.07747
  -5750368.64507  21172530.21407  -4479465.94948  21172526.44048
  -2733865.62106  23667359.88606  -2124464.62547  23667356.60447
   5087277.63707  22064723.04207   3958881.00048  22064720.30848
 08 11 15  0 13 59.9990000  0  9  3  6 13 16 19 21 23 25 31
 -12245181.67207  20272903.36207  -9513723.87949  20272901.40549
  -8686621.79707  20146325.86207  -6757545.87949  20146323.13249
  -8944000.55906  22238904.85406  -6951395.57047  22238902.30447
    351249.93807  20467344.27607    270835.81349  20467341.11249
  -5610644.60506  22760775.24506  -4368490.43447  22760771.72947
  -4203622.96506  23659642.73706  -3271225.91447  23659640.24147
  -5760358.96107  21170629.24507  -4487250.62148  21170625.01948
  -2835973.87106  23647929.47906  -2204029.48047  23647925.17547
   5148410.16007  22076356.24507   4006516.70348  22076353.26548
 08 11 15  0 14 29.9990000  0  9  3  6 13 16 19 21 23 25 31
 -12320124.08607  20258642.30007  -9572120.55549  20258640.08549
  -8728121.96507  20138428.40107  -6789883.66849  20138426.08949
  -9005056.48006  22227286.07306  -6998971.60547  22227284.11247
    369087.00007  20470738.53407    284734.80949  20470734.98349
  -5726393.73406  22738749.44006  -4458684.52047  22738744.98747
  -4231550.02706  23654329.27606  -3292987.26647  23654325.91347
  -5769720.82007  21168847.70607  -4494545.58648  21168843.26548
  -2938021.22305  23628510.68305  -2283546.93447  23628506.87447
   5209845.22707  22088046.79207   4054388.13748  22088044.32748
 08 11 15  0 14 59.9990000  0  9  3  6 13 16 19 21 23 25 31
 -12394580.28507  20244473.35407  -9630138.36749  20244471.22949
  -8769114.43407  20130628.21407  -6821825.84449  20130625.79249
  -9065549.24206  22215774.75306  -7046108.80947  22215772.56947
    387131.59407  20474172.33107    298795.52049  20474168.83149
  -5841908.05506  22716768.30006  -4548695.68448  22716763.38648
  -4259035.16006  23649098.35406  -3314404.21947  23649095.31547
  -5778452.94107  21167186.47907  -4501349.84048  21167181.76548
  -3040004.46105  23609103.89405  -2363014.38747  23609099.47947
   5271583.86707  22099795.37807   4102496.14148  22099791.93748
 08 11 15  0 15 29.9990000  0  9  3  6 13 16 19 21 23 25 31
 -12468549.22707  20230397.76107  -9687776.50849  20230395.78849
  -8809599.44507  20122923.84707  -6853372.60549  20122921.71449
  -9125476.69106  22204371.66706  -7092805.54747  22204368.77247
    405382.79307  20477645.26107    313017.21549  20477642.10849
  -5957185.54306  22694831.33906  -4638522.29347  22694827.60847
  -4286077.32806  23643952.81506  -3335476.05547  23643949.76547
  -5786555.80907  21165644.55807  -4507663.77348  21165639.51548
  -3141922.11305  23589709.18305  -2442430.71947  23589706.07347
   5333625.15206  22111601.65106   4150839.96548  22111598.94048
 08 11 15  0 15 59.9990000  0  9  3  6 13 16 19 21 23 25 31
 -12542028.96107  20216415.13607  -9745033.44549  20216413.14049
  -8849575.95307  20115316.56507  -6884523.13749  20115314.76149
  -9184836.48806  22193075.01906  -7139059.92647  22193072.62847
    423840.21907  20481157.72907    327399.61349  20481154.46449
  -6072223.25406  22672940.15106  -4728162.05547  22672936.61247
  -4312674.60906  23638890.97906  -3356201.16846  23638887.79246
  -5794029.16407  21164222.41707  -4513487.17648  21164217.07348
  -3243771.76605  23570326.40905  -2521794.05947  23570324.76547
   5395969.22307  22123464.87807   4199419.73848  22123461.74548
 08 11 15  0 16 29.9990000  0  9  3  6 13 16 19 21 23 25 31
 -12615020.94907  20202525.50307  -9801910.32049  20202522.67949
  -8889046.85207  20107805.40907  -6915279.68049  20107802.97649
  -9243630.09006  22181887.12806  -7184873.11747  22181884.29647
    442500.41007  20484708.77607    341940.01649  20484705.15149
  -6187021.88706  22651094.53406  -4817615.51647  22651090.92547
  -4338828.80105  23633913.55005  -3376581.06646  23633910.62846
  -5800876.46507  21162919.08107  -4518822.75048  21162914.58948
  -3345554.66405  23550958.31505  -2601105.37947  23550955.44447
   5458612.28907  22135385.40107   4248232.49648  22135383.04648
 08 11 15  0 16 59.9990000  0  9  3  6 13 16 19 21 23 25 31
 -12687525.34407  20188728.32307  -9858407.24649  20188725.87049
  -8928012.85207  20100390.50307  -6945642.80149  20100388.42949
  -9301856.99606  22170807.19806  -7230244.75447  22170804.69447
    461361.60207  20488297.50307    356637.03949  20488294.84749
  -6301580.14506  22629294.97206  -4906881.69948  22629291.00348
  -4364540.00006  23629021.72206  -3396615.74247  23629017.92947
  -5807099.23007  21161735.02607  -4523671.66848  21161730.68748
  -3447269.89505  23531603.14405  -2680364.00447  23531600.71847
   5521552.69506  22147362.60406   4297276.93848  22147360.32748
 08 11 15  0 17 29.9990000  0  9  3  6 13 16 19 21 23 25 31
 -12759542.80907  20175023.55807  -9914524.74249  20175021.53849
  -8966476.13307  20093071.40107  -6975614.18849  20093068.86249
  -9359517.36706  22159834.47906  -7275174.89847  22159832.02647
    480420.65207  20491924.60407    371488.24249  20491921.59749
  -6415898.42206  22607540.55806  -4995960.87948  22607537.17548
  -4389808.93806  23624211.76906  -3416305.80947  23624209.71447
  -5812700.11307  21160668.92507  -4528035.98848  21160664.35148
  -3548917.99605  23512260.22905  -2759570.28147  23512257.41747
   5584787.50006  22159395.66706   4346550.79348  22159393.51548
 08 11 15  0 17 59.9990000  0  9  3  6 13 16 19 21 23 25 31
 -12831075.77007  20161411.42507  -9970264.71949  20161409.07749
  -9004439.91807  20085846.99507  -7005196.35549  20085845.10849
  -9416613.39506  22148969.51906  -7319665.30147  22148966.79247
    499673.26207  20495588.03407    386490.26649  20495584.94449
  -6529977.77706  22585832.40906  -5084853.88347  22585828.77647
  -4414637.88306  23619488.16706  -3435653.02047  23619484.73347
  -5817682.80107  21159720.93307  -4531918.61348  21159716.25748
  -3650500.64805  23492929.45605  -2838725.58247  23492927.20247
   5648312.85907  22171484.59707   4396051.03548  22171481.84748
 08 11 15  0 18 29.9990000  0  9  3  6 13 16 19 21 23 25 31
 -12902115.43007  20147893.22907 -10025620.29349  20147890.95649
  -9041896.68407  20078719.15107  -7034383.44949  20078716.90549
  -9473136.64806  22138213.80806  -7363709.39547  22138210.89047
    519126.40207  20499289.69807    401648.54749  20499287.00349
  -6643808.55506  22564170.98706  -5173553.18048  22564167.86648
  -4439018.35505  23614848.37005  -3454650.78146  23614844.34746
  -5822040.37107  21158891.90907  -4535314.13748  21158886.85448
  -3752008.76205  23473613.33905  -2917822.77047  23473610.85447
   5712135.13307  22183629.27607   4445782.64548  22183627.64048
 08 11 15  0 18 59.9990000  0  9  3  6 13 16 19 21 23 25 31
 -12972656.19507  20134469.87007 -10080587.10549  20134467.53049
  -9078841.66007  20071688.97207  -7063171.74249  20071686.55049
  -9529079.72706  22127568.30806  -7407301.42247  22127565.06947
    538783.76607  20503030.57307    416965.96149  20503027.42149
  -6757383.87106  22542558.16706  -5262053.42648  22542555.13248
  -4462944.74205  23610294.79205  -3473294.71947  23610292.51947
  -5825769.03507  21158182.34707  -4538219.59848  21158177.56948
  -3853435.89506  23454312.00306  -2996856.90247  23454309.33547
   5776258.03907  22195831.45607   4495748.51648  22195829.73348
 08 11 15  0 19 29.9990000  0  9  3  6 13 16 19 21 23 25 31
 -13042707.51607  20121139.08907 -10135172.54349  20121136.87849
  -9115286.04707  20064753.68307  -7091569.97349  20064751.13649
  -9584452.30506  22117030.53406  -7450448.87547  22117028.40547
    558633.75407  20506808.02607    432433.48448  20506805.21448
  -6870712.65606  22520992.56506  -5350361.56648  22520988.69848
  -4486426.79705  23605826.91705  -3491592.38747  23605824.07347
  -5828880.31607  21157590.19007  -4540643.98448  21157585.13648
  -3954791.25805  23435024.47905  -3075835.08247  23435022.09347
   5840670.09407  22208088.38607   4545939.72348  22208086.39448
 08 11 15  0 19 59.9990000  0  9  3  6 13 16 19 21 23 25 31
 -13112260.48407  20107903.50307 -10189369.65649  20107901.42549
  -9151221.34807  20057915.47907  -7119571.50449  20057913.26949
  -9639245.15606  22106603.65106  -7493144.60947  22106601.95247
    578683.48007  20510623.38607    448056.63349  20510620.43349
  -6983784.16406  22499475.72206  -5438469.23848  22499471.85848
  -4509455.51206  23601444.03406  -3509536.82447  23601441.32347
  -5831366.70707  21157117.19007  -4542581.46148  21157112.72948
  -4056064.87105  23415753.45605  -3154749.58247  23415750.36247
   5905378.75807  22220402.30007   4596362.02748  22220400.38248
 08 11 15  0 20 29.9990000  0  9  3  6 13 16 19 21 23 25 31
 -13181316.34807  20094762.58107 -10243179.41449  20094760.55449
  -9186649.90207  20051173.30007  -7147178.17249  20051171.27249
  -9693458.77706  22096287.62006  -7535388.98047  22096285.44047
    598930.18807  20514476.51907    463833.28949  20514473.00749
  -7096599.08206  22478008.17506  -5526376.95748  22478004.08548
  -4532031.66405  23597148.03405  -3527128.62547  23597145.92547
  -5833231.03907  21156762.67507  -4544034.20348  21156757.83548
  -4157257.25006  23396496.94806  -3233600.77347  23396494.40147
   5970380.84807  22232771.98707   4647012.97748  22232770.10148
 08 11 15  0 20 59.9990000  0  9  3  6 13 16 19 21 23 25 31
 -13249869.19907  20081717.57307 -10296597.21149  20081715.32749
  -9221567.19907  20044528.83907  -7174386.45349  20044526.56549
  -9747087.16806  22086082.94006  -7577177.35547  22086079.49547
    619377.96907  20518367.17507    479766.61349  20518364.03449
  -7209150.45706  22456589.95606  -5614079.29348  22456586.14748
  -4554149.82806  23592939.18306  -3544363.56647  23592936.83147
  -5834469.45307  21156527.17507  -4544999.23448  21156522.34748
  -4258361.95306  23377257.94006  -3312383.67647  23377254.72647
   6035680.16806  22245197.91706   4697895.52348  22245196.61648
 08 11 15  0 21 29.9990000  0  9  3  6 13 16 19 21 23 25 31
 -13317924.73007  20068766.82307 -10349627.48849  20068764.49949
  -9255979.68807  20037980.54207  -7201201.37549  20037978.74149
  -9800135.67206  22075987.87806  -7618513.85247  22075984.80447
    640019.19907  20522295.51907    495850.68849  20522292.56249
  -7321442.54306  22435221.08106  -5701579.60248  22435217.21048
  -4575815.50406  23588816.62806  -3561245.91847  23588813.87047
  -5835089.21107  21156408.96407  -4545482.17648  21156403.97248
  -4359383.87906  23358034.00306  -3391102.04347  23358030.91747
   6101269.46906  22257679.51106   4749004.03948  22257677.33548
 08 11 15  0 21 59.9990000  0  9  3  6 13 16 19 21 23 25 31
 -13385480.16407  20055911.61207 -10402268.08249  20055909.28449
  -9289885.92607  20031528.42507  -7227621.82049  20031526.34749
  -9852601.21906  22066004.19006  -7659396.09447  22066000.93747
    660854.65607  20526260.19007    512086.10249  20526256.84749
  -7433471.89506  22413903.26906  -5788875.15648  22413899.20648
  -4597026.30506  23584779.95606  -3577773.78947  23584777.26147
  -5835089.52707  21156408.54207  -4545482.43848  21156404.24948
  -4460319.60506  23338826.51106  -3469753.27747  23338822.85147
   6167149.13306  22270215.51106   4800338.81648  22270213.72948
 08 11 15  0 22 29.9990000  0  9  3  6 13 16 19 21 23 25 31
 -13452532.62908  20043151.89408 -10454516.74649  20043149.74149
  -9323284.00007  20025173.28407  -7253646.28949  20025171.08549
  -9904480.23406  22056132.07306  -7699821.30547  22056129.37047
    681886.12907  20530262.43307    528474.26249  20530258.98349
  -7545234.35906  22392635.07306  -5875962.77348  22392631.54648
  -4617779.21505  23580830.91705  -3593944.87147  23580828.13247
  -5834469.17207  21156526.88607  -4544999.06348  21156521.56548
  -4561165.36305  23319635.64405  -3548334.37147  23319632.83547
   6233320.41807  22282807.67507   4851900.83248  22282804.62448
 08 11 15  0 22 59.9990000  0  9  3  6 13 16 19 21 23 25 31
 -13519081.61707  20030488.07307 -10506373.10249  20030486.01549
  -9356174.52307  20018914.07307  -7279275.26249  20018911.92549
  -9955772.10206  22046371.31506  -7739788.99647  22046368.59347
    703111.91807  20534301.39407    545013.84049  20534298.23749
  -7656728.28906  22371418.63606  -5962841.16048  22371414.72648
  -4638073.87906  23576969.34706  -3609758.88747  23576966.39047
  -5833229.44107  21156762.75307  -4544033.05148  21156757.61648
  -4661919.88706  23300462.63606  -3626844.36747  23300460.42147
   6299782.37107  22295455.44807   4903689.34048  22295451.74948
 08 11 15  0 23 29.9990000  0  9  3  6 13 16 19 21 23 25 31
 -13585125.73408  20017920.32308 -10557836.04749  20017918.56949
  -9388557.12507  20012751.61207  -7304508.45749  20012749.24949
 -10006474.31607  22036722.93307  -7779297.22747  22036719.76147
    724531.89807  20538377.48707    561704.73448  20538374.11648
  -7767951.04306  22350253.88606  -6049508.22348  22350249.80448
  -4657908.69906  23573194.55006  -3625214.59447  23573191.80047
  -5831370.94907  21157116.08107  -4542584.89548  21157111.12448
  -4762580.77306  23281307.12006  -3705281.41047  23281305.14047
   6366534.31607  22308157.64407   4955703.80548  22308154.12848
 08 11 15  0 23 59.9990000  0  9  3  6 13 16 19 21 23 25 31
 -13650665.44508  20005448.72908 -10608905.94549  20005446.31949
  -9420433.87907  20006685.79207  -7329347.48449  20006683.81549
 -10056588.24206  22027186.55806  -7818347.04347  22027183.19847
    746143.26607  20542489.98707    578544.75049  20542486.90549
  -7878902.54706  22329139.94806  -6135963.91048  22329136.14748
  -4677284.91406  23569508.30006  -3640312.93447  23569504.32347
  -5828895.98007  21157587.47207  -4540656.35948  21157582.41348
  -4863148.28506  23262170.03406  -3783645.71147  23262168.01947
   6433573.48007  22320915.05007   5007942.07848  22320912.15148
 08 11 15  0 24 29.9990000  0  9  3  6 13 16 19 21 23 25 31
 -13715704.80908  19993072.01908 -10659585.96549  19993070.03849
  -9451809.66407  20000714.75307  -7353796.14549  20000712.84749
 -10106117.18806  22017761.80806  -7856941.02047  22017758.28047
    767940.72307  20546638.14407    595529.77748  20546634.39748
  -7989585.28506  22308078.24506  -6222210.16448  22308073.99548
  -4696206.09806  23565907.66706  -3655056.72747  23565903.87447
  -5825810.61307  21158174.20607  -4538252.18848  21158169.33948
  -4963625.25406  23243049.88606  -3861939.43447  23243047.68747
   6500894.23007  22333725.87007   5060399.77748  22333723.45248
 08 11 15  0 24 59.9990000  0  9  3  6 13 16 19 21 23 25 31
 -13780241.59008  19980791.08908 -10709874.37949  19980788.70249
  -9482683.00807  19994840.30007  -7377853.28549  19994838.24549
 -10155058.22306  22008448.30006  -7895076.89147  22008444.96047
    789925.05107  20550821.40907    612660.42648  20550817.94848
  -8099995.66806  22287067.85406  -6308244.21548  22287062.88648
  -4714670.09406  23562393.96406  -3669444.26247  23562390.81547
  -5822114.09807  21158877.47207  -4535371.79748  21158872.79648
  -5064008.27005  23223947.43305  -3940159.94147  23223944.90947
   6568497.34407  22346590.27607   5113077.50848  22346588.22648
 08 11 15  0 25 29.9990000  0  9  3  6 13 16 19 21 23 25 31
 -13844270.57408  19968606.84708 -10759767.08249  19968604.95249
  -9513050.28107  19989061.63607  -7401516.09849  19989059.61249
 -10203406.08606  21999248.29206  -7932750.55547  21999244.90947
    812099.65607  20555040.95607    629939.33248  20555037.89448
  -8210127.69506  22266109.88606  -6394061.39148  22266105.76148
  -4732672.07406  23558967.67506  -3683471.77347  23558965.49547
  -5817803.79307  21159697.85407  -4532013.13348  21159693.46848
  -5164291.54306  23204864.68306  -4018302.72747  23204861.81947
   6636385.88306  22359509.00306   5165977.64848  22359506.14448
 08 11 15  0 25 59.9990000  0  9  3  6 13 16 19 21 23 25 31
 -13907794.57408  19956518.44008 -10809266.30949  19956516.28849
  -9542915.03908  19983378.39408  -7424787.34049  19983376.33549
 -10251163.85507  21990160.52607  -7969964.40647  21990156.50347
    834460.38707  20559296.02607    647363.27049  20559292.87449
  -8319982.73806  22245205.80806  -6479662.70748  22245201.41748
  -4750214.28506  23555629.58906  -3697140.99647  23555626.72247
  -5812883.20707  21160634.57307  -4528178.92648  21160630.22248
  -5264476.59006  23185800.70606  -4096369.00447  23185797.00747
   6704555.41807  22372481.07307   5219096.71548  22372479.12048
 08 11 15  0 26 29.9990000  0  9  3  6 13 16 19 21 23 25 31
 -13970810.72308  19944527.14408 -10858369.78549  19944524.68749
  -9572275.55907  19977791.26907  -7447665.65649  19977789.49949
 -10298326.93807  21981184.87807  -8006714.86747  21981182.41747
    857008.41807  20563587.06507    664933.16848  20563583.89048
  -8429556.82006  22224354.19806  -6565045.07048  22224350.48348
  -4767294.47306  23552379.76106  -3710450.26247  23552376.55047
  -5807351.74607  21161687.22907  -4523868.70748  21161682.49148
  -5364559.76206  23166754.87006  -4174355.87147  23166752.47647
   6773006.85907  22385507.21407   5272435.47748  22385504.40548
 08 11 15  0 26 59.9990000  0  9  3  6 13 16 19 21 23 25 31
 -14033326.28508  19932630.69008 -10907083.21549  19932628.03449
  -9601140.27707  19972298.63607  -7470157.65249  19972296.62049
 -10344902.72306  21972322.18306  -8043007.68847  21972319.06947
    879735.11707  20567911.58107    682642.27748  20567908.10848
  -8538855.94906  22203555.84706  -6650213.21548  22203550.72248
  -4783919.59006  23549216.83106  -3723404.91047  23549214.13247
  -5801219.26607  21162854.19007  -4519090.15248  21162849.15148
  -5464547.18406  23147727.77606  -4252268.13747  23147725.55847
   6841731.36706  22398584.96406   5325987.00048  22398582.29248
 08 11 15  0 27 29.9990000  0  9  3  6 13 16 19 21 23 25 31
 -14095333.50007  19920831.12807 -10955400.51649  19920828.66749
  -9629502.51607  19966901.37807  -7492258.09049  19966899.70649
 -10390883.51607  21963572.19007  -8078836.87547  21963568.76947
    902646.52007  20572271.58107    700495.31348  20572268.44848
  -8647871.37507  22182810.47907  -6735160.26248  22182806.22248
  -4800082.45306  23546139.32306  -3735999.36346  23546137.32746
  -5794479.47307  21164136.87807  -4513838.39548  21164132.29248
  -5564430.19106  23128720.94806  -4330099.02347  23128718.52647
   6910734.63706  22411715.99506   5379755.75848  22411713.33948
 08 11 15  0 27 59.9990000  0  9  3  6 13 16 19 21 23 25 31
 -14156831.83607  19909128.31507 -11003321.28549  19909126.17149
  -9657362.68807  19961600.02607  -7513967.32049  19961597.58149
 -10436268.43807  21954935.85407  -8114201.73847  21954933.15547
    925741.70707  20576666.50307    718491.55549  20576663.60149
  -8756601.04307  22162119.66707  -6819884.68848  22162116.26548
  -4815781.71905  23543152.15105  -3748232.58246  23543150.17546
  -5787133.32807  21165534.55807  -4508114.13348  21165530.74148
  -5664207.00806  23109733.72906  -4407847.19547  23109731.13247
   6980015.77706  22424899.19006   5433741.03548  22424897.90148
 08 11 15  0 28 29.9990000  0  9  3  6 13 16 19 21 23 25 31
 -14217819.22307  19897523.03407 -11050843.92249  19897520.43349
  -9684720.12507  19956393.83107  -7535284.79349  19956391.96849
 -10481055.30106  21946413.28406  -8149100.60247  21946410.27247
    949021.12907  20581096.26907    736631.36748  20581092.93748
  -8865041.78907  22141484.35407  -6904383.94948  22141479.99548
  -4831015.95706  23540253.72206  -3760103.40246  23540250.49146
  -5779181.36307  21167047.87007  -4501917.80148  21167043.93748
  -5763874.73806  23090767.92506  -4485510.32847  23090765.39747
   7049574.81306  22438136.36206   5487942.84848  22438134.00348
 08 11 15  0 28 59.9990000  0  9  3  6 13 16 19 21 23 25 31
 -14278303.54708  19886013.08908 -11097974.55149  19886010.77649
  -9711583.34407  19951281.92507  -7556217.16449  19951279.65949
 -10525251.14506  21938002.72906  -8183538.93047  21938000.34747
    972475.89507  20585559.56507    754907.79348  20585556.40948
  -8973200.14506  22120902.40106  -6988663.16048  22120898.17548
  -4845793.24606  23537441.98706  -3771618.18446  23537438.78046
  -5770632.70307  21168673.98707  -4495256.52048  21168669.81948
  -5863439.76206  23071821.13606  -4563093.45347  23071818.27647
   7119402.38306  22451423.62806   5542353.92648  22451421.98748
 08 11 15  0 29 29.9990000  0  9  3  6 13 16 19 21 23 25 31
 -14338280.00008  19874599.83108 -11144709.44549  19874597.64749
  -9737949.03907  19946264.40107  -7576761.85549  19946262.68349
 -10568851.09407  21929706.40907  -8217512.89847  21929703.58547
    996108.82407  20590056.96407    773323.04749  20590053.77249
  -9081070.18406  22100374.80806  -7072717.71548  22100371.19448
  -4860108.39506  23534717.44806  -3782772.85946  23534713.44046
  -5761485.08207  21170414.98707  -4488128.51648  21170411.01948
  -5962896.54306  23052894.62806  -4640592.23447  23052892.68347
   7189501.62506  22464763.77606   5596976.67648  22464761.49148
 08 11 15  0 29 59.9990000  0  9  3  6 13 16 19 21 23 25 31
 -14397744.72308  19863284.12808 -11191045.58649  19863281.89449
  -9763814.06607  19941342.83107  -7596916.42249  19941340.69449
 -10611851.18807  21921524.12807  -8251019.47747  21921520.87047
   1019923.02007  20594588.34707    791879.54349  20594585.63649
  -9188646.41006  22079903.79206  -7156543.30948  22079899.69048
  -4873957.73805  23532081.97205  -3793564.59446  23532079.12846
  -5751736.22707  21172270.55007  -4480532.02048  21172266.35448
  -6062239.70706  23033991.14406  -4718002.48847  23033987.61647
   7259874.46906  22478155.43306   5651812.63748  22478152.53448
 08 11 15  0 30 29.9990000  0  9  3  6 13 16 19 21 23 25 31
 -14456696.96108  19852065.95608 -11236982.37949  19852063.91749
  -9789179.09007  19936515.80807  -7616681.37149  19936514.10149
 -10654250.03506  21913455.72906  -8284057.53947  21913453.04647
   1043917.49607  20599154.57307    810576.52748  20599151.54248
  -9295927.32006  22059489.05806  -7240138.81648  22059485.35148
  -4887340.87505  23529535.07305  -3803993.02346  23529532.31546
  -5741387.74607  21174239.87007  -4472468.27048  21174234.91748
  -6161467.59006  23015108.77606  -4795322.91447  23015104.99547
   7330519.77306  22491598.79206   5706860.89148  22491595.35848
 08 11 15  0 30 59.9990000  0  9  3  6 13 16 19 21 23 25 31
 -14515130.26208  19840946.40108 -11282514.80549  19840944.28449
  -9814038.72307  19931785.18307  -7636052.51249  19931783.08949
 -10696041.57006  21905502.70606  -8316622.38347  21905499.72947
   1068097.40607  20603756.05007    829417.99248  20603752.61648
  -9402905.09406  22039132.04206  -7323498.08248  22039128.61648
  -4900251.43406  23527078.44806  -3814053.21946  23527075.36646
  -5730434.53907  21176323.85407  -4463933.31348  21176319.48748
  -6260572.39106  22996249.49506  -4872547.43847  22996246.39747
   7401442.47707  22505095.02607   5762125.29748  22505091.66348
 08 11 15  0 31 29.9990000  0  9  3  6 13 16 19 21 23 25 31
 -14573051.05108  19829924.55808 -11327647.88749  19829922.40949
  -9838400.44507  19927149.44807  -7655035.66849  19927147.33549
 -10737231.29306  21897664.64406  -8348718.28147  21897661.23347
   1092455.22307  20608390.76107    848398.10948  20608388.00748
  -9509584.64506  22018830.53406  -7406624.97748  22018827.62848
  -4912695.55906  23524710.94806  -3823749.94546  23524706.41746
  -5718885.43407  21178521.82307  -4454934.00448  21178517.15548
  -6359559.38706  22977412.63606  -4949680.14147  22977410.03047
   7472634.52006  22518642.36206   5817599.58248  22518640.46048
 08 11 15  0 31 59.9990000  0  9  3  6 13 16 19 21 23 25 31
 -14630455.00408  19819000.55808 -11372378.22749  19818998.53449
  -9862261.02308  19922608.87008  -7673628.32049  19922606.85449
 -10777815.11706  21889941.72206  -8380342.06647  21889939.21047
   1116993.43007  20613060.49507    867518.77049  20613057.60149
  -9615960.26206  21998588.79206  -7489515.05548  21998585.02648
  -4924668.83606  23522432.55806  -3833079.73047  23522428.24547
  -5706737.82007  21180833.36207  -4445468.33648  21180829.24148
  -6458422.87106  22958599.47206  -5026716.61347  22958597.09347
   7544098.57806  22532240.69806   5873285.84848  22532238.84348
 08 11 15  0 32 29.9990000  0  9  3  6 13 16 19 21 23 25 31
 -14687347.04708  19808174.50308 -11416709.68049  19808172.21449
  -9885626.24207  19918162.68307  -7691834.98449  19918160.22949
 -10817797.08606  21882333.75306  -8411496.83247  21882331.17147
   1141706.64807  20617763.43307    886775.82048  20617760.22648
  -9722035.55506  21978403.07306  -7572171.10948  21978399.41748
  -4936176.12906  23520242.61206  -3842046.52747  23520239.48747
  -5693998.36707  21183257.65107  -4435541.49248  21183253.24148
  -6557166.22306  22939809.54206  -5103659.48047  22939806.35847
   7615827.89506  22545890.35406   5929178.78948  22545888.73348
 08 11 15  0 32 59.9990000  0  9  3  6 13 16 19 21 23 25 31
 -14743724.20308  19797446.33108 -11460639.92249  19797443.81249
  -9908494.21907  19913810.90907  -7709654.17649  19913808.85849
 -10857174.46906  21874840.23706  -8442180.50847  21874837.60447
   1166596.21907  20622499.61207    906170.27348  20622496.25348
  -9827806.25806  21958276.08906  -7654589.80948  21958272.07348
  -4947215.05905  23518141.72205  -3850648.28147  23518138.98347
  -5680666.70307  21185794.23707  -4425153.19548  21185789.96848
  -6655785.42206  22921042.50306  -5180505.58647  22921039.53047
   7687824.27006  22559591.51106   5985279.81648  22559589.38648
 08 11 15  0 33 29.9990000  0  9  3  6 13 16 19 21 23 25 31
 -14799583.63308  19786816.56508 -11504166.74649  19786814.35449
  -9930863.34407  19909554.26107  -7727084.66449  19909551.80049
 -10895943.90207  21867462.36207  -8472390.44547  21867459.76947
   1191663.89807  20627269.83107    925703.51648  20627266.75348
  -9933268.15606  21938207.34706  -7736767.88348  21938203.39048
  -4957782.47306  23516130.65106  -3858882.60547  23516128.08547
  -5666741.38307  21188444.07307  -4414302.30948  21188439.85148
  -6754275.98406  22902301.16706  -5257251.47347  22902297.55447
   7760088.48006  22573342.75306   6041589.56648  22573340.23348
 08 11 15  0 33 59.9990000  0  9  3  6 13 16 19 21 23 25 31
 -14854926.84008  19776284.99508 -11547291.32049  19776283.22649
  -9952736.57407  19905392.22207  -7744128.73049  19905389.57349
 -10934106.98807  21860200.67507  -8502127.93047  21860197.96847
   1216906.36307  20632073.48707    945372.97348  20632070.36648
 -10038421.91006  21918197.15906  -7818705.84048  21918193.19448
  -4967881.02005  23514208.99505  -3866751.63746  23514206.22246
  -5652226.70707  21191205.95607  -4402992.18448  21191202.06548
  -6852638.82006  22883582.59706  -5333897.81647  22883579.33947
   7832616.90206  22587144.56506   6098105.17248  22587141.83148
 08 11 15  0 34 29.9990000  0  9  3  6 13 16 19 21 23 25 31
 -14909742.52308  19765854.00308 -11590004.84049  19765851.81549
  -9974103.71907  19901326.20607  -7760778.45349  19901323.79249
 -10971652.41007  21853056.01107  -8531384.09848  21853053.69048
   1242333.94107  20636911.94807    965186.66448  20636909.22948
 -10143254.67607  21898248.09707  -7900393.68448  21898244.10148
  -4977499.08605  23512378.27605  -3874246.23446  23512375.48346
  -5637113.09007  21194082.48707  -4391215.36748  21194078.07748
  -6950861.08206  22864890.79206  -5410434.62947  22864889.09347
   7905419.34406  22600997.97206   6154834.30948  22600995.64748
 08 11 15  0 34 59.9990000  0  9  3  6 13 16 19 21 23 25 31
 -14964040.86708  19755521.37808 -11632315.23449  19755519.60849
  -9994975.39508  19897354.26908  -7777042.09049  19897352.34749
 -11008589.60207  21846026.94007  -8560166.34848  21846024.51548
   1267935.61307  20641784.20607    985136.00449  20641781.11249
 -10247774.92606  21878358.45606  -7981838.02048  21878354.34748
  -4986645.78505  23510637.91705  -3881373.50846  23510635.26146
  -5621412.30507  21197070.30807  -4378981.00448  21197066.15948
  -7048950.86306  22846225.12006  -5486868.21547  22846222.79247
   7978484.49206  22614901.77606   6211768.15248  22614899.55848
 08 11 15  0 35 29.9990000  0  9  3  6 13 16 19 21 23 25 31
 -15017823.48808  19745287.31508 -11674223.77349  19745284.87449
 -10015354.20307  19893476.06507  -7792921.67649  19893474.15949
 -11044919.91807  21839113.37007  -8588475.68047  21839111.02647
   1293709.07407  20646688.47907   1005219.21948  20646685.36648
 -10351982.74207  21858528.62807  -8063038.87948  21858524.43348
  -4995322.90205  23508986.33905  -3888134.94946  23508983.60146
  -5605127.90607  21200169.22907  -4366291.86348  21200164.80448
  -7146908.23006  22827584.46406  -5563198.63747  22827581.32347
   8051809.43406  22628855.12006   6268904.46948  22628852.51548
 08 11 15  0 35 59.9990000  0  9  3  6 13 16 19 21 23 25 31
 -15071079.50007  19735152.83107 -11715721.97349  19735150.15949
 -10035231.08207  19889694.01907  -7808410.14849  19889691.55849
 -11080632.84806  21832316.97906  -8616303.95347  21832314.99147
   1319663.28107  20651627.39407   1025443.27348  20651624.45248
 -10455866.44906  21838760.37006  -8143987.20348  21838755.40548
  -5003520.77306  23507427.22906  -3894522.89147  23507424.35147
  -5588251.47307  21203380.65907  -4353141.40648  21203375.67948
  -7244721.70706  22808971.58106  -5639416.92647  22808968.23347
   8125402.65207  22642860.05007   6326249.79348  22642857.48748
 08 11 15  0 36 29.9990000  0  9  3  6 13 16 19 21 23 25 31
 -15123810.96908  19725118.33108 -11756811.43449  19725116.10449
 -10054609.00807  19886006.49507  -7823509.82849  19886003.96849
 -11115730.21506  21825638.70606  -8643652.54747  21825636.24547
   1345795.33207  20656600.01107   1045805.90648  20656596.80048
 -10559426.59406  21819053.49506  -8224683.39548  21819048.14748
  -5011241.23006  23505957.83906  -3900538.85546  23505955.44046
  -5570787.66407  21206704.18307  -4339533.24648  21206699.47648
  -7342391.54306  22790386.21406  -5715523.29347  22790383.02247
   8199260.36707  22656914.49507   6383801.24248  22656911.58148
 08 11 15  0 36 59.9990000  0  9  3  6 13 16 19 21 23 25 31
 -15176021.16008  19715183.03408 -11797494.70349  19715180.33149
 -10073491.73408  19882413.51108  -7838223.64149  19882410.91749
 -11150214.28106  21819076.94006  -8670523.26248  21819074.00348
   1372101.52707  20661606.00307   1066304.22348  20661602.66348
 -10662664.34806  21799408.17506  -8305128.38348  21799402.42148
  -5018486.71905  23504579.97205  -3906184.71546  23504576.44446
  -5552740.73007  21210138.05807  -4325470.70348  21210133.05848
  -7439919.01206  22771826.60406  -5791518.71547  22771824.31947
   8273378.46507  22671018.70607   6441555.56348  22671016.47248
 08 11 15  0 37 29.9990000  0  9  3  6 13 16 19 21 23 25 31
 -15227701.32808  19705348.67508 -11837764.96149  19705346.29649
 -10091871.86707  19878915.19807  -7852545.80949  19878912.97249
 -11184076.59406  21812632.83906  -8696909.48048  21812630.83148
   1398589.30507  20666646.44807   1086944.05548  20666643.41748
 -10765569.80906  21779825.36206  -8385314.46148  21779820.11648
  -5025249.09405  23503291.87005  -3911454.09046  23503289.06546
  -5534104.11307  21213684.22207  -4310948.68048  21213679.75348
  -7537293.85906  22753297.30006  -5867395.19547  22753295.24547
   8347763.93406  22685173.78406   6499518.22347  22685171.19447
 08 11 15  0 37 59.9990000  0  9  3  6 13 16 19 21 23 25 31
 -15278857.76608  19695614.14408 -11877627.11749  19695611.22949
 -10109756.90607  19875512.23707  -7866482.20349  19875509.60849
 -11217323.44106  21806306.03406  -8722816.10548  21806304.31248
   1425251.04307  20671719.86207   1107719.42248  20671716.95248
 -10868147.98006  21760305.62006  -8465245.50848  21760300.99948
  -5031534.84005  23502095.77605  -3916352.05546  23502093.43346
  -5514886.37907  21217340.89407  -4295973.84448  21217337.17548
  -7634521.12506  22734795.66706  -5943156.70347  22734792.63247
   8422408.85506  22699377.77606   6557683.07448  22699375.19848
 08 11 15  0 38 29.9990000  0  9  3  6 13 16 19 21 23 25 31
 -15329494.84808  19685977.76908 -11917084.58249  19685975.79249
 -10127152.29307  19872201.78407  -7880037.05149  19872199.26549
 -11249959.08207  21800096.39407  -8748246.48448  21800093.12848
   1452081.49207  20676825.93307   1128626.24648  20676822.73348
 -10970401.94506  21740846.97906  -8544923.88748  21740842.00748
  -5037348.14106  23500990.55006  -3920881.87547  23500987.66747
  -5495093.85907  21221107.54207  -4280551.12948  21221103.57748
  -7731603.60206  22716321.73706  -6018805.36747  22716318.10147
   8497307.13306  22713631.32306   6616045.32848  22713628.63648
 08 11 15  0 38 59.9990000  0  9  3  6 13 16 19 21 23 25 31
 -15379603.45708  19676442.62808 -11956130.25449  19676440.26549
 -10144049.96107  19868986.30807  -7893204.06649  19868983.83149
 -11281974.03906  21794003.39406  -8773193.19947  21794000.04247
   1479088.58207  20681964.99507   1149670.71948  20681962.02648
 -11072321.07006  21721451.94006  -8624341.35948  21721448.40548
  -5042680.40606  23499975.83906  -3925036.89147  23499973.28047
  -5474719.97707  21224985.41707  -4264675.39548  21224980.67548
  -7828530.57406  22697876.77606  -6094332.85547  22697873.91747
   8572466.20306  22727933.75306   6674610.82448  22727930.18348
 08 11 15  0 39 29.9990000  0  9  3  6 13 16 19 21 23 25 31
 -15429188.04308  19667007.01108 -11994767.58649  19667004.47949
 -10160455.47307  19865864.31507  -7905987.57449  19865862.32349
 -11313372.73806  21788028.87006  -8797659.71148  21788026.01148
   1506267.42207  20687137.30807   1170849.02048  20687133.90548
 -11173908.48806  21702121.08106  -8703500.39548  21702116.48348
  -5047535.77005  23499051.33105  -3928820.30946  23499048.47646
  -5453771.01607  21228972.08907  -4248351.53548  21228967.05448
  -7925304.68006  22679461.18306  -6169741.24247  22679458.39447
   8647880.25006  22742284.15106   6733374.98848  22742281.30448
 08 11 15  0 39 59.9990000  0  9  3  6 13 16 19 21 23 25 31
 -15478248.43008  19657670.99508 -12032996.46149  19657668.70249
 -10176369.59407  19862835.69007  -7918388.19549  19862833.40949
 -11344154.80506  21782170.94006  -8821645.74248  21782168.26148
   1533617.02007  20692341.37007   1192160.38748  20692338.55048
 -11275162.32006  21682852.66706  -8782399.48448  21682848.43748
  -5051914.33605  23498218.11205  -3932232.18046  23498214.45246
  -5432248.74607  21233067.37007  -4231580.94548  21233062.19848
  -8021924.14106  22661075.10406  -6245029.11747  22661072.01147
   8723547.99606  22756683.34706   6792336.84847  22756679.78047
 08 11 15  0 40 29.9990000  0  9  3  6 13 16 19 21 23 25 31
 -15526779.14508  19648435.90108 -12070812.59849  19648433.46849
 -10191787.91007  19859901.69007  -7930402.46949  19859899.72249
 -11374314.48007  21776431.94007  -8845146.80548  21776428.94048
   1561142.36307  20697579.77607   1213608.69148  20697576.45648
 -11376075.41406  21663649.65106  -8861033.06348  21663645.55848
  -5055810.58206  23497476.97206  -3935268.18447  23497473.37847
  -5410149.68807  21237272.28407  -4214360.92248  21237267.96048
  -8118381.53506  22642719.87806  -6320190.71147  22642716.98347
   8799473.58206  22771131.79206   6851499.60548  22771128.87448
 08 11 15  0 40 59.9990000  0  9  3  6 13 16 19 21 23 25 31
 -15574782.09008  19639301.62008 -12108217.48849  19639299.10849
 -10206713.48407  19857061.80807  -7942032.78549  19857059.22249
 -11403854.02007  21770810.55007  -8868164.62948  21770807.80048
   1588840.36707  20702850.32307   1235191.53548  20702847.05048
 -11476648.45307  21644511.61207  -8939401.64848  21644507.75748
  -5059226.29305  23496826.73705  -3937929.79746  23496824.01146
  -5387478.00407  21241586.55807  -4196694.68448  21241581.83548
  -8214677.41006  22624395.44806  -6395226.45747  22624392.53847
   8875653.04706  22785628.27606   6910860.20747  22785624.85447
 08 11 15  0 41 29.9990000  0  9  3  6 13 16 19 21 23 25 31
 -15622260.85908  19630266.43308 -12145213.91849  19630264.57349
 -10221150.95707  19854314.54207  -7953282.76649  19854312.45249
 -11432776.57006  21765306.68306  -8890701.68047  21765304.57747
   1616706.47707  20708152.93307   1256905.37548  20708149.29248
 -11576883.76207  21625437.34707  -9017507.05148  21625433.03048
  -5062165.34805  23496267.05805  -3940219.94946  23496263.77246
  -5364239.37107  21246008.72207  -4178586.67248  21246003.62048
  -8310813.46906  22606101.25306  -6470137.66447  22606098.21447
   8952081.82406  22800172.20606   6970415.04347  22800169.65947
 08 11 15  0 41 59.9990000  0  9  3  6 13 16 19 21 23 25 31
 -15669213.35208  19621331.59708 -12181800.27049  19621329.56549
 -10235099.12507  19851659.98707  -7964151.46949  19851658.05449
 -11461080.01606  21759920.79206  -8912756.30947  21759917.97247
   1644742.37507  20713487.87007   1278751.52348  20713484.61248
 -11676777.18407  21606428.34707  -9095346.07048  21606424.16348
  -5064625.61305  23495799.35405  -3942137.08246  23495795.58146
  -5340433.85907  21250538.67507  -4160036.94148  21250533.69448
  -8406785.75006  22587838.72206  -6544921.22747  22587835.82347
   9028760.21906  22814763.70606   7030164.40648  22814761.38248
 08 11 15  0 42 29.9990000  0  9  3  6 13 16 19 21 23 25 31
 -15715635.53908  19612497.89408 -12217973.39849  19612495.51149
 -10248555.02007  19849099.48707  -7974636.58249  19849097.46449
 -11488760.21106  21754652.99506  -8934325.30547  21754651.09347
   1672951.19907  20718855.95607   1300732.41448  20718852.91348
 -11776323.38307  21587485.02607  -9172914.52748  21587480.78448
  -5066603.08205  23495423.22905  -3943677.92747  23495420.47647
  -5316059.14807  21255177.05807  -4141043.66848  21255172.10848
  -8502588.39106  22569607.30806  -6619572.63747  22569604.65947
   9105690.94106  22829402.76106   7090110.37948  22829401.22248
 08 11 15  0 42 59.9990000  0  9  3  6 13 16 19 21 23 25 31
 -15761531.86708  19603763.88608 -12253736.77049  19603761.75349
 -10261523.96907  19846631.65907  -7984742.25849  19846629.40949
 -11515821.15207  21749503.87807  -8955411.76248  21749501.62048
   1701327.75407  20724256.06507   1322843.99648  20724252.62048
 -11875525.33207  21568607.97907  -9250214.72748  21568603.73748
  -5068102.28105  23495137.40905  -3944846.19147  23495135.44847
  -5291121.85207  21259922.51907  -4121612.02348  21259917.42948
  -8598223.77006  22551408.70606  -6694093.69147  22551406.24547
   9182868.31606  22844089.48706   7150248.54748  22844087.44448
 08 11 15  0 43 29.9990000  0  9  3  6 13 16 19 21 23 25 31
 -15806901.45708  19595130.59708 -12289089.69549  19595128.34349
 -10274006.49607  19844256.31507  -7994468.90249  19844254.34349
 -11542262.39807  21744472.34707  -8976015.32848  21744469.99148
   1729872.09807  20729687.61207   1345086.34448  20729684.58548
 -11974380.74207  21549796.00307  -9327244.89148  21549792.08148
  -5069122.69505  23494943.52605  -3945641.30947  23494941.13247
  -5265623.47307  21264774.90107  -4101743.16848  21264770.49948
  -8693689.59006  22533241.91706  -6768482.62547  22533239.38247
   9260291.37506  22858822.76106   7210578.16448  22858820.53448
 08 11 15  0 43 59.9990000  0  9  3  6 13 16 19 21 23 25 31
 -15851744.98408  19586596.90908 -12324032.69549  19586594.99149
 -10286004.05507  19841973.16707  -8003817.64849  19841971.09349
 -11568084.25007  21739558.91707  -8996136.25848  21739556.14448
   1758583.12507  20735151.15107   1367458.57048  20735147.82348
 -12072888.37907  21531050.80807  -9404004.06348  21531046.06548
  -5069664.85906  23494840.00306  -3946063.75047  23494836.40547
  -5239566.55507  21269733.55007  -4081439.09048  21269729.21048
  -8788984.34006  22515107.77606  -6842738.26647  22515104.84747
   9337958.35906  22873602.30006   7271097.85248  22873599.94848
 08 11 15  0 44 29.9990000  0  9  3  6 13 16 19 21 23 25 31
 -15896056.91408  19578164.58908 -12358561.45749  19578162.83949
 -10297512.15207  19839783.69007  -8012785.00049  19839781.24549
 -11593281.11706  21734763.19006  -9015770.18048  21734761.04248
   1787465.61307  20740647.40107   1389964.38748  20740643.79648
 -12171041.33607  21512372.86207  -9480486.86348  21512368.77648
  -5069722.67605  23494828.53405  -3946108.80947  23494826.60147
  -5212947.66807  21274798.68307  -4060697.10548  21274794.23748
  -8884100.61306  22497007.84706  -6916854.86347  22497004.61647
   9415873.19906  22888428.86206   7331810.66848  22888426.50348
 08 11 15  0 44 59.9990000  0  9  3  6 13 16 19 21 23 25 31
 -15939837.10908  19569833.62808 -12392675.89149  19569831.37849
 -10308531.66407  19837686.69007  -8021371.63349  19837684.08949
 -11617852.47307  21730088.19807  -9034916.69548  21730085.30448
   1816519.02007  20746176.30007   1412603.39548  20746173.01948
 -12268837.76607  21493762.45607  -9556691.84848  21493758.30448
  -5069296.43406  23494911.08906  -3945776.70747  23494908.24147
  -5185768.98007  21279970.69807  -4039518.93448  21279965.83948
  -8979036.32006  22478942.15906  -6990830.74247  22478939.30847
   9494034.55506  22903302.16706   7392715.60248  22903300.66348
 08 11 15  0 45 29.9990000  0  9  3  6 13 16 19 21 23 25 31
 -15983088.12907  19561603.12007 -12426377.98049  19561600.72649
 -10319066.26607  19835681.83907  -8029580.41449  19835679.14049
 -11641801.44906  21725530.25306  -9053578.24647  21725528.09347
   1845740.16407  20751736.35407   1435373.12148  20751733.58548
 -12366278.93407  21475220.61207  -9632620.01248  21475215.75348
  -5068389.17605  23495082.57305  -3945069.75847  23495080.14447
  -5158035.09007  21285247.92507  -4017908.12548  21285243.09748
  -9073792.31306  22460911.30006  -7064666.57447  22460908.32347
   9572438.65606  22918221.90106   7453809.63748  22918220.37848
 08 11 15  0 45 59.9990000  0  9  3  6 13 16 19 21 23 25 31
 -16025810.06307  19553473.40107 -12459667.80149  19553471.24949
 -10329117.12907  19833769.16707  -8037412.25849  19833766.32349
 -11665128.00007  21721091.51907  -9071754.79347  21721088.76147
   1875128.31607  20757329.09707   1458272.96148  20757325.47648
 -12463363.24607  21456746.04207  -9708270.10948  21456741.14048
  -5067001.11306  23495347.58106  -3943988.16046  23495344.47646
  -5129748.32807  21290630.78407  -3995866.51648  21290625.90948
  -9168366.60206  22442914.28406  -7138360.80547  22442911.67147
   9651083.73006  22933187.72906   7515091.47748  22933186.14048
 08 11 15  0 46 29.9990000  0  9  3  6 13 16 19 21 23 25 31
 -16068001.32807  19545444.44007 -12492544.11349  19545442.46449
 -10338683.45307  19831948.90907  -8044866.53149  19831946.36249
 -11687830.44907  21716771.76107  -9089445.02347  21716768.22647
   1904684.60507  20762953.52607   1481303.82448  20762950.02648
 -12560087.33607  21438340.01107  -9783639.51248  21438335.47948
  -5065129.95306  23495703.65906  -3942530.12146  23495700.37846
  -5100908.97707  21296118.64407  -3973394.30948  21296114.08548
  -9262755.35906  22424952.75306  -7211910.48847  22424949.86247
   9729970.29306  22948199.43306   7576561.46148  22948197.97948
 08 11 15  0 46 59.9990000  0  9  3  6 13 16 19 21 23 25 31
 -16109664.96507  19537516.65907 -12525009.28149  19537513.98749
 -10347769.62507  19830219.60407  -8051946.66049  19830217.45649
 -11709912.32407  21712569.50307  -9106651.70347  21712566.85447
   1934405.27307  20768609.15107   1504462.76648  20768606.39048
 -12656453.25406  21420002.13606  -9858729.80548  21419997.59348
  -5062779.75406  23496150.61206  -3940698.80147  23496147.38647
  -5071522.58207  21301711.51907  -3950495.81348  21301705.89048
  -9356960.02306  22407026.04206  -7285316.70347  22407022.80847
   9809093.46905  22963256.07305   7638215.84847  22963254.36247
 08 11 15  0 47 29.9990000  0  9  3  6 13 16 19 21 23 25 31
 -16150802.54308  19529688.22908 -12557064.54349  19529685.77249
 -10356378.15607  19828581.54207  -8058654.62149  19828579.50749
 -11731374.53907  21708485.67507  -9123375.50447  21708482.35447
   1964288.24207  20774295.61207   1527748.19148  20774292.90948
 -12752460.52707  21401732.41707  -9933540.66448  21401728.97948
  -5059951.90206  23496688.72206  -3938495.31647  23496685.89047
  -5041592.90207  21307406.63607  -3927173.99648  21307401.34748
  -9450979.91806  22389134.88606  -7358578.94947  22389130.96847
   9888450.43406  22978357.05806   7700052.41047  22978355.63647
 08 11 15  0 47 59.9990000  0  9  3  6 13 16 19 21 23 25 31
 -16191413.25407  19521960.11207 -12588709.25049  19521957.87049
 -10364509.37107  19827034.27607  -8064990.62949  19827032.08949
 -11752216.13307  21704519.10407  -9139615.71948  21704516.87448
   1994333.44507  20780013.32307   1551160.01248  20780010.42948
 -12848107.14507  21383531.52607 -10008070.47748  21383527.04248
  -5056645.73006  23497318.27606  -3935919.08246  23497314.40146
  -5011121.27007  21313204.90107  -3903429.87548  21313200.01948
  -9544812.34407  22371279.02607  -7431695.12548  22371275.97648
   9968040.57805  22993502.56505   7762070.66447  22993501.52247
 08 11 15  0 48 29.9990000  0  9  3  6 13 16 19 21 23 25 31
 -16231493.56307  19514333.03407 -12619940.65649  19514331.02249
 -10372160.27007  19825578.51107  -8070952.36749  19825576.20249
 -11772434.19507  21700672.26107  -9155370.05148  21700669.16348
   2024544.54707  20785762.32307   1574701.12148  20785759.28448
 -12943387.46907  21365399.89407 -10082314.89148  21365395.47648
  -5052857.40606  23498039.23706  -3932967.12146  23498034.72246
  -4980105.77707  21319107.62007  -3879261.97348  21319102.40548
  -9638451.37506  22353460.01906  -7504660.59447  22353456.54647
  10047866.60206  23008693.30006   7824272.71147  23008691.28047
 08 11 15  0 48 59.9990000  0  9  3  6 13 16 19 21 23 25 31
 -16271040.67607  19506807.55807 -12650756.59449  19506805.82749
 -10379329.19507  19824214.19807  -8076538.55149  19824211.61649
 -11792025.33607  21696944.17507  -9170635.88348  21696941.31548
   2054923.95307  20791543.35407   1598373.38348  20791540.06948
 -13038297.07406  21347339.26906 -10156270.41848  21347334.74548
  -5048584.19506  23498851.96406  -3929637.34847  23498848.55047
  -4948545.68007  21325113.18307  -3854669.71148  21325108.24548
  -9731892.07406  22335678.04206  -7577471.52047  22335675.68347
  10127929.82405  23023928.44805   7886659.59047  23023926.56247
 08 11 15  0 49 29.9990000  0  9  3  6 13 16 19 21 23 25 31
 -16310051.97707  19499383.86207 -12681155.00449  19499381.96849
 -10386014.74207  19822941.81507  -8081748.07049  19822939.28449
 -11810987.16007  21693336.10407  -9185411.34447  21693332.31947
   2085473.47307  20797356.83107   1622178.18448  20797353.70248
 -13132831.89107  21329349.83907 -10229933.89548  21329345.91748
  -5043823.96506  23499757.97206  -3925928.08647  23499755.71847
  -4916441.17207  21331222.60407  -3829653.23048  21331218.20648
  -9825129.82006  22317936.26906  -7650124.30547  22317933.21447
  10208231.32006  23039210.10406   7949232.14148  23039207.43348
 08 11 15  0 49 59.9990000  0  9  3  6 13 16 19 21 23 25 31
 -16348526.86307  19492062.43307 -12711135.43449  19492059.63649
 -10392217.34007  19821761.69007  -8086581.25449  19821759.22249
 -11829319.37507  21689847.18307  -9199696.18047  21689844.15947
   2116193.36707  20803202.18307   1646115.75448  20803199.38648
 -13226989.75407  21311432.47207 -10303303.64148  21311428.11648
  -5038575.70706  23500757.15906  -3921838.56347  23500753.93347
  -4883793.75407  21337434.87007  -3804213.68048  21337430.33948
  -9918161.95307  22300233.33907  -7722616.86347  22300230.25747
  10288770.31306  23054535.84706   8011989.75847  23054534.21447
 08 11 15  0 50 29.9990000  0  9  3  6 13 16 19 21 23 25 31
 -16386477.64807  19484840.50307 -12740707.47749  19484838.10449
 -10397949.66007  19820670.82307  -8091048.00449  19820668.53049
 -11847033.68807  21686476.37807  -9213499.55948  21686473.39748
   2147071.80107  20809078.52607   1670176.84048  20809074.82748
 -13320780.60206  21293584.57306 -10376387.41048  21293580.52248
  -5032851.85906  23501846.63606  -3917378.43447  23501843.13647
  -4850617.15207  21343747.79207  -3778361.79348  21343743.80848
 -10010997.93406  22282567.19806  -7794956.58248  22282563.55048
  10369533.68806  23069904.92506   8074922.21947  23069902.13247
 08 11 15  0 50 59.9990000  0  9  3  6 13 16 19 21 23 25 31
 -16423900.05507  19477719.56507 -12769867.78949  19477717.06549
 -10403208.92207  19819670.01907  -8095146.12949  19819667.28849
 -11864126.57407  21683224.10407  -9226818.69148  21683220.04248
   2178111.96507  20814985.08107   1694363.98048  20814981.50348
 -13414199.22306  21275807.13606 -10449181.14548  21275803.25348
  -5026648.58606  23503026.34706  -3912544.69147  23503023.69047
  -4816909.76207  21350162.23707  -3752096.30548  21350158.18748
 -10103631.94506  22264939.02606  -7867138.90648  22264936.36648
  10450524.09006  23085315.83906   8138031.57447  23085314.50347
 08 11 15  0 51 29.9980000  0  9  3  6 13 16 19 21 23 25 31
 -16460791.60507  19470699.02907 -12798614.44949  19470696.69749
 -10407994.57007  19818759.23207  -8098875.20349  19818756.84249
 -11880595.80907  21680089.56107  -9239651.87148  21680086.36948
   2209313.53507  20820922.39607   1718676.87548  20820919.51448
 -13507239.60506  21258102.39606 -10521680.13748  21258098.71748
  -5019964.61706  23504298.56106  -3907336.39547  23504295.69347
  -4782673.30507  21356677.42807  -3725418.55948  21356673.20548
 -10196057.13706  22247350.72506  -7939158.53148  22247348.24048
  10531738.76206  23100771.97506   8201315.68847  23100768.47147
 08 11 15  0 51 59.9980000  0 10  3  6  7 13 16 19 21 23 25 31
 -16497149.64107  19463780.42007 -12826945.37949  19463778.31149
 -10412302.99207  19817939.55307  -8102232.41449  19817937.01049
   -183106.92215  23706901.23205   -139892.77756  23706898.38546
 -11896437.77007  21677074.88107  -9251996.27347  21677072.35047
   2240683.34007  20826892.02907   1743120.86348  20826888.86148
 -13599901.11706  21240469.35706 -10593883.87548  21240465.89348
  -5012794.83206  23505662.38106  -3901749.56347  23505659.79147
  -4747903.29307  21363293.71707  -3698325.05148  21363289.62348
 -10288272.64106  22229803.19306  -8011014.74648  22229800.43648
  10613186.83606  23116270.68606   8264781.67247  23116267.56847
 08 11 15  0 52 29.9980000  0 10  3  6  7 13 16 19 21 23 25 31
 -16532979.15607  19456962.13107 -12854864.48049  19456959.99449
 -10416141.13707  19817209.15407  -8105223.17249  19817206.77549
   -296523.23005  23685318.17005   -228269.11346  23685315.45146
 -11911658.35907  21674179.05307  -9263856.48048  21674175.51048
   2272214.07807  20832892.35007   1767690.25048  20832889.20148
 -13692185.17206  21222908.92006 -10665793.48848  21222904.61148
  -5005145.57806  23507118.20906  -3895789.09447  23507114.24447
  -4712608.92607  21370010.27907  -3670822.96148  21370005.54548
 -10380279.11306  22212295.29506  -8082708.09048  22212292.36548
  10694858.19906  23131812.33406   8328421.64147  23131809.09247
 08 11 15  0 52 59.9980000  0 10  3  6  7 13 16 19 21 23 25 31
 -16568279.74207  19450244.65407 -12882371.42249  19450242.43649
 -10419509.11307  19816567.80307  -8107847.55949  19816565.69749
   -409875.70305  23663747.94305   -316595.71946  23663743.26046
 -11926256.71907  21671401.00607  -9275231.82847  21671397.29547
   2303906.22707  20838922.87307   1792385.43848  20838920.12348
 -13784089.21907  21205419.77107 -10737407.01648  21205415.60048
  -4997016.06606  23508665.61506  -3889454.41847  23508661.86147
  -4676791.54307  21376825.81107  -3642913.30948  21376821.31148
 -10472073.38706  22194826.58406  -8154236.10248  22194824.20148
  10776752.41406  23147395.97506   8392235.31347  23147393.03747
 08 11 15  0 53 29.9980000  0 10  3  6  7 13 16 19 21 23 25 31
 -16603059.04707  19443626.80307 -12909472.18049  19443624.59649
 -10422415.77707  19816014.92807  -8110112.49649  19816012.49449
   -523170.23005  23642188.44305   -404877.16846  23642183.26046
 -11940240.89807  21668739.74007  -9286128.61347  21668735.94347
   2335751.97707  20844982.77107   1817200.27748  20844979.75248
 -13875619.64806  21188002.02106 -10808729.42648  21187996.95148
  -4988414.13706  23510301.88106  -3882751.61347  23510299.95147
  -4640460.93807  21383739.55307  -3614603.77048  21383734.85448
 -10563661.10906  22177398.52906  -8225603.14548  22177395.38548
  10858860.46906  23163020.68606   8456215.53947  23163018.96347
 08 11 15  0 53 59.9980000  0 10  3  6  7 13 16 19 21 23 25 31
 -16637312.52007  19437108.45907 -12936163.19149  19437106.12349
 -10424857.30907  19815550.39607  -8112014.98449  19815547.88549
   -636399.28106  23620642.52906   -493107.58646  23620637.83446
 -11953606.39107  21666195.90407  -9296543.27747  21666193.42847
   2367755.78107  20851073.12307   1842138.29348  20851069.95148
 -13966769.91407  21170656.83407 -10879755.57848  21170652.50648
  -4979334.89806  23512029.29506  -3875676.87147  23512027.33047
  -4603614.71507  21390751.20907  -3585892.44548  21390746.68948
 -10655035.11306  22160010.79506  -8296803.67648  22160007.77148
  10941185.91406  23178686.58406   8520365.20347  23178685.01447
 08 11 15  0 54 29.9980000  0 10  3  6  7 13 16 19 21 23 25 31
 -16671039.48007  19430690.27907 -12962443.93849  19430687.89349
 -10426834.45707  19815174.24807  -8113555.61749  19815171.94349
   -749560.75406  23599108.81106   -581285.33647  23599104.14647
 -11966352.77706  21663770.62306  -9306475.55147  21663767.99047
   2399917.69507  20857193.25607   1867199.51648  20857190.36148
 -14057537.91806  21153384.48206 -10950483.87148  21153380.27948
  -4969779.07406  23513847.64606  -3868230.78547  23513845.31447
  -4566254.76207  21397860.88107  -3556780.82048  21397856.08848
 -10746192.78906  22142663.77106  -8367835.62148  22142660.88948
  11023727.66006  23194393.91206   8584683.40247  23194392.61547
 08 11 15  0 54 59.9980000  0 10  3  6  7 13 16 19 21 23 25 31
 -16704242.01607  19424371.98207 -12988316.03149  19424369.66249
 -10428350.29707  19814885.80307  -8114736.79349  19814883.41249
   -862654.37506  23577587.53706   -669410.19147  23577583.83847
 -11978482.13707  21661461.99007  -9315927.00847  21661459.48247
   2432235.21907  20863342.74007   1892382.00048  20863339.95548
 -14147924.27307  21136184.51407 -11020914.76648  21136180.49048
  -4959748.62506  23515757.23206  -3860414.80547  23515753.39647
  -4528385.34007  21405066.33407  -3527272.19948  21405062.33448
 -10837133.79306  22125357.81106  -8438698.72348  22125355.46348
  11106482.66406  23210141.52106   8649167.76247  23210139.15047
 08 11 15  0 55 29.9980000  0 10  3  6  7 13 16 19 21 23 25 31
 -16736914.60907  19418154.68607 -13013775.18849  19418152.12749
 -10429399.85507  19814686.00607  -8115554.64149  19814683.79949
   -975672.22706  23556080.81106   -757476.03147  23556077.11947
 -11989988.87507  21659272.89607  -9324893.29747  21659270.06147
   2464714.02307  20869523.70907   1917690.12948  20869520.77148
 -14237921.36306  21119058.26406 -11091042.34848  21119053.42448
  -4949237.12906  23517756.87306  -3852224.02347  23517754.04947
  -4490002.77307  21412370.45907  -3497363.72348  21412365.90048
 -10927850.03906  22108095.67006  -8509386.69548  22108092.37348
  11189455.16006  23225931.19306   8713821.59847  23225928.80747
 08 11 15  0 55 59.9980000  0 10  3  6  7 13 16 19 21 23 25 31
 -16769060.95707  19412037.31807 -13038824.28549  19412035.34649
 -10429987.57407  19814574.41207  -8116012.59449  19814571.79949
  -1088615.23806  23534588.34206   -845483.52347  23534585.17047
 -12000876.85507  21657200.87307  -9333377.46147  21657198.00247
   2497350.99207  20875734.35007   1943121.52048  20875731.37748
 -14327530.97706  21102005.96706 -11160868.00448  21102001.02948
  -4938248.50006  23519848.20906  -3843661.44947  23519846.21747
  -4451112.80507  21419771.27907  -3467059.87548  21419766.45548
 -11018342.39806  22090875.72506  -8579900.23048  22090872.56148
  11272640.68006  23241760.67806   8778641.41047  23241758.18647
 08 11 15  0 56 29.9980000  0 10  3  6  7 13 16 19 21 23 25 31
 -16800679.45307  19406020.60707 -13063462.07449  19406018.56449
 -10430113.33607  19814550.49007  -8116110.60249  19814547.84249
  -1201480.42206  23513110.63906   -933430.38747  23513107.42847
 -12011145.30906  21655247.04506  -9341378.86747  21655244.51847
   2530146.85907  20881975.20107   1968676.71548  20881971.74048
 -14416750.24607  21085028.67007 -11230389.50448  21085023.65848
  -4926781.81606  23522030.23206  -3834726.33647  23522026.46347
  -4411716.52707  21427268.20107  -3436361.50048  21427263.47548
 -11108607.41806  22073698.25606  -8650236.60548  22073695.67448
  11356039.07406  23257631.18606   8843627.08647  23257628.06847
 08 11 15  0 56 59.9980000  0 10  3  6  7 13 16 19 21 23 25 31
 -16831774.31607  19400103.18607 -13087691.83649  19400101.53749
 -10429782.13707  19814613.40407  -8115852.52049  19814611.11149
  -1314269.03106  23491648.10006  -1021317.58647  23491645.14347
 -12020798.14806  21653410.11506  -9348900.58647  21653407.42447
   2563097.35207  20888245.31807   1994352.41048  20888242.15448
 -14505581.55906  21068124.39606 -11299608.69948  21068120.47948
  -4914841.14806  23524302.67006  -3825421.89847  23524298.53347
  -4371820.05507  21434860.23207  -3405273.34848  21434855.81148
 -11198646.73006  22056564.65406  -8720397.11348  22056561.62748
  11439645.11705  23273539.69305   8908774.60947  23273538.23247
 08 11 15  0 57 29.9980000  0 10  3  6  7 13 16 19 21 23 25 31
 -16862339.98007  19394286.78707 -13111509.23049  19394284.67849
 -10428989.02007  19814764.45107  -8115234.50449  19814762.08849
  -1426973.01206  23470200.71706  -1109138.85947  23470198.38147
 -12029829.71907  21651691.65407  -9355938.16047  21651688.80747
   2596208.28907  20894546.19307   2020153.12948  20894543.18948
 -14594017.52306  21051295.32606 -11368519.80148  21051291.43248
  -4902420.82806  23526666.55306  -3815743.69947  23526661.88147
  -4331419.85207  21442548.51407  -3373792.70348  21442543.78348
 -11288452.00806  22039475.17806  -8790375.24248  22039472.68248
  11523463.44505  23289489.60005   8974087.50447  23289488.74447
 08 11 15  0 57 59.9980000  0 10  3  6  7 13 16 19 21 23 25 31
 -16892382.84007  19388570.04507 -13134919.25449  19388568.13549
 -10427741.54707  19815001.25607  -8114262.45349  19814999.41649
  -1539596.63306  23448769.42806  -1196897.48447  23448766.52147
 -12038246.87107  21650090.06107  -9362497.00047  21650086.60747
   2629473.25407  20900876.25607   2046073.85248  20900873.05348
 -14682062.77706  21034540.81106 -11437126.45348  21034536.52948
  -4889527.62106  23529119.39606  -3805697.03547  23529115.23247
  -4290524.59007  21450330.53707  -3341926.28148  21450324.86948
 -11378027.19106  22022429.41206  -8860174.07848  22022427.12348
  11607486.48005  23305479.24005   9039559.94547  23305478.20947
 08 11 15  0 58 29.9980000  0 10  3  6  7 13 16 19 21 23 25 31
 -16921900.55907  19382953.17807 -13157920.07449  19382950.79549
 -10426037.87107  19815325.74007  -8112934.92249  19815323.50249
  -1652134.53106  23427354.05306  -1284589.29347  23427351.56847
 -12046047.68807  21648605.60007  -9368575.58247  21648602.38547
   2662894.75407  20907236.45907   2072116.55548  20907233.32248
 -14769712.91007  21017862.09207 -11505425.26648  21017857.02948
  -4876158.60906  23531663.48206  -3795279.59447  23531660.35447
  -4249133.97307  21458206.22507  -3309673.84848  21458201.72548
 -11467367.16806  22005428.95106  -8929789.63748  22005425.94348
  11691715.89506  23321508.31106   9105193.18847  23321506.53347
 08 11 15  0 58 59.9980000  0 10  3  6  7 13 16 19 21 23 25 31
 -16950888.95307  19377436.74807 -13180508.43449  19377434.47549
 -10423875.02707  19815737.43607  -8111249.59049  19815734.64349
  -1764580.31606  23405956.38106  -1372209.37147  23405953.54547
 -12053227.74607  21647239.67807  -9374170.43447  21647235.32647
   2696476.68007  20913626.83407   2098284.26248  20913623.56448
 -14856962.52007  21001258.76407 -11573411.98048  21001254.26448
  -4862310.48806  23534298.73206  -3784488.85247  23534295.47947
  -4207245.93407  21466177.69307  -3277033.84048  21466173.18948
 -11556465.38706  21988473.99006  -8999216.82848  21988471.30748
  11776154.06606  23337575.63906   9170989.11747  23337574.83447
 08 11 15  0 59 29.9980000  0 10  3  6  7 13 16 19 21 23 25 31
 -16979354.76607  19372019.67007 -13202689.58649  19372017.52149
 -10421260.96507  19816234.70907  -8109212.66449  19816232.63949
  -1876938.63306  23384575.65406  -1459761.32047  23384573.00247
 -12059794.49607  21645989.54507  -9379287.38347  21645986.02147
   2730212.20707  20920046.43607   2124571.65648  20920043.85448
 -14943816.46107  20984731.19307 -11641090.35248  20984727.04548
  -4847989.87506  23537024.01406  -3773329.89847  23537019.48247
  -4164869.83607  21474241.52107  -3244013.54348  21474237.35048
 -11645326.25006  21971563.98206  -9068459.05148  21971561.60748
  11860793.20706  23353682.37306   9236941.61747  23353680.85447
 08 11 15  0 59 59.9980000  0 10  3  6  7 13 16 19 21 23 25 31
 -17007292.56307  19366703.48207 -13224459.29349  19366701.39349
 -10418190.78507  19816819.14607  -8106820.31649  19816816.66649
  -1989201.28106  23363212.67006  -1547238.72747  23363210.56447
 -12065742.61707  21644857.52107  -9383922.29747  21644854.39647
   2764107.14807  20926496.12307   2150983.30148  20926493.27548
 -15030267.45707  20968279.95907 -11708454.73048  20968275.10448
  -4833191.45305  23539840.09205  -3761798.64547  23539837.02147
  -4122002.12907  21482399.03707  -3210610.14848  21482394.82648
 -11733941.58206  21954700.88906  -9137509.96948  21954698.16248
  11945637.73406  23369828.10006   9303054.16047  23369825.88147
 08 11 15  1  0 29.9980000  0 10  3  6  7 13 16 19 21 23 25 31
 -17034705.43807  19361487.03707 -13245819.96949  19361484.54549
 -10414668.49607  19817489.29507  -8104075.67649  19817486.60049
  -2101368.86306  23341867.60706  -1634642.03147  23341865.21347
 -12071075.16007  21643843.17807  -9388077.54347  21643839.83447
   2798158.56307  20932976.52907   2177516.85548  20932973.11148
 -15116316.84007  20951905.20107 -11775506.19548  20951900.96348
  -4817917.79706  23542746.10706  -3749897.08246  23542744.45946
  -4078648.07006  21490648.82606  -3176827.78948  21490644.65048
 -11822311.74206  21937884.81106  -9206369.82448  21937881.65848
  12030684.00406  23386011.90406   9369323.93447  23386010.26047
 08 11 15  1  0 59.9980000  0 10  3  6  7 13 16 19 21 23 25 31
 -17061597.14807  19356369.80307 -13266774.54749  19356367.35449
 -10410698.35907  19818244.78707  -8100982.05949  19818242.14349
  -2213442.18406  23320540.47506  -1721971.83647  23320538.63547
 -12075795.78907  21642944.67007  -9391755.96947  21642941.93247
   2832362.98807  20939484.92807   2204169.62948  20939482.15448
 -15201966.34807  20935607.06107 -11842246.08248  20935602.53748
  -4802173.30905  23545741.09205  -3737628.68046  23545740.03746
  -4034813.19907  21498990.92807  -3142670.78548  21498986.24048
 -11910437.59006  21921115.35006  -9275039.31648  21921112.55348
  12115926.91806  23402232.80306   9435746.90247  23402231.23647
 08 11 15  1  1 29.9980000  0 10  3  6  7 13 16 19 21 23 25 31
 -17087963.72707  19351352.10707 -13287319.93449  19351349.98649
 -10406277.66407  19819085.94307  -8097537.35949  19819083.98249
  -2325415.00006  23299232.51406  -1809223.35547  23299230.81447
 -12079901.30507  21642163.45907  -9394955.07847  21642160.74847
   2866724.43007  20946023.91207   2230944.77348  20946020.48648
 -15287210.53506  20919384.60006 -11908670.13348  20919381.27948
  -4785953.89506  23548828.08406  -3724990.18446  23548826.88546
  -3990496.10207  21507423.39607  -3108137.98848  21507419.08048
 -11998312.60506  21904393.70106  -9343513.36348  21904390.54148
  12201369.24606  23418492.26406   9502325.29347  23418489.99047
 08 11 15  1  1 59.9980000  0 10  3  6  7 13 16 19 21 23 25 31
 -17113805.18407  19346434.53707 -13307456.13749  19346432.06849
 -10401406.89107  19820012.74007  -8093741.94949  19820010.79949
  -2437283.73806  23277945.29506  -1896393.77347  23277942.95547
 -12083391.81307  21641499.33407  -9397674.95747  21641496.05347
   2901243.16007  20952592.45907   2257842.48448  20952589.95948
 -15372047.28106  20903241.13106 -11974776.65248  20903237.48648
  -4769259.92605  23552004.43605  -3711981.86746  23552003.44346
  -3945698.61307  21515948.83407  -3073230.88748  21515943.76848
 -12085933.94506  21887719.57606  -9411789.72348  21887716.97948
  12287010.14806  23434789.85706   9569058.39847  23434787.92447
 08 11 15  1  2 29.9980000  0 10  3  6  7 13 16 19 21 23 25 31
 -17139121.64107  19341617.10007 -13327183.25449  19341615.15049
 -10396087.49207  19821025.00607  -8089596.96549  19821022.87749
  -2549046.54706  23256677.20906  -1983481.68447  23256673.71347
 -12086267.89507  21640951.74807  -9399916.07447  21640948.14647
   2935919.05107  20959191.42007   2284862.65248  20959187.73248
 -15456475.28907  20887175.36507 -12040564.68848  20887170.87348
  -4752091.21105  23555272.20105  -3698603.65646  23555270.93946
  -3900423.33207  21524564.64607  -3037951.47748  21524559.85448
 -12173299.30906  21871094.73206  -9479866.61348  21871091.55348
  12372848.42606  23451123.63906   9635945.28947  23451121.71347
 08 11 15  1  2 59.9980000  0 10  3  6  7 13 16 19 21 23 25 31
 -17163918.71107  19336898.45107 -13346505.64549  19336896.12749
 -10390325.84807  19822121.60007  -8085107.37149  19822119.30749
  -2660706.83206  23235429.19306  -2070489.74247  23235425.20947
 -12088535.23807  21640520.45107  -9401682.82847  21640516.79147
   2970746.67207  20965818.81107   2312001.03548  20965815.37348
 -15540498.32407  20871185.85707 -12106037.18048  20871181.67448
  -4734453.61705  23558628.72505  -3684860.10946  23558625.49446
  -3854677.81307  21533269.70107  -3002305.61748  21533264.25248
 -12260411.59006  21854517.33406  -9547746.31348  21854514.87348
  12458877.18806  23467493.99806   9702980.65647  23467492.45147
 08 11 15  1  3 29.9980000  0 10  3  6  7 13 16 19 21 23 25 31
 -17188193.87507  19332279.02907 -13365421.35249  19332276.88149
 -10384120.29307  19823302.49007  -8080271.87549  19823300.07249
  -2772259.05506  23214201.53706  -2157413.54747  23214197.92047
 -12090191.86307  21640204.99807  -9402973.71947  21640201.97147
   3005728.69907  20972475.74007   2339259.74648  20972472.43648
 -15624112.19506  20855274.67006 -12171190.83248  20855270.30748
  -4716344.35906  23562075.51406  -3670749.03147  23562071.88147
  -3808462.19907  21542063.81107  -2966293.47348  21542058.84648
 -12347265.49607  21837989.48207  -9615424.66048  21837987.06448
  12545097.89806  23483901.24806   9770165.55947  23483900.38947
 08 11 15  1  3 59.9980000  0 10  3  6  7 13 16 19 21 23 25 31
 -17211941.87107  19327760.02107 -13383926.28949  19327757.54149
 -10377466.37507  19824568.45907  -8075087.00449  19824566.33049
  -2883694.98806  23192996.84206  -2244246.73447  23192992.85047
 -12091232.73007  21640006.82607  -9403784.78947  21640003.86147
   3040870.76207  20979162.88907   2366643.16048  20979159.88948
 -15707309.78107  20839442.92007 -12236020.10548  20839439.15448
  -4697758.77306  23565612.27106  -3656266.75846  23565609.04546
  -3761773.05107  21550948.11507  -2929912.33248  21550944.21348
 -12433853.03507  21821513.13907  -9682895.46548  21821510.02148
  12631514.98406  23500346.45906   9837503.43847  23500344.60447
 08 11 15  1  4 29.9980000  0 10  3  6  7 13 16 19 21 23 25 31
 -17235166.02007  19323340.63107 -13402023.02049  19323338.05349
 -10370367.78907  19825919.58407  -8069555.64149  19825917.39649
  -2995015.13306  23171812.60706  -2330989.68047  23171809.23647
 -12091661.36306  21639925.09206  -9404118.80547  21639922.21347
   3076170.26206  20985879.85006   2394149.25448  20985876.83848
 -15790091.98407  20823690.51407 -12300525.68848  20823685.89648
  -4678700.33606  23569238.64606  -3641416.08247  23569235.36947
  -3714615.44906  21559921.79506  -2893166.18048  21559918.11148
 -12520174.31306  21805085.79506  -9750158.79748  21805083.60448
  12718124.55906  23516827.50606   9904991.34047  23516825.76847
 08 11 15  1  4 59.9980000  0 10  3  6  7 13 16 19 21 23 25 31
 -17257860.29307  19319021.60707 -13419706.87149  19319018.88149
 -10362819.74207  19827355.98207  -8063674.05149  19827353.59649
  -3106210.91406  23150652.31106  -2417635.72747  23150648.31847
 -12091472.09007  21639961.98207  -9403971.35247  21639958.45947
   3111633.03907  20992628.24807   2421782.57448  20992625.02148
 -15872451.62907  20808017.05307 -12364702.02048  20808012.98248
  -4659162.97306  23572957.17806  -3626192.16047  23572952.36147
  -3666986.00807  21568986.11507  -2856052.38748  21568981.51048
 -12606220.90606  21788711.78706  -9817208.08248  21788709.46748
  12804931.20706  23533345.77106   9972632.81647  23533345.51047
 08 11 15  1  5 29.9980000  0 10  3  6  7 13 16 19 21 23 25 31
 -17280014.55907  19314806.12307 -13436969.93049  19314803.90849
 -10354813.38307  19828879.63907  -8057435.32849  19828876.76449
  -3217269.46905  23129518.93605  -2504174.84847  23129514.77547
 -12090655.36306  21640117.10006  -9403334.95347  21640114.58447
   3147269.51207  20999410.27107   2449551.23848  20999407.10448
 -15954376.96906  20792426.89606 -12428539.91848  20792422.89648
  -4639136.98006  23576768.50606  -3610587.46147  23576764.74447
  -3618876.85507  21578140.87307  -2818564.73848  21578135.80748
 -12691980.06606  21772392.64606  -9884033.39848  21772390.08448
  12891944.03905  23549904.96705  10040434.90647  23549903.90447
 08 11 15  1  5 59.9980000  0 10  3  6  7 13 16 19 21 23 25 31
 -17301641.03907  19310690.70907 -13453821.73449  19310688.35449
 -10346360.77707  19830488.04507  -8050848.88749  19830485.54949
  -3328199.79705  23108409.34205  -2590614.04347  23108406.10447
 -12089223.48407  21640389.07607  -9402219.22347  21640386.53747
   3183068.02007  21006222.05307   2477446.16848  21006219.14348
 -16035877.86307  20776918.05307 -12492047.08648  20776913.56448
  -4618633.66005  23580668.85705  -3594610.86346  23580665.95946
  -3570301.66807  21587384.87307  -2780713.95348  21587379.72148
 -12777460.56306  21756126.45106  -9950641.57448  21756123.46348
  12979150.21906  23566498.86506  10108387.69547  23566498.24847
 08 11 15  1  6 29.9980000  0 10  3  6  7 13 16 19 21 23 25 31
 -17322744.83207  19306674.74807 -13470266.24249  19306672.51449
 -10337468.16807  19832180.13107  -8043919.57449  19832177.76449
  -3439004.00006  23087324.08406  -2676954.95347  23087320.98247
 -12087181.95707  21640778.13907  -9400628.43048  21640775.20948
   3219024.23807  21013064.49007   2505464.00448  21013061.04148
 -16116957.77307  20761489.24007 -12555226.22348  20761484.22548
  -4597658.16405  23584659.98205  -3578266.31346  23584657.45146
  -3521268.05507  21596715.35707  -2742505.96148  21596709.74848
 -12862664.92206  21739912.54506 -10017034.57048  21739909.68948
  13066543.56306  23583129.64606  10176486.35947  23583128.04147
 08 11 15  1  6 59.9980000  0 10  3  6  7 13 16 19 21 23 25 31
 -17343328.69107  19302757.99807 -13486305.60549  19302755.29949
 -10328139.07007  19833955.32607  -8036650.14549  19833952.93649
  -3549681.93405  23066262.48205  -2763197.44947  23066259.05747
 -12084533.53907  21641281.99007  -9398564.73847  21641278.93647
   3255135.60907  21019936.04507   2533602.71148  21019932.60048
 -16197617.29307  20746139.84207 -12618077.78148  20746135.54548
  -4576214.45705  23588740.36505  -3561556.95746  23588738.86546
  -3471780.85907  21606132.42007  -2703944.51248  21606126.37748
 -12947592.54706  21723751.89606 -10083211.93448  21723748.49048
  13154120.80105  23599795.35005  10244728.20747  23599794.01847
 08 11 15  1  7 29.9980000  0 10  3  6  7 13 16 19 21 23 25 31
 -17363393.35207  19298939.74807 -13501940.40649  19298937.20949
 -10318375.22307  19835813.17007  -8029041.95349  19835810.79949
  -3660231.66005  23045225.02905  -2849340.05547  23045222.40047
 -12081279.57806  21641900.88106  -9396029.19947  21641898.50647
   3291401.38307  21026837.52107   2561861.73048  21026833.78748
 -16277855.74207  20730871.53707 -12680601.23048  20730867.62748
  -4554302.84805  23592909.92005  -3544482.99247  23592908.10447
  -3421843.18407  21615635.13907  -2665032.06648  21615630.35748
 -13032241.89506  21707643.35006 -10149172.46548  21707640.24448
  13241879.60206  23616496.47506  10313111.54747  23616494.14347
 08 11 15  1  7 59.9980000  0 10  3  6  7 13 16 19 21 23 25 31
 -17382941.83207  19295220.08407 -13517172.98049  19295217.53749
 -10308180.16407  19837753.57607  -8021097.75449  19837750.54949
  -3770653.06605  23024212.73205  -2935382.66047  23024209.74447
 -12077423.41006  21642634.79506  -9393024.40647  21642632.04547
   3327819.49207  21033767.57607   2590239.45348  21033764.45148
 -16357674.23807  20715682.22507 -12742797.43848  20715677.97148
  -4531926.20705  23597168.45905  -3527046.64547  23597165.86547
  -3371459.51207  21625222.52107  -2625772.08248  21625217.94348
 -13116612.64806  21691587.87306 -10214915.89548  21691585.50248
  13329816.46906  23633229.96706  10381633.69547  23633228.75647
 08 11 15  1  8 29.9980000  0 10  3  6  7 13 16 19 21 23 25 31
 -17401981.61307  19291596.81107 -13532009.16849  19291594.42849
 -10297562.05907  19839773.77107  -8012823.90649  19839771.31849
  -3880950.57806  23003224.22506  -3021328.77347  23003220.30747
 -12072972.93806  21643481.54506  -9389556.52747  21643478.69747
   3364383.16007  21040725.29507   2618730.60248  21040722.25648
 -16437078.22707  20700572.42007 -12804670.66848  20700567.85748
  -4509091.77306  23601514.06106  -3509253.57846  23601510.43646
  -3320639.89507  21634893.25607  -2586172.42248  21634889.37748
 -13200709.33606  21675584.57606 -10280445.77048  21675581.94348
  13417923.37106  23649995.04506  10450288.35247  23649994.77947
 08 11 15  1  8 59.9980000  0 10  3  6  7 13 16 19 21 23 25 31
 -17420509.77007  19288070.70907 -13546446.68849  19288068.20949
 -10286518.92207  19841875.22507  -8004218.86349  19841873.24849
  -3991118.40206  22982260.17806  -3107173.82447  22982256.79147
 -12067925.70306  21644442.56806  -9385623.64847  21644439.93947
   3401094.99207  21047711.35007   2647337.20348  21047708.34648
 -16516063.45707  20685542.20107 -12866217.59848  20685537.54148
  -4485797.87106  23605946.80306  -3491102.46946  23605943.20546
  -3269383.75007  21644647.17807  -2546232.59448  21644643.08448
 -13284526.23406  21659634.55306 -10345757.63748  21659631.87748
  13506201.73806  23666794.63906  10519076.62147  23666793.90047
 08 11 15  1  9 29.9980000  0  9  3  6  7 13 16 19 21 23 25
 -17438528.33607  19284641.85007 -13560487.12549  19284639.30749
 -10275054.02007  19844056.82607  -7995285.18449  19844054.88549
  -4101156.17206  22961320.60006  -3192917.50047  22961317.56847
 -12062284.70706  21645515.74806  -9381228.07047  21645513.39347
   3437953.67207  21054724.92807   2676058.24248  21054722.18248
 -16594630.28907  20670591.06807 -12927438.48848  20670586.68248
  -4462046.04306  23610467.06106  -3472594.60247  23610463.19747
  -3217695.43407  21654483.27107  -2505955.99648  21654478.93648
 -13368062.82807  21643738.03707 -10410851.07448  21643734.84248
 08 11 15  1  9 59.9980000  0  9  3  6  7 13 16 19 21 23 25
 -17456040.02007  19281309.39607 -13574132.59049  19281307.11949
 -10263170.27307  19846318.67807  -7986025.12549  19846316.27949
  -4211062.74606  22940405.42806  -3278558.96547  22940403.15447
 -12056052.39806  21646701.78706  -9376371.73447  21646699.54947
   3474957.68007  21061767.34207   2704892.50848  21061763.60748
 -16672778.89107  20655719.70107 -12988333.48848  20655716.03348
  -4437839.17606  23615073.32606  -3453732.15646  23615069.40446
  -3165579.26207  21664400.68607  -2465346.00848  21664395.58048
 -13451318.23007  21627895.74007 -10475725.43048  21627892.11148
 08 11 15  1 10 29.9980000  0  9  3  6  7 13 16 19 21 23 25
 -17473045.19507  19278073.43607 -13587383.37149  19278070.78749
 -10250868.60507  19848659.43607  -7976439.40649  19848656.98649
  -4320835.35906  22919516.83406  -3364096.04347  22919513.67447
 -12049229.87907  21647999.81807  -9371055.49647  21647997.03347
   3512106.72307  21068836.37307   2733839.80548  21068833.58448
 -16750507.82406  20640928.55306 -13048901.47748  20640924.19748
  -4413177.08605  23619765.13905  -3434514.96947  23619762.94347
  -3113037.49207  21674398.92007  -2424404.37548  21674394.22148
 -13534289.80107  21612106.35707 -10540378.59448  21612103.33448
 08 11 15  1 10 59.9980000  0  9  3  6  7 13 16 19 21 23 25
 -17489534.66407  19274935.44307 -13600232.31649  19274932.92449
 -10238140.72307  19851081.13107  -7966521.58249  19851079.22549
  -4430461.98006  22898655.04506  -3449519.39147  22898652.36547
 -12041808.15206  21649412.21706  -9365272.33647  21649409.44347
   3549410.75007  21075934.81107   2762907.86748  21075932.32648
 -16827806.17207  20626219.13107 -13109133.94148  20626214.85048
  -4388051.27006  23624546.43606  -3414936.45347  23624544.43247
  -3060063.31607  21684479.95107  -2383125.79748  21684475.67848
 -13616965.34007  21596373.64607 -10604801.09448  21596371.17848
 08 11 15  1 11 29.9980000  0  9  3  6  7 13 16 19 21 23 25
 -17505510.11307  19271895.80307 -13612680.72749  19271892.99049
 -10224988.91807  19853584.10707  -7956273.41849  19853581.84649
  -4539940.61706  22877822.53706  -3534827.41847  22877819.33847
 -12033789.00406  21650937.54506  -9359023.67247  21650935.23647
   3586868.89107  21083062.74007   2792096.00048  21083060.01048
 -16904673.50407  20611591.80307 -13169030.55948  20611587.20548
  -4362462.47305  23629416.46705  -3394997.14147  23629414.08047
  -3006660.05907  21694642.27107  -2341512.88748  21694637.79548
 -13699343.39807  21580697.79507 -10668991.79348  21580695.33448
 08 11 15  1 11 59.9980000  0  9  3  6  7 13 16 19 21 23 25
 -17520979.48007  19268951.88107 -13624734.77749  19268949.62349
 -10211422.45307  19856165.64607  -7945702.15249  19856163.71349
  -4649276.98406  22857016.37306  -3620024.57847  22857013.29147
 -12025181.44106  21652576.16206  -9352316.49647  21652573.02147
   3624472.81607  21090218.93607   2821397.74248  21090215.61548
 -16981116.77707  20597045.25607 -13228596.72749  20597041.20149
  -4336420.91406  23634372.49806  -3374705.03147  23634370.26047
  -2952838.89107  21704883.70107  -2299574.33248  21704879.50248
 -13781429.37107  21565077.35007 -10732954.87948  21565074.63148
 08 11 15  1 12 29.9980000  0  9  3  6  7 13 16 19 21 23 25
 -17535938.94107  19266105.57607 -13636391.50449  19266102.64349
 -10197437.71107  19858826.89607  -7934804.94949  19858825.04149
  -4758463.55906  22836239.28706  -3705105.02047  22836235.43247
 -12015981.88706  21654326.42806  -9345148.04347  21654323.85747
   3662228.03507  21097402.99007   2850817.37548  21097400.23248
 -17057129.78907  20582580.64607 -13287827.64548  20582576.14648
  -4309921.35506  23639415.01406  -3354056.05947  23639412.56847
  -2898597.33207  21715205.82607  -2257308.21148  21715201.63148
 -13863216.00406  21549513.85706 -10796684.71948  21549511.24048
 08 11 15  1 12 59.9980000  0  9  3  6  7 13 16 19 21 23 25
 -17550393.33607  19263354.91207 -13647654.67249  19263352.65049
 -10183040.25007  19861567.04507  -7923586.16049  19861564.35449
  -4867501.95706  22815490.14606  -3790069.98847  22815486.31447
 -12006195.66806  21656188.60006  -9337522.42247  21656186.04547
   3700129.87107  21104615.89607   2880351.23448  21104612.95948
 -17132715.58607  20568196.71707 -13346725.65649  20568192.71349
  -4282968.82806  23644543.57606  -3333054.10547  23644541.50247
  -2843942.55507  21725605.89607  -2214720.09848  21725601.52948
 -13944705.02706  21534007.03706 -10860182.67248  21534004.30748
 08 11 15  1 13 29.9980000  0  9  3  6  7 13 16 19 21 23 25
 -17564337.88307  19260701.35707 -13658520.56349  19260698.70949
 -10168226.21907  19864385.47507  -7912042.74649  19864382.95549
  -4976384.48806  22794770.20106  -3874913.49247  22794766.10447
 -11995818.66406  21658163.95906  -9329436.46547  21658161.54947
   3738183.81307  21111857.17007   2910003.64548  21111854.38548
 -17207867.68007  20553896.08407 -13405285.71148  20553891.15448
  -4255558.65606  23649760.18606  -3311695.52347  23649756.97947
  -2788871.71507  21736085.67807  -2171807.77748  21736081.58048
 -14025888.82407  21518558.23207 -10923442.76248  21518555.53348
 08 11 15  1 13 59.9980000  0  9  3  6  7 13 16 19 21 23 25
 -17577774.04307  19258144.52907 -13668990.29749  19258141.64649
 -10152997.56307  19867283.60007  -7900176.26648  19867281.49048
  -5085109.03506  22774080.35706  -3959633.92247  22774076.35047
 -11984852.82006  21660251.06106  -9320891.66848  21660248.05748
   3776389.24606  21119127.60706   2939774.10248  21119124.27548
 -17282585.43407  20539677.46707 -13463507.33648  20539672.47548
  -4227692.65206  23655062.86506  -3289981.77747  23655059.16247
  -2733388.51207  21746643.94307  -2128574.13748  21746639.13548
 -14106765.50806  21503167.88106 -10986463.55948  21503165.21348
 08 11 15  1 14 29.9980000  0  9  3  6  7 13 16 19 21 23 25
 -17590705.62507  19255683.52907 -13679066.85949  19255681.80749
 -10137359.17607  19870259.12307  -7887990.50449  19870256.63949
  -5193676.75806  22753420.87306  -4044232.14847  22753417.24447
 -11973302.71107  21662448.56107  -9311891.61348  21662446.36948
   3814742.69507  21126425.91207   2969659.87948  21126423.31848
 -17356871.20307  20525541.74007 -13521392.35249  20525536.74049
  -4199375.07006  23660451.33406  -3267916.16047  23660447.85747
  -2677499.32407  21757279.10007  -2085024.15648  21757274.61948
 -14187336.03906  21487835.78706 -11049245.79348  21487832.70148
 08 11 15  1 14 59.9980000  0  9  3  6  7 13 16 19 21 23 25
 -17603132.05507  19253318.79507 -13688749.79349  19253316.53749
 -10121310.50407  19873313.48207  -7875485.04749  19873310.78349
  -5302082.99206  22732791.35706  -4128704.50447  22732788.47147
 -11961167.66806  21664757.81106  -9302435.76648  21664755.55748
   3853246.27707  21133753.29507   2999662.65648  21133750.17848
 -17430722.06607  20511488.06807 -13578938.46949  20511483.86949
  -4170604.35906  23665926.28706  -3245497.46947  23665923.38547
  -2621204.61307  21767992.03707  -2041158.17248  21767987.36548
 -14267596.00807  21472562.93607 -11111786.03148  21472559.85448
 08 11 15  1 15 29.9980000  0  9  3  6  7 13 16 19 21 23 25
 -17615051.15607  19251050.51407 -13698037.40249  19251048.27949
 -10104850.13707  19876445.70907  -7862658.78949  19876443.20149
  -5410322.30105  22712194.00605  -4213046.80547  22712191.44747
 -11948446.24207  21667178.86507  -9292522.99648  21667176.41248
   3891902.60507  21141109.48207   3029784.45748  21141106.34248
 -17504134.16407  20497518.08407 -13636142.68849  20497513.81849
  -4141378.91806  23671487.32606  -3222724.41447  23671485.64347
  -2564504.51607  21778781.91207  -1996976.29748  21778776.59248
 -14347540.43407  21457350.18607 -11174080.39148  21457346.74048
 08 11 15  1 15 59.9980000  0  9  3  6  7 13 16 19 21 23 25
 -17626468.69507  19248878.00607 -13706934.18449  19248875.73649
 -10087984.76607  19879655.10707  -7849516.93849  19879652.99849
  -5518397.17606  22691627.67806  -4297260.98847  22691625.86947
 -11935144.85906  21669709.80306  -9282158.28548  21669707.10048
   3930706.66407  21148493.35707   3060021.35948  21148490.78748
 -17577111.63707  20483630.93607 -13693008.24649  20483626.70949
  -4111704.94905  23677133.92805  -3199601.85247  23677131.52147
  -2507406.94107  21789646.65407  -1952484.70348  21789642.73248
 -14427171.86307  21442196.70107 -11236130.85248  21442193.85448
 08 11 15  1 16 29.9980000  0  9  3  6  7 13 16 19 21 23 25
 -17637382.51207  19246801.13107 -13715438.45749  19246798.76449
 -10070713.10207  19882941.47507  -7836058.49649  19882939.22549
  -5626302.46106  22671094.57606  -4381343.00847  22671092.49847
 -11921261.79707  21672351.91207  -9271340.32448  21672348.81448
   3969661.26607  21155906.24807   3090375.57848  21155903.25248
 -17649650.25007  20469827.35007 -13749531.82449  20469822.50249
  -4081580.45306  23682866.47506  -3176128.21946  23682863.55346
  -2449912.36306  21800587.68606  -1907683.75848  21800584.06448
 -14506485.23806  21427103.81806 -11297933.47748  21427101.10048
 08 11 15  1 16 59.9980000  0  9  3  6  7 13 16 19 21 23 25
 -17647798.74607  19244819.21707 -13723555.01249  19244816.29949
 -10053041.41407  19886304.67007  -7822288.34448  19886302.53748
  -5734040.70306  22650592.69306  -4465294.85548  22650590.77148
 -11906803.77306  21675103.39606  -9260074.35948  21675100.42048
   4008760.98407  21163346.92007   3120842.85948  21163343.71348
 -17721754.27007  20456106.62307 -13805716.79349  20456102.27149
  -4051011.13706  23688683.49006  -3152308.02346  23688680.50246
  -2392028.49607  21811602.26407  -1862579.48048  21811598.47148
 -14585483.08607  21412071.03707 -11359490.23048  21412068.20148
 08 11 15  1 17 29.9980000  0  9  3  6  7 13 16 19 21 23 25
 -17657715.39807  19242932.07607 -13731282.27049  19242929.68249
 -10034968.69507  19889743.81807  -7808205.71148  19889741.31148
  -5841606.39106  22630123.34206  -4549112.25048  22630121.48648
 -11891769.28507  21677963.63907  -9248359.19147  21677961.44747
   4048008.94907  21170815.22507   3151425.68448  21170812.20548
 -17793420.07407  20442468.92807 -13861560.25849  20442464.88549
  -4019995.54706  23694585.70106  -3128140.08647  23694583.34647
  -2333755.06607  21822691.59207  -1817171.64148  21822687.06448
 -14664160.29707  21397098.89607 -11420797.14148  21397095.70548
 08 11 15  1 17 59.9980000  0  9  3  6  7 13 16 19 21 23 25
 -17667136.32407  19241139.40407 -13738623.24649  19241137.03749
 -10016499.49207  19893258.34207  -7793814.12549  19893256.50249
  -5949000.47706  22609686.90406  -4632795.93447  22609684.49447
 -11876163.03506  21680933.57606  -9236198.49247  21680930.34247
   4087401.99607  21178311.71707   3182121.53148  21178308.56448
 -17864649.87107  20428914.05307 -13917063.99649  20428909.80349
  -3988537.48006  23700572.56806  -3103627.31347  23700569.58447
  -2275098.83607  21833854.24007  -1771465.52348  21833849.00248
 -14742517.80107  21382188.17807 -11481854.93848  21382184.88948
 08 11 15  1 18 29.9980000  0  9  3  6  7 13 16 19 21 23 25
 -17676062.14807  19239440.97507 -13745578.43049  19239438.75249
  -9997634.37507  19896848.55307  -7779114.03148  19896846.18648
  -6056219.15606  22589283.95906  -4716342.92648  22589280.67048
 -11859985.77006  21684011.67806  -9223592.85947  21684010.00647
   4126940.76207  21185835.82607   3212930.94948  21185832.12748
 -17935441.68807  20415443.29507 -13972226.43849  20415439.58849
  -3956637.30906  23706643.03706  -3078770.03947  23706640.45147
  -2216061.44507  21845087.85707  -1725462.38748  21845083.26448
 -14820552.28907  21367338.35007 -11542661.03548  21367335.75648
 08 11 15  1 18 59.9980000  0  9  3  6  7 13 16 19 21 23 25
 -17684491.47707  19237836.83407 -13752146.73849  19237834.27949
  -9978373.25407  19900513.55307  -7764105.36749  19900511.31849
  -6163258.12106  22568915.20106  -4799749.89848  22568911.61548
 -11843237.12906  21687199.37306  -9210541.98447  21687196.44747
   4166627.08207  21193387.80307   3243855.34048  21193384.68248
 -18005792.92207  20402055.61507 -14027045.57849  20402051.49849
  -3924294.10206  23712798.09206  -3053567.57447  23712794.88147
  -2156644.28907  21856394.77907  -1679163.32847  21856389.88547
 -14898259.60507  21352551.39607 -11603212.19148  21352548.99848
 08 11 15  1 19 29.9980000  0  9  3  6  7 13 16 19 21 23 25
 -17692424.41407  19236326.93607 -13758328.23849  19236324.97949
  -9958716.51607  19904254.33407  -7748788.42249  19904251.78749
  -6270114.00806  22548580.77106  -4883014.23048  22548577.63548
 -11825917.65606  21690495.11506  -9197046.30147  21690492.44347
   4206462.16407  21200968.24007   3274895.64148  21200964.50648
 -18075701.32807  20388752.74807 -14081519.65649  20388748.44749
  -3891508.15206  23719037.13106  -3028020.11347  23719033.73647
  -2096849.27007  21867773.91207  -1632569.84848  21867769.60748
 -14975636.46107  21337827.15407 -11663505.83648  21337824.63148
 08 11 15  1 19 59.9980000  0  9  3  6  7 13 16 19 21 23 25
 -17699868.41407  19234910.49007 -13764128.75449  19234908.23649
  -9938672.40607  19908068.41207  -7733169.64549  19908065.81849
  -6376790.87506  22528281.42006  -4966139.05548  22528277.91248
 -11808035.37506  21693897.53706  -9183112.06347  21693895.61147
   4246439.19507  21208575.37307   3306046.55148  21208571.91648
 -18145172.94107  20375532.40407 -14135653.37949  20375528.22949
  -3858287.00406  23725359.31106  -3002133.52047  23725355.83047
  -2036685.89807  21879222.47507  -1585689.32047  21879217.35747
 -15052687.10907  21323165.42807 -11723545.30948  21323162.86948
 08 11 15  1 20 29.9980000  0  9  3  6  7 13 16 19 21 23 25
 -17706820.63707  19233587.71707 -13769546.06349  19233585.17449
  -9918238.73407  19911956.69307  -7717247.29349  19911954.50649
  -6483282.21106  22508016.16206  -5049119.29748  22508013.31148
 -11789588.49606  21697408.72506  -9168737.91048  21697406.11548
   4286561.87107  21216210.36507   3337310.94548  21216207.36948
 -18214203.02707  20362396.79507 -14189443.05149  20362391.86549
  -3824627.71506  23731763.20906  -2975905.50047  23731760.45547
  -1976153.56607  21890741.12307  -1538521.29347  21890736.79547
 -15129405.46507  21308566.24007 -11783325.84448  21308563.07648
 08 11 15  1 20 59.9980000  0  9  3  6  7 13 16 19 21 23 25
 -17713281.18007  19232358.17807 -13774580.24649  19232355.99049
  -9897416.27007  19915919.28707  -7701022.00049  19915916.83449
  -6589584.55506  22487787.44306  -5131952.30148  22487785.15848
 -11770577.65207  21701026.59207  -9153924.28148  21701023.67048
   4326830.95707  21223873.76407   3368689.41448  21223870.73648
 -18282790.13707  20349344.91207 -14242887.53549  20349341.01449
  -3790530.94506  23738252.64606  -2949336.61347  23738249.17847
  -1915254.44107  21902329.49007  -1491067.43447  21902325.72547
 -15205788.41807  21294030.89607 -11842845.03948  21294027.85448
 08 11 15  1 21 29.9980000  0  9  3  6  7 13 16 19 21 23 25
 -17719254.22707  19231221.44307 -13779234.57049  19231218.99849
  -9876209.26207  19919954.53707  -7684497.05548  19919952.33048
  -6695698.31606  22467594.50606  -5214638.30947  22467592.13147
 -11751007.26606  21704750.49006  -9138674.64848  21704747.70548
   4367243.58607  21231563.91207   3400179.75848  21231560.58448
 -18350936.04307  20336376.95107 -14295988.23449  20336372.63149
  -3756000.37106  23744821.86506  -2922429.66446  23744819.73646
  -1853994.25807  21913987.79507  -1443332.24648  21913982.99848
 -15281836.45707  21279559.02907 -11902103.24248  21279556.25648
 08 11 15  1 21 59.9980000  0  9  3  6  7 13 16 19 21 23 25
 -17724748.00407  19230176.02907 -13783515.43849  19230173.66249
  -9854626.87507  19924061.61507  -7667679.61349  19924059.21749
  -6801628.69906  22447436.59206  -5297181.44147  22447433.95547
 -11730886.41006  21708578.99006  -9122996.08248  21708576.10048
   4407792.48007  21239280.22507   3431776.27048  21239276.90448
 -18418647.52007  20323491.77107 -14348750.41049  20323488.39649
  -3721044.84406  23751474.49006  -2895191.66046  23751472.29146
  -1792383.44507  21925711.68607  -1395323.85248  21925706.95948
 -15357554.62107  21265150.77907 -11961104.41448  21265147.79548
 08 11 15  1 22 29.9980000  0  9  3  6  7 13 16 19 21 23 25
 -17729755.30107  19229223.46707 -13787417.22749  19229221.02549
  -9832662.35507  19928241.38907  -7650564.41048  19928239.51848
  -6907364.30906  22427316.43606  -5379572.84847  22427312.93947
 -11710208.35906  21712513.63106  -9106883.34447  21712511.83847
   4448486.23407  21247024.07607   3463485.67248  21247020.52148
 -18485915.13307  20310691.47507 -14401166.73049  20310687.13949
  -3685657.11706  23758209.16206  -2867616.80546  23758205.96346
  -1730416.81607  21937503.21707  -1347038.20347  21937498.80347
 -15432932.24207  21250806.54507 -12019840.21148  21250804.09648
 08 11 15  1 22 59.9980000  0  9  3  6  7 13 16 19 21 23 25
 -17734275.03907  19228363.12307 -13790939.10249  19228360.93649
  -9810315.27307  19932493.87307  -7633151.09449  19932491.37349
  -7012900.57806  22407233.26406  -5461808.88747  22407230.25647
 -11688973.05906  21716554.38906  -9090336.39547  21716552.47147
   4489326.41807  21254795.64607   3495309.16848  21254792.53748
 -18552736.51607  20297975.95907 -14453235.33649  20297971.26849
  -3649836.37106  23765024.80306  -2839704.55546  23765022.18246
  -1668095.50807  21949363.04507  -1298476.17648  21949358.42448
 -15507965.18007  21236528.34207 -12078307.43848  21236525.68648
 08 11 15  1 23 29.9980000  0  9  3  6  7 13 16 19 21 23 25
 -17738316.12907  19227594.12307 -13794088.01249  19227591.60449
  -9787595.17207  19936817.77907  -7615447.12549  19936815.07649
  -7118242.89806  22387187.19306  -5543893.78547  22387184.10747
 -11667190.10506  21720700.27906  -9073362.70747  21720697.59247
   4530305.28907  21262593.28707   3527240.74648  21262590.30348
 -18619118.37107  20285343.69307 -14504961.45349  20285339.69349
  -3613591.46105  23771922.01405  -2811461.81646  23771918.31846
  -1605430.12107  21961287.63907  -1249646.05147  21961283.09647
 -15582658.84407  21222314.36507 -12136510.29748  21222312.40848
 08 11 15  1 23 59.9980000  0  9  3  6  7 13 16 19 21 23 25
 -17741875.15207  19226916.94307 -13796861.28149  19226914.45149
  -9764498.73007  19941212.67007  -7597449.89849  19941210.15849
  -7223383.87906  22367179.44306  -5625821.81647  22367176.28347
 -11644856.27706  21724949.83406  -9055959.73447  21724947.35747
   4571427.76207  21270418.81807   3559284.21948  21270415.64648
 -18685055.31307  20272796.69307 -14556340.87549  20272792.02949
  -3576918.78105  23778901.42805  -2782885.68846  23778896.87346
  -1542419.02307  21973278.28707  -1200546.52747  21973274.10747
 -15657006.30907  21208167.10707 -12194443.37948  21208163.93948
 08 11 15  1 24 29.9980000  0  9  3  6  7 13 16 19 21 23 25
 -17744955.35507  19226331.11507 -13799261.44149  19226328.28749
  -9741029.91007  19945678.81807  -7579162.51249  19945676.43649
  -7328323.20306  22347210.81806  -5707592.71547  22347207.05747
 -11621975.84406  21729304.37306  -9038130.86747  21729301.81847
   4612691.34007  21278271.17807   3591437.64548  21278268.42048
 -18750548.88307  20260333.08407 -14607374.81649  20260329.04149
  -3539821.75805  23785960.33405  -2753978.94946  23785956.11146
  -1479067.68807  21985333.57607  -1151181.85547  21985329.20147
 -15731007.35507  21194084.70907 -12252106.53548  21194082.45548
 08 11 15  1 24 59.9980000  0  9  3  6  7 13 16 19 21 23 25
 -17747556.41408  19225835.79508 -13801288.25049  19225833.38549
  -9717189.23407  19950214.80307  -7560585.36349  19950212.77149
  -7433057.28906  22327280.48206  -5789203.68847  22327277.06147
 -11598549.42206  21733762.23206  -9019876.52347  21733759.38947
   4654097.35507  21286150.24007   3623702.06648  21286147.11148
 -18815597.39507  20247954.87307 -14658061.96549  20247950.68949
  -3502300.56605  23793101.17005  -2724741.71946  23793097.44746
  -1415377.95306  21997452.88906  -1101553.52747  21997448.72147
 -15804658.60907  21180069.31807 -12309497.12148  21180066.24048
 08 11 15  1 25 29.9980000  0  9  3  6  7 13 16 19 21 23 25
 -17749676.10507  19225432.67007 -13802939.95349  19225430.00649
  -9692974.60507  19954822.98207  -7541716.83248  19954820.56148
  -7537579.45306  22307390.45106  -5870649.52047  22307387.15047
 -11574575.35206  21738324.25606  -9001195.43447  21738321.68247
   4695649.36707  21294057.21707   3656080.22748  21294053.83848
 -18880196.29307  20235661.94307 -14708398.75049  20235657.71349
  -3464353.09405  23800321.43605  -2695172.30946  23800318.86146
  -1351349.57006  22009636.81806  -1051661.30147  22009633.22147
 -15877954.35207  21166121.99807 -12366610.68448  21166118.64648
 08 11 15  1 25 59.9980000  0  9  3  6  7 13 16 19 21 23 25
 -17751314.37507  19225120.67807 -13804216.53949  19225118.57249
  -9668386.82807  19959501.88107  -7522557.53148  19959499.48248
  -7641886.30506  22287541.63906  -5951927.56348  22287538.53748
 -11550054.30106  21742990.60706  -8982088.14548  21742987.88548
   4737348.32807  21301992.22507   3688572.92248  21301989.41648
 -18944343.78107  20223455.27907 -14758383.80949  20223451.14649
  -3425979.45306  23807623.79506  -2665270.76246  23807620.65846
  -1286984.54307  22021885.57607  -1001506.76247  22021881.54947
 -15950891.02007  21152242.42007 -12423444.46148  21152239.63948
 08 11 15  1 26 29.9980000  0  9  3  6  7 13 16 19 21 23 25
 -17752480.71507  19224899.02907 -13805125.38349  19224896.45149
  -9643435.32407  19964249.78707  -7503114.80548  19964247.54148
  -7745983.28106  22267732.45106  -6033042.07848  22267729.58448
 -11524996.16006  21747758.55306  -8962562.33647  21747756.40847
   4779186.41807  21309954.13907   3721174.01648  21309950.81848
 -19008047.34807  20211332.68607 -14808022.93449  20211328.72149
  -3387188.69505  23815005.80305  -2635044.21146  23815002.81846
  -1222293.48407  22034196.35707   -951098.17647  22034191.68247
 -16023474.40207  21138430.52107 -12480002.94548  21138427.32648
 08 11 15  1 26 59.9980000  0  9  3  6  7 13 16 19 21 23 25
 -17753171.58607  19224767.31107 -13805663.73449  19224764.80749
  -9618117.36707  19969067.86507  -7483386.53148  19969065.31148
  -7849863.32406  22247964.56106  -6113987.54348  22247961.86548
 -11499398.46106  21752630.23206  -8942616.10947  21752627.49847
   4821168.05507  21317942.60707   3753886.97748  21317939.92048
 -19071302.10507  20199295.77907 -14857312.35249  20199291.67049
  -3347977.74206  23822467.31806  -2604490.27746  23822463.05746
  -1157275.44507  22046568.75607   -900434.77747  22046564.13547
 -16095697.88707  21124686.55307 -12536280.97748  21124683.77148
 08 11 15  1 27 29.9980000  0  9  3  6  7 13 16 19 21 23 25
 -17753386.53908  19224726.54508 -13805831.24249  19224724.14349
  -9592433.18807  19973955.50607  -7463372.89548  19973952.86948
  -7953522.50006  22228239.31806  -6194760.92248  22228236.33048
 -11473261.94106  21757603.39606  -8922250.01647  21757601.37747
   4863294.51607  21325959.26407   3786712.77348  21325955.66648
 -19134105.73007  20187344.61507 -14906250.24249  20187340.42449
  -3308346.72306  23830007.92806  -2573608.94146  23830005.35746
  -1091932.07007  22059003.69307   -849517.87148  22058998.68948
 -16167557.71507  21111011.99807 -12592275.64848  21111008.83448
 08 11 15  1 27 59.9980000  0  9  3  6  7 13 16 19 21 23 25
 -17753125.88307  19224776.20907 -13805628.14149  19224774.14349
  -9566383.38307  19978912.49807  -7443074.34448  19978910.31848
  -8056956.88706  22208556.20106  -6275359.12948  22208553.55348
 -11446587.12906  21762679.71706  -8901464.47348  21762677.92048
   4905567.19907  21334002.99807   3819652.51248  21334000.26048
 -19196456.60207  20175479.81807 -14954835.32449  20175475.22149
  -3268295.23805  23837630.50605  -2542400.02746  23837627.56846
  -1026265.37907  22071499.42007   -798349.05947  22071494.46747
 -16239050.52707  21097407.52907 -12647984.33248  21097404.57248
 08 11 15  1 28 29.9980000  0  9  3  6  7 13 16 19 21 23 25
 -17752389.96107  19224916.03707 -13805054.69949  19224913.71749
  -9539968.57007  19983939.00607  -7422491.38348  19983937.02548
  -8160162.54706  22188916.39606  -6355779.09448  22188914.06148
 -11419374.88706  21767858.05306  -8880260.17647  21767856.02947
   4947987.04307  21342075.80307   3852706.91848  21342073.18248
 -19258353.03507  20163701.58407 -15003066.31349  20163696.97549
  -3227824.11705  23845332.41205  -2510864.12146  23845329.51446
   -960277.38706  22084056.24006   -746929.87947  22084051.84247
 -16310173.07407  21083873.40407 -12703404.49648  21083870.61548
 08 11 15  1 28 59.9980000  0  8  3  6  7 13 16 19 23 25
 -17751183.95307  19225145.47507 -13804114.96949  19225143.48649
  -9513194.85907  19989034.17807  -7401628.75448  19989031.68248
  -8263141.57406  22169320.20106  -6436022.48448  22169317.26848
 -11391631.71506  21773137.27906  -8858642.15247  21773134.73247
   4990549.64107  21350175.14607   3885872.56348  21350172.36948
 -19319799.08207  20152008.74807 -15050946.34449  20152004.22549
   -893975.77306  22096673.52906   -695266.31647  22096668.52947
 -16380927.37507  21070409.21707 -12758537.73048  21070406.77548
 08 11 15  1 29 29.9980000  0  8  3  6  7 13 16 19 23 25
 -17749507.06607  19225464.97507 -13802808.30949  19225462.72149
  -9486061.55907  19994197.30307  -7380485.93449  19994195.36549
  -8365889.28106  22149768.20906  -6516085.62548  22149765.24848
 -11363357.64806  21778517.35706  -8836610.44147  21778514.97947
   5033257.33607  21358302.17007   3919151.26648  21358298.72148
 -19380791.57007  20140401.80307 -15098472.95349  20140397.86949
   -827361.32806  22109349.47506   -643358.98847  22109344.70947
 -16451309.12507  21057016.06107 -12813380.64148  21057013.30348
 08 11 15  1 29 59.9980000  0  8  3  6  7 13 16 19 23 25
 -17747363.46107  19225872.63907 -13801137.98449  19225870.45149
  -9458573.38307  19999428.02107  -7359066.59449  19999426.06149
  -8468405.69506  22130260.18606  -6595968.53548  22130256.88148
 -11334557.46106  21783998.52906  -8814168.75847  21783995.40847
   5076107.02007  21366456.27107   3952540.61748  21366452.57648
 -19441333.13707  20128881.33407 -15145648.19949  20128876.90049
   -760440.16807  22122084.33407   -591212.66847  22122079.77147
 -16521318.95707  21043693.31107 -12867933.75848  21043691.01848
 08 11 15  1 30 29.9980000  0  8  3  6  7 13 16 19 23 25
 -17744743.99207  19226371.13107 -13799096.85249  19226368.77949
  -9430721.81307  20004728.39607  -7337364.07449  20004726.01449
  -8570678.02306  22110798.42806  -6675661.25848  22110794.77548
 -11305223.06606  21789581.14606  -8791310.80947  21789577.66647
   5119109.32807  21374639.48207   3986048.89548  21374636.10448
 -19501412.78507  20117448.81807 -15192463.50049  20117444.28749
   -693205.19107  22134879.15407   -538821.80947  22134874.46347
 -16590944.38707  21030444.01407 -12922187.34448  21030442.19348
 08 11 15  1 30 59.9980000  0  8  3  6  7 13 16 19 23 25
 -17741660.78107  19226957.67807 -13796694.36349  19226955.45549
  -9402518.66807  20010095.13907  -7315387.59449  20010092.78349
  -8672713.80906  22091381.44306  -6755169.64848  22091378.33448
 -11275366.75006  21795262.06806  -8768046.15647  21795258.54947
   5162253.75407  21382849.63907   4019667.90648  21382846.26848
 -19561040.42207  20106101.70107 -15238926.58649  20106097.58049
   -625669.99206  22147730.29506   -486196.96147  22147726.61947
 -16660193.37107  21017266.72507 -12976147.59848  21017264.35448
 08 11 15  1 31 29.9980000  0  8  3  6  7 13 16 19 23 25
 -17738107.51207  19227633.59207 -13793925.59049  19227631.65449
  -9373958.57807  20015529.85007  -7293132.99249  20015527.83049
  -8774503.13706  22072011.07606  -6834485.99248  22072008.62348
 -11244983.63706  21801043.41206  -8744371.00047  21801040.99447
   5205547.60206  21391087.91206   4053403.34048  21391084.86548
 -19620208.56307  20094842.76407 -15285031.62949  20094838.38949
   -557830.23806  22160639.62306   -433334.86347  22160635.72947
 -16729056.73407  21004162.27907 -13029807.36348  21004160.24448
 08 11 15  1 31 59.9980000  0  8  3  6  7 13 16 19 23 25
 -17734098.71507  19228396.88107 -13790801.85249  19228394.99049
  -9345056.74607  20021029.58407  -7270612.09848  20021027.38948
  -8876057.01206  22052685.71706  -6913618.87548  22052683.37348
 -11214089.23406  21806922.70906  -8720297.47347  21806920.38547
   5248977.45706  21399352.19306   4087244.77048  21399349.01448
 -19678929.86707  20083668.22507 -15330788.48449  20083663.67049
   -489702.83206  22173603.55306   -380248.59447  22173599.83047
 -16797545.59807  20991129.14607 -13083175.31348  20991127.02948
 08 11 15  1 32 29.9980000  0  8  3  6  7 13 16 19 23 25
 -17729630.18007  19229247.19307 -13787319.88749  19229244.95549
  -9315808.92607  20026595.13107  -7247821.59049  20026593.18949
  -8977366.75806  22033407.70106  -6992561.52348  22033404.95948
 -11182679.84006  21812899.10006  -8695822.65647  21812896.85447
   5292549.03107  21407643.56107   4121196.60248  21407640.88148
 -19737198.32007  20072580.03707 -15376192.48449  20072575.63949
   -421285.31306  22186623.42006   -326936.26647  22186618.33847
 -16865651.97707  20978169.21707 -13136245.21948  20978166.67048
 08 11 15  1 32 59.9980000  0  8  3  6  7 13 16 19 23 25
 -17724699.32807  19230185.40407 -13783477.66449  19230183.24849
  -9286213.09807  20032227.33407  -7224759.91048  20032224.71748
  -9078426.10206  22014176.63106  -7071309.05548  22014173.99448
 -11150753.59406  21818975.17006  -8670945.08647  21818973.03747
   5336266.14807  21415963.11507   4155261.84848  21415960.19348
 -19795009.41807  20061579.10007 -15421240.09049  20061574.64349
   -352576.73806  22199698.04506   -273397.14147  22199693.94747
 -16933369.84407  20965283.24807 -13189012.39148  20965280.14648
 08 11 15  1 33 29.9980000  0  8  3  6  7 13 16 19 23 25
 -17719305.35508  19231211.98208 -13779274.55549  19231209.59249
  -9256268.84007  20037925.71707  -7201426.72349  20037922.94749
  -9179230.11306  21994994.36506  -7149857.66448  21994991.06848
 -11118310.89106  21825148.39606  -8645665.10247  21825146.71347
   5380131.10907  21424310.41207   4189442.30548  21424306.64648
 -19852360.73807  20050665.24007 -15465929.43049  20050661.18949
   -283578.37107  22212828.40407   -219632.21547  22212823.20947
 -17000695.00007  20952471.50607 -13241473.55948  20952468.58448
 08 11 15  1 33 59.9980000  0  8  3  6  7 13 16 19 23 25
 -17713452.89808  19232325.63108 -13774714.19149  19232323.71349
  -9225980.85207  20043689.24007  -7177825.69548  20043686.96748
  -9279779.29306  21975860.54506  -7228207.66448  21975857.76448
 -11085356.89806  21831419.67006  -8619986.69547  21831417.92047
   5424141.08607  21432685.31807   4223735.76648  21432681.58048
 -19909254.90607  20039839.01407 -15510262.52749  20039834.74849
   -214296.23406  22226012.07606   -165646.16047  22226007.23647
 -17067628.09007  20939734.41207 -13293629.21148  20939731.80748
 08 11 15  1 34 29.9980000  0  8  3  6  7 13 16 19 23 25
 -17707146.75808  19233525.62308 -13769800.31649  19233523.42049
  -9195354.82407  20049517.40407  -7153961.25448  20049515.01848
  -9380074.84006  21956775.27106  -7306360.03548  21956771.59648
 -11051897.98006  21837786.52906  -8593914.84047  21837784.85747
   5468292.16007  21441086.79507   4258139.16048  21441083.72148
 -19965695.60907  20029098.56807 -15554242.29749  20029094.06149
   -144737.49206  22239248.51406   -111444.59047  22239243.65447
 -17134171.03507  20927072.02107 -13345480.85548  20927069.37748
 08 11 15  1 34 59.9980000  0  8  3  6  7 13 16 19 23 25
 -17700388.07007  19234811.99007 -13764533.80149  19234809.72949
  -9164392.21507  20055409.18607  -7129834.55548  20055406.74048
  -9480113.42206  21937737.99806  -7384312.16847  21937735.10747
 -11017935.72306  21844249.91206  -8567450.77747  21844247.37747
   5512584.64807  21449515.16207   4292652.75848  21449512.10048
 -20021681.89107  20018444.71707 -15597867.96149  20018439.88149
    -74905.08606  22252537.24806    -57029.75847  22252532.43247
 -17200321.36707  20914483.38107 -13397026.57048  20914481.04548
 08 11 15  1 35 29.9980000  0  8  3  6  7 13 16 19 23 25
 -17693177.46907  19236183.84207 -13758915.15249  19236181.36149
  -9133093.71107  20061365.02907  -7105446.10548  20061362.88548
  -9579891.70706  21918750.62306  -7462061.46148  21918748.39348
 -10983471.56606  21850807.90406  -8540595.62147  21850805.34647
   5557019.37107  21457971.56807   4327277.19148  21457968.48648
 -20077212.45307  20007877.61507 -15641138.52349  20007873.00649
     -4801.27306  22265877.52906     -2403.44147  22265872.88547
 -17266075.87907  20901970.92807 -13448263.85948  20901968.39648
 08 11 15  1 35 59.9980000  0  8  3  6  7 13 16 19 23 25
 -17685511.32007  19237642.57607 -13752941.52349  19237640.59249
  -9101456.52707  20067385.47507  -7080793.75848  20067383.10448
  -9679402.57806  21899814.67806  -7539602.39148  21899811.66648
 -10948503.45306  21857461.98206  -8513347.78147  21857459.52547
   5601601.00407  21466454.60007   4362016.09048  21466451.48648
 -20132282.61707  19997398.11507 -15684050.34449  19997393.74849
     65575.29306  22279269.75606     52435.40247  22279265.29547
 -17331427.97707  20889534.72507 -13499187.56648  20889531.87748
 08 11 15  1 36 29.9980000  0  8  3  6  7 13 16 19 23 25
 -17677391.42607  19239187.95107 -13746614.34049  19239186.02149
  -9069482.59407  20073469.45907  -7055879.01648  20073467.51848
  -9778643.51206  21880929.88906  -7616932.98848  21880926.47148
 -10913033.73806  21864211.99806  -8485709.07847  21864209.16247
   5646329.37507  21474966.26407   4396869.34048  21474963.00648
 -20186892.42207  19987006.14607 -15726603.43449  19987001.58449
    136220.89507  22292713.29507    107483.87947  22292709.03347
 -17396375.68407  20877175.96707 -13549796.18448  20877172.83448
 08 11 15  1 36 59.9980000  0  8  3  6  7 13 16 19 23 25
 -17668823.23408  19240818.42808 -13739937.82049  19240816.11149
  -9037177.36707  20079617.13907  -7030706.10948  20079614.93248
  -9877615.42606  21862095.89606  -7694053.95348  21862092.94748
 -10877068.44106  21871055.42806  -8457684.19547  21871052.36147
   5691201.05907  21483505.38907   4431834.25848  21483502.81848
 -20241044.84807  19976701.37307 -15768800.12149  19976696.63149
    207129.03106  22306206.88906    162736.95347  22306202.34247
 -17460920.39107  20864893.42007 -13600090.75848  20864890.59248
 08 11 15  1 37 29.9980000  0  8  3  6  7 13 16 19 23 25
 -17659805.55507  19242534.46707 -13732911.07049  19242532.25249
  -9004540.20707  20085827.61507  -7005274.55148  20085825.79148
  -9976313.57807  21843314.02107  -7770961.60548  21843311.76448
 -10840607.55106  21877993.80306  -8429273.15647  21877991.48647
   5736218.39107  21492071.69307   4466912.66048  21492068.63948
 -20294737.39807  19966483.84207 -15810638.48049  19966479.04949
    278298.86306  22319750.14606    218193.93847  22319746.04147
 -17525057.85507  20852688.31807 -13650068.00848  20852685.17848
 08 11 15  1 37 59.9980000  0  8  3  6  7 13 16 19 23 25
 -17650339.86307  19244335.59207 -13725535.20749  19244333.31449
  -8971572.58607  20092101.47507  -6979585.51648  20092099.17848
 -10074734.63306  21824585.44306  -7847653.32848  21824582.71348
 -10803653.35206  21885026.42006  -8400477.69547  21885023.65447
   5781381.79707  21500666.22507   4502104.91048  21500663.13148
 -20347969.49607  19956354.31107 -15852118.03149  19956349.89349
    349726.98406  22333342.74006    273852.19947  22333337.97547
 -17588785.70307  20840561.45107 -13699726.07048  20840559.11548
 08 11 15  1 38 29.9980000  0  8  3  6  7 13 16 19 23 25
 -17640426.73407  19246222.12307 -13717810.70349  19246219.79149
  -8938275.27307  20098437.68607  -6953639.57048  20098435.68648
 -10172874.93406  21805909.80306  -7924126.27048  21805907.21348
 -10766206.98406  21892151.72506  -8371298.73447  21892149.11147
   5826692.41807  21509288.43607   4537411.84448  21509285.65848
 -20400739.84807  19946312.32607 -15893237.78149  19946307.81849
    421411.50406  22346983.56806    329710.24647  22346978.82647
 -17652100.70707  20828512.89607 -13749062.43448  20828510.42848
 08 11 15  1 38 59.9980000  0  8  3  6  7 13 16 19 23 25
 -17630072.04307  19248192.45907 -13709742.11749  19248190.18949
  -8904655.28507  20104835.38107  -6927442.18448  20104833.15448
 -10270737.30507  21787287.48207  -8000382.65648  21787284.02548
 -10728276.35206  21899370.15406  -8341742.44947  21899367.63947
   5872144.37907  21517937.39607   4572828.93848  21517934.33448
 -20453053.62907  19936357.56107 -15934001.76649  19936353.04549
    493343.79706  22360672.00606    385761.37147  22360667.42047
 -17715006.17207  20816542.60007 -13798079.68448  20816539.70948
 08 11 15  1 39 29.9980000  0  8  3  6  7 13 16 19 23 25
 -17619274.68807  19250247.28707 -13701328.60549  19250244.85749
  -8870711.32807  20111294.57607  -6900992.35948  20111292.58848
 -10368315.85907  21768719.21707  -8076417.89148  21768715.73248
 -10689860.77706  21906680.64606  -8311808.28547  21906677.93647
   5917741.28907  21526614.49807   4608358.96548  21526610.95948
 -20504907.48807  19926490.12307 -15974407.35949  19926485.70549
    565523.57006  22374407.13106    442005.29747  22374403.06847
 -17777496.85907  20804650.89607 -13846773.73048  20804648.49448
 08 11 15  1 39 59.9980000  0  8  3  6  7 13 16 19 23 25
 -17608035.84407  19252385.61507 -13692571.07449  19252383.56149
  -8836444.70307  20117815.31807  -6874291.09848  20117813.35748
 -10465607.63707  21750205.23207  -8152229.65648  21750201.36148
 -10650962.43406  21914082.46706  -8281497.93047  21914080.59247
   5963483.66407  21535318.92007   4644002.35248  21535316.13148
 -20556300.68007  19916710.02907 -16014453.99249  19916705.85749
    637948.34806  22388188.63906    498440.14147  22388185.38147
 -17839570.21907  20792838.80307 -13895142.58248  20792836.18248
 08 11 15  1 40 29.9980000  0  9  3  6  7 13 16 19 23 25 27
 -17596359.75407  19254607.52107 -13683472.83249  19254605.52149
  -8801860.59407  20124396.49807  -6847342.46148  20124394.31148
 -10562613.16407  21731745.63907  -8227818.34848  21731742.08048
 -10611586.96506  21921575.21706  -8250815.76647  21921572.89347
   6009368.03507  21544050.02907   4679756.37548  21544047.03748
 -20607236.66007  19907017.10007 -16054144.37149  19907013.01049
    710611.30906  22402016.50606    555060.57447  22402012.77147
 -17901227.68807  20781105.50607 -13943187.37948  20781103.04548
   -162947.55915  23208541.27905   -120446.52357  23208539.63947
 08 11 15  1 40 59.9980000  0  9  3  6  7 13 16 19 23 25 27
 -17584248.63307  19256912.36507 -13674035.61349  19256909.99049
  -8766960.75807  20131037.71707  -6820147.78948  20131035.58048
 -10659329.76206  21713340.67006  -8303181.92648  21713337.32248
 -10571736.96506  21929158.36506  -8219763.84847  21929156.14647
   6055394.44907  21552808.80307   4715621.10248  21552806.38548
 -20657715.30507  19897411.49807 -16093478.36749  19897407.43249
    783509.08606  22415889.10706    611863.97747  22415885.10047
 -17962467.31607  20769452.17007 -13990906.55548  20769449.63948
   -263924.58606  23189326.63906   -199129.90647  23189324.76847
 08 11 15  1 41 29.9980000  0  9  3  6  7 13 16 19 23 25 27
 -17571705.89107  19259299.24007 -13664262.05949  19259296.90849
  -8731749.09407  20137738.02107  -6792710.14148  20137735.78348
 -10755756.79707  21694991.12307  -8378319.86748  21694988.07248
 -10531417.08606  21936831.30306  -8188345.79747  21936828.72147
   6101560.84407  21561593.91207   4751594.89148  21561591.20148
 -20707738.45707  19887892.17807 -16132457.44549  19887888.32649
    856636.06606  22429804.51406    668846.00048  22429800.31848
 -18023289.06307  20757878.06807 -14038300.13348  20757875.32648
   -364752.94506  23170139.34206   -277697.42647  23170136.93947
 08 11 15  1 41 59.9980000  0  9  3  6  7 13 16 19 23 25 27
 -17558728.71107  19261768.35007 -13654149.98049  19261766.26849
  -8696222.95307  20144498.67007  -6765027.44548  20144496.35048
 -10851887.37107  21676697.83407  -8453226.79348  21676695.13548
 -10490625.37506  21944593.79506  -8156560.07447  21944591.24847
   6147871.78107  21570406.97507   4787681.32048  21570403.29148
 -20757301.57407  19878460.86507 -16171078.05149  19878456.25649
    929993.75006  22443763.87306    726007.78148  22443759.97148
 -18083686.53107  20746384.85707 -14085363.09848  20746382.22948
   -465426.03506  23150982.31106   -356143.95747  23150979.50247
 08 11 15  1 42 29.9980000  0  9  3  6  7 13 16 19 23 25 27
 -17545321.13307  19264320.11507 -13643702.53949  19264317.61549
  -8660386.86307  20151317.80307  -6737103.23448  20151315.52548
 -10947721.56607  21658461.45107  -8527902.78948  21658458.28348
 -10449367.10906  21952445.02106  -8124410.78947  21952442.29947
   6194324.59807  21579246.37307   4823878.30548  21579243.71348
 -20806407.26207  19869116.50607 -16209342.21949  19869111.95949
   1003576.16006  22457766.79506    783344.68448  22457762.61148
 -18143660.32807  20734972.25607 -14132095.93448  20734969.89648
   -565944.35506  23131854.60006   -434469.91447  23131851.68247
 08 11 15  1 42 59.9980000  0  9  3  6  7 13 16 19 23 25 27
 -17531480.62907  19266953.67007 -13632917.74649  19266951.70549
  -8624238.52307  20158196.73207  -6708935.70748  20158194.26848
 -11043252.46107  21640282.29507  -8602342.43848  21640279.78348
 -10407641.09006  21960385.60706  -8091897.01247  21960382.38947
   6240923.25807  21588114.10007   4860188.91448  21588110.77148
 -20855051.41407  19859859.57607 -16247246.75049  19859855.65449
   1077384.55106  22471811.02906    840857.68047  22471807.43647
 -18203204.57007  20723641.30307 -14178494.04748  20723639.16248
   -666301.38706  23112757.17006   -512670.20347  23112754.77947
 08 11 15  1 43 29.9980000  0  9  3  6  7 13 16 19 23 25 27
 -17517207.93807  19269669.99007 -13621796.18449  19269667.56849
  -8587778.74607  20165134.76407  -6680525.49648  20165132.31848
 -11138476.61307  21622161.99007  -8676543.07448  21622159.70948
 -10365448.70706  21968414.61506  -8059019.86347  21968412.18947
   6287668.93406  21597009.75606   4896614.09848  21597006.65448
 -20903232.84007  19850690.94307 -16284790.71549  19850686.81849
   1151415.83606  22485899.02106    898544.35547  22485894.93947
 -18262316.19107  20712392.97507 -14224555.05148  20712390.28348
   -766493.94506  23093690.84206   -590742.32047  23093688.88547
 08 11 15  1 43 59.9980000  0  9  3  6  7 13 16 19 23 25 27
 -17502504.02307  19272467.98207 -13610338.59849  19272465.58449
  -8551008.77007  20172131.76407  -6651873.57848  20172129.63948
 -11233390.84807  21604099.80307  -8750502.19548  21604097.93248
 -10322791.86306  21976531.50606  -8025780.77047  21976529.26847
   6334562.36306  21605932.60706   4933154.42647  21605929.66647
 -20950951.25807  19841610.42807 -16321973.89849  19841606.26449
   1225667.24205  22500028.07605    956402.53147  22500024.82247
 -18320992.72707  20701227.19307 -14270277.02748  20701224.04148
   -866519.11306  23074656.14606   -668683.97347  23074654.93947
 08 11 15  1 44 29.9980000  0  9  3  6  7 13 16 19 23 25 27
 -17487375.50407  19275346.71707 -13598550.15249  19275344.86149
  -8513935.06607  20179186.94307  -6622984.98848  20179184.80748
 -11327996.77307  21586097.62307  -8824221.09848  21586094.74848
 -10279678.00406  21984735.88906  -7992185.58247  21984733.88147
   6381598.75806  21614882.99006   4969806.12548  21614880.80348
 -20998210.85907  19832617.56807 -16358799.56349  19832612.88149
   1300131.05105  22514198.36505   1014426.20347  22514194.73647
 -18379236.86707  20690144.00607 -14315662.07848  20690140.95548
   -966379.30506  23055653.81806   -746497.09447  23055651.62747
 08 11 15  1 44 59.9980000  0  9  3  6  7 13 16 19 23 25 27
 -17471820.41007  19278306.92007 -13586429.31349  19278304.82649
  -8476556.51207  20186300.14607  -6593858.85548  20186297.78748
 -11422289.34007  21568154.40407  -8897695.82448  21568151.45548
 -10236107.02706  21993026.81806  -7958234.19547  21993024.96347
   6428781.05106  21623862.02106   5006571.52748  21623858.98248
 -21045009.05507  19823711.99807 -16395265.68049  19823707.39649
   1374806.71505  22528408.06805   1072615.02347  22528404.98247
 -18437043.82007  20679143.26407 -14360706.45748  20679140.67048
  -1066069.48406  23036683.44306   -824177.73047  23036681.57647
 08 11 15  1 45 29.9980000  0  9  3  6  7 13 16 19 23 25 27
 -17455841.72707  19281347.16207 -13573978.39549  19281345.13149
  -8438876.07007  20193470.30307  -6564497.48048  20193468.18948
 -11516266.67207  21550271.17807  -8970924.91448  21550268.09648
 -10192082.47306  22001405.17006  -7923929.40647  22001402.57647
   6476108.26206  21632868.26406   5043449.83648  21632865.45548
 -21091347.03507  19814894.10007 -16431373.19549  19814889.74049
   1449690.24206  22542658.66206   1130965.79347  22542654.09247
 -18494412.75807  20668226.50607 -14405409.52748  20668224.02548
  -1165588.22706  23017745.80306   -901724.78947  23017743.91647
 08 11 15  1 45 59.9980000  0  9  3  6  7 13 16 19 23 25 27
 -17439443.41007  19284467.91207 -13561200.48449  19284465.57249
  -8400897.76207  20200697.38107  -6534904.00848  20200694.86948
 -11609928.41407  21532447.84207  -9043908.09048  21532444.27948
 -10147609.68006  22009868.01406  -7889275.30547  22009865.26447
   6523577.93806  21641900.80306   5080439.17647  21641898.35047
 -21137226.97707  19806163.76407 -16467123.79749  19806158.84649
   1524776.00006  22556947.35706   1189474.13747  22556941.82647
 -18551343.98407  20657392.96707 -14449771.52748  20657390.15448
  -1264935.80506  22998840.83406   -979138.48847  22998838.95547
 08 11 15  1 46 29.9980000  0  9  3  6  7 13 16 19 23 25 27
 -17422623.86707  19287668.73207 -13548094.35549  19287666.06449
  -8362620.42607  20207981.20907  -6505077.52048  20207979.04548
 -11703268.89506  21514685.47506  -9116640.92248  21514683.00248
 -10102688.08606  22018415.95906  -7854271.49247  22018414.11947
   6571193.29706  21650962.30306   5117542.03948  21650959.27948
 -21182645.96907  19797520.51407 -16502515.22349  19797515.75649
   1600063.27706  22571274.38906   1248139.52347  22571269.51047
 -18607832.62507  20646643.53707 -14493788.64848  20646640.72548
  -1364106.93006  22979968.84206  -1056414.69147  22979967.17847
 08 11 15  1 46 59.9980000  0  9  3  6  7 13 16 19 23 25 27
 -17405386.28907  19290948.55307 -13534662.47749  19290946.91649
  -8324047.39507  20215321.38107  -6475020.62148  20215319.25648
 -11796287.07007  21496984.69307  -9189122.63348  21496982.01848
 -10057322.06606  22027048.63106  -7818921.37147  22027046.76447
   6618953.00406  21660051.16206   5154757.36348  21660047.46748
 -21227605.57407  19788964.76407 -16537548.68049  19788960.06149
   1675547.44506  22585638.30306   1306958.32047  22585633.68647
 -18663878.28107  20635978.11507 -14537460.60248  20635975.43648
  -1463100.66006  22961131.45106  -1133552.64847  22961129.63947
 08 11 15  1 47 29.9980000  0  9  3  6  7 13 16 19 23 25 27
 -17387728.94907  19294308.84207 -13520903.51649  19294306.74849
  -8285176.80907  20222718.21707  -6444731.87148  20222715.86548
 -11888976.93407  21479346.63107  -9261348.50048  21479344.31148
 -10011510.60206  22035766.65406  -7783224.17647  22035764.47547
   6666860.46506  21669166.99806   5192087.83248  21669164.65848
 -21272102.51607  19780497.38107 -16572221.61349  19780492.97149
   1751228.93006  22600039.84206   1365930.87547  22600034.51047
 -18719475.49607  20625398.52907 -14580783.10248  20625395.34248
  -1561911.28506  22942328.04506  -1210547.94547  22942326.81847
 08 11 15  1 47 59.9980000  0  9  3  6  7 13 16 19 23 25 27
 -17369653.82007  19297748.10707 -13506819.00049  19297745.82249
  -8246011.15207  20230171.45107  -6414213.18448  20230168.70548
 -11981336.02307  21461770.96707  -9333316.60548  21461768.64648
  -9965256.89806  22044568.02906  -7747182.34847  22044566.01047
   6714915.34406  21678311.68606   5229533.15648  21678309.16648
 -21316137.06307  19772118.19307 -16606534.24649  19772113.85749
   1827103.90606  22614478.22506   1425054.21546  22614472.78746
 -18774622.87507  20614904.06807 -14623755.09048  20614901.63148
  -1660536.89506  22923559.87306  -1287399.05147  22923558.31847
 08 11 15  1 48 29.9980000  0  9  3  6  7 13 16 19 23 25 27
 -17351169.71107  19301265.90407 -13492415.80149  19301263.48249
  -8206559.19507  20237678.65407  -6383471.40648  20237676.54948
 -12073368.77007  21444257.78707  -9405030.43048  21444254.91648
  -9918571.19906  22053452.57606  -7710803.91447  22053449.76047
   6763110.30506  21687482.86506   5267087.65648  21687480.22548
 -21359716.41807  19763824.90407 -16640492.19949  19763820.78749
   1903162.15205  22628951.62305   1484320.28546  22628946.51046
 -18829325.81607  20604494.81107 -14666380.77048  20604491.95148
  -1758982.30106  22904825.70106  -1364109.72747  22904825.18947
 08 11 15  1 48 59.9980000  0  9  3  6  7 13 16 19 23 25 27
 -17332275.64807  19304861.79507 -13477693.15649  19304859.43949
  -8166820.45707  20245240.76407  -6352506.16448  20245239.15848
 -12165070.40207  21426807.65407  -9476486.24648  21426804.93948
  -9871453.76206  22062418.54506  -7674089.02747  22062416.74847
   6811447.85506  21696681.65406   5304753.25048  21696678.03348
 -21402838.53107  19755619.30307 -16674093.83649  19755614.77549
   1979402.07005  22643459.17805   1543727.98047  22643456.05747
 -18883580.08607  20594170.37307 -14708656.81648  20594167.90448
  -1857242.97706  22886127.73206  -1440676.47747  22886126.45947
 08 11 15  1 49 29.9980000  0  9  3  6  7 13 16 19 23 25 27
 -17312963.16007  19308536.63107 -13462644.46949  19308534.31149
  -8126786.52007  20252858.71707  -6321310.89548  20252856.90448
 -12256428.00007  21409423.39607  -9547673.98048  21409420.18248
  -9823897.08206  22071468.41206  -7637031.89547  22071466.25247
   6859938.87506  21705909.00606   5342538.43848  21705905.83848
 -21445493.22307  19747502.36507 -16707331.25049  19747497.51449
   2055830.86305  22658003.27905   1603282.85547  22658000.16647
 -18937373.49207  20583933.78707 -14750573.76248  20583931.29148
  -1955306.14506  22867467.49006  -1517089.34047  22867464.75647
 08 11 15  1 49 59.9980000  0  9  3  6  7 13 16 19 23 25 27
 -17293243.34007  19312289.00607 -13447278.37149  19312286.52549
  -8086468.23007  20260531.58407  -6289894.05948  20260529.45148
 -12347447.90207  21392102.60007  -9618598.57448  21392099.67448
  -9775912.82406  22080599.02106  -7599641.60547  22080597.27547
   6908573.48006  21715163.51406   5380435.52048  21715160.71748
 -21487689.90607  19739472.63907 -16740211.78149  19739468.09249
   2132436.58205  22672580.67805   1662975.54347  22672578.15847
 -18990713.34407  20573783.48207 -14792137.28948  20573780.92848
  -2053178.76206  22848842.73206  -1593353.71147  22848841.09647
 08 11 15  1 50 29.9980000  0  9  3  6  7 13 16 19 23 25 27
 -17273117.23807  19316118.93607 -13431595.69549  19316116.58049
  -8045866.91007  20268257.63907  -6258256.66848  20268255.33848
 -12438126.78107  21374846.82607  -9689257.43448  21374844.26048
  -9727503.59406  22089811.49806  -7561920.15647  22089809.04147
   6957352.55106  21724446.00606   5418445.15648  21724443.02948
 -21529428.04307  19731530.16207 -16772735.01249  19731525.48649
   2209216.03106  22687191.77106   1722803.64547  22687187.61947
 -19043597.24607  20563719.90407 -14833345.52048  20563717.41248
  -2150857.97306  22830254.56106  -1669467.37947  22830252.34247
 08 11 15  1 50 59.9980000  0  9  3  6  7 13 16 19 23 25 27
 -17252584.32007  19320026.01407 -13415596.02049  19320024.16649
  -8004982.24207  20276037.63907  -6226398.50448  20276035.65848
 -12528460.23007  21357657.08407  -9759647.13748  21357653.51448
  -9678670.10206  22099104.68606  -7523868.10547  22099101.74447
   7006278.30906  21733755.63906   5456569.08248  21733753.97548
 -21570706.10507  19723675.15407 -16804899.72749  19723670.31849
   2286168.18806  22701835.99806   1782766.33647  22701831.61947
 -19096021.57007  20553743.76407 -14874195.65248  20553741.43248
  -2248339.24606  22811705.07606  -1745426.80547  22811702.66247
 08 11 15  1 51 29.9980000  0  9  3  6  7 13 16 19 23 25 27
 -17231646.56307  19324010.02107 -13399280.88349  19324008.37749
  -7963816.11707  20283871.37307  -6194321.00448  20283868.94748
 -12618445.57007  21340533.35007  -9829765.59048  21340530.54548
  -9629415.55106  22108476.81106  -7485487.96947  22108474.28747
   7055350.58606  21743095.11506   5494807.18048  21743091.16248
 -21611524.13307  19715907.69307 -16836705.97349  19715903.26449
   2363289.33606  22716511.59206   1842860.73047  22716507.00247
 -19147984.62507  20543855.49007 -14914686.34848  20543852.92848
  -2345620.55106  22793192.39606  -1821230.40647  22793190.89647
 08 11 15  1 51 59.9980000  0  9  3  6  7 13 16 19 23 25 27
 -17210305.40607  19328071.47507 -13382651.41049  19328069.09249
  -7922370.26607  20291758.35007  -6162025.55148  20291755.62748
 -12708080.05507  21323476.45107  -9899610.63348  21323473.80748
  -9579742.41806  22117929.60006  -7446781.67247  22117926.97547
   7104569.70306  21752461.07606   5533159.71548  21752458.03348
 -21651881.95707  19708227.70107 -16868153.62149  19708222.83049
   2440576.55106  22731219.13906   1903084.52047  22731214.93647
 -19199484.23407  20534055.29507 -14954815.91048  20534052.83048
  -2442699.11705  22774719.00605  -1896876.04347  22774717.69747
 08 11 15  1 52 29.9980000  0  9  3  6  7 13 16 19 23 25 27
 -17188566.94907  19332208.06807 -13365712.35949  19332205.88949
  -7880651.05507  20299697.28707  -6129517.08648  20299695.22148
 -12797365.59807  21306486.06807  -9969183.75048  21306483.38148
  -9529657.97706  22127460.18606  -7407754.86747  22127457.82647
   7153931.18406  21761854.09206   5571623.18448  21761851.02148
 -21691784.87107  19700634.43607 -16899246.80949  19700629.99049
   2518021.91006  22745956.35706   1963431.50847  22745952.23647
 -19250523.37107  20524343.02107 -14994586.67249  20524340.57649
  -2539577.38305  22756283.63905  -1972365.57047  22756281.32247
 08 11 15  1 52 59.9980000  0  9  3  6  7 13 16 19 23 25 27
 -17166434.46907  19336419.94307 -13348466.27749  19336417.72549
  -7838661.47307  20307687.52107  -6096797.93448  20307685.58448
 -12886300.59807  21289562.33407 -10038483.75448  21289559.84248
  -9479166.57806  22137068.77106  -7368410.95747  22137066.48647
   7203433.88306  21771274.26406   5610196.68848  21771271.24448
 -21731234.01607  19693127.51407 -16929986.39149  19693123.05349
   2595621.15606  22760723.32606   2023898.41047  22760718.81447
 -19301101.41007  20514718.18607 -15033998.12948  20514715.83448
  -2636254.28106  22737886.71706  -2047698.22347  22737884.97547
 08 11 15  1 53 29.9980000  0  9  3  6  7 13 16 19 23 25 27
 -17143902.04707  19340707.49007 -13330908.55549  19340705.43949
  -7796396.24607  20315729.83407  -6063864.00448  20315727.88148
 -12974875.82407  21272706.58407 -10107503.41448  21272703.33848
  -9428263.95706  22146754.86506  -7328746.57847  22146752.91647
   7253084.93006  21780721.99006   5648885.80148  21780719.41648
 -21770222.40607  19685708.55307 -16960366.95749  19685703.38149
   2673377.77706  22775519.26406   2084487.92247  22775514.58847
 -19351209.73007  20505182.99807 -15073043.57048  20505180.49848
  -2732720.42206  22719529.60006  -2122866.64147  22719527.75647
 08 11 15  1 53 59.9980000  0  9  3  6  7 13 16 19 23 25 27
 -17120967.75407  19345071.88107 -13313037.68849  19345069.38949
  -7753853.37907  20323825.73207  -6030713.73048  20323823.54148
 -13063084.55107  21255921.50607 -10176237.48848  21255918.15048
  -9376949.07406  22156519.56106  -7288760.97347  22156518.24447
   7302887.89506  21790199.43606   5687693.26248  21790197.18648
 -21808747.00407  19678377.88107 -16990386.12149  19678372.45949
   2751292.41806  22790345.70906   2145200.60947  22790341.59647
 -19400842.66807  20495738.27907 -15111718.59048  20495735.66248
  -2828969.54706  22701214.61506  -2197865.95347  22701212.03347
 08 11 15  1 54 29.9980000  0  9  3  6  7 13 16 19 23 25 27
 -17097644.05107  19349510.31807 -13294863.37949  19349507.78349
  -7711045.23407  20331971.87307  -5997356.75848  20331969.88548
 -13150934.40607  21239204.21707 -10244691.92248  21239200.78348
  -9325235.85206  22166360.56806  -7248465.00847  22166358.55347
   7352832.39506  21799703.17806   5726611.02347  21799701.11147
 -21846818.52007  19671132.56107 -17020052.23049  19671127.90049
   2829351.12906  22805199.98206   2206025.51247  22805196.74847
 -19450009.03507  20486382.48207 -15150030.05948  20486379.85048
  -2925010.10206  22682938.65406  -2272702.74247  22682937.22147
 08 11 15  1 54 59.9980000  0  9  3  6  7 13 16 19 23 25 27
 -17073933.07007  19354022.39607 -13276387.30149  19354020.20949
  -7667973.63307  20340168.32607  -5963794.47348  20340165.98648
 -13238423.39107  21222555.70107 -10312865.15248  21222552.36948
  -9273127.17606  22176275.74006  -7207860.87147  22176273.95547
   7402918.53506  21809234.83406   5765639.15247  21809232.02947
 -21884437.30907  19663974.03707 -17049365.57049  19663969.37749
   2907550.78506  22820081.53706   2266960.25447  22820077.10047
 -19498707.28107  20477115.54507 -15187976.74649  20477112.95549
  -3020839.70306  22664703.01406  -2347375.15647  22664700.82647
 08 11 15  1 55 29.9980000  0  9  3  6  7 13 16 19 23 25 27
 -17049828.79707  19358609.12307 -13257604.75849  19358606.99049
  -7624633.35207  20348415.64607  -5930022.84448  20348413.20548
 -13325541.50407  21205977.69307 -10380749.39548  21205974.62748
  -9220618.81606  22186268.17006  -7166945.29747  22186266.83847
   7453153.43006  21818793.71706   5804783.20747  21818790.82247
 -21921596.62507  19656902.88107 -17078320.87949  19656897.86949
   2985894.91406  22834989.66206   2328007.60547  22834985.75647
 -19546928.78107  20467939.04507 -15225551.93848  20467936.70148
  -3116448.79706  22646509.13906  -2421875.75047  22646506.95547
 08 11 15  1 55 59.9980000  0  9  3  6  7 13 16 19 23 25 27
 -17025333.04307  19363270.62307 -13238517.17249  19363268.31149
  -7581025.87507  20356713.70107  -5896042.99648  20356711.69348
 -13412286.09007  21189470.32607 -10448342.59048  21189467.48248
  -9167713.34806  22196336.22506  -7125720.30547  22196333.99847
   7503537.32006  21828381.97506   5844043.34847  21828379.43647
 -21958296.45707  19649919.00607 -17106918.15649  19649914.62349
   3064380.52006  22849924.96706   2389165.19147  22849920.15447
 -19594671.52007  20458854.24807 -15262754.07448  20458851.39648
  -3211834.85506  22628357.29506  -2496202.53947  22628355.42047
 08 11 15  1 56 29.9980000  0  9  3  6  7 13 16 19 23 25 27
 -17000447.07807  19368006.52907 -13219125.52049  19368004.11149
  -7537152.67207  20365062.60707  -5861856.09848  20365060.18948
 -13498654.02307  21173035.06807 -10515642.26648  21173032.16648
  -9114413.39506  22206479.31806  -7084187.90247  22206477.23647
   7554070.94506  21837997.59206   5883420.15647  21837995.36147
 -21994536.90207  19643022.79507 -17135157.45749  19643018.17049
   3143004.81306  22864886.88906   2450430.79347  22864882.74047
 -19641933.45707  20449860.60007 -15299581.55948  20449857.66648
  -3306995.30506  22610249.06806  -2570353.54347  22610246.69747
 08 11 15  1 56 59.9980000  0  9  3  6  7 13 16 19 23 25 27
 -16975173.66407  19372815.71707 -13199431.97349  19372813.54549
  -7493016.42607  20373461.31107  -5827464.23848  20373459.15448
 -13584643.53907  21156671.46707 -10582647.07048  21156669.27148
  -9060722.94906  22216695.79506  -7042351.22347  22216694.53747
   7604752.96106  21847642.11506   5922912.62547  21847639.84247
 -22030319.04707  19636213.62307 -17163039.66049  19636209.32249
   3221763.41805  22879873.81105   2511801.07447  22879870.16247
 -19688713.86307  20440958.15407 -15336033.82848  20440955.55748
  -3401928.46506  22592184.03706  -2644327.43447  22592181.47547
 08 11 15  1 57 29.9980000  0  9  3  6  7 13 16 19 23 25 27
 -16949517.39107  19377698.02907 -13179440.07449  19377695.43949
  -7448621.69507  20381909.27907  -5792870.96148  20381907.37348
 -13670254.72707  21140380.52907 -10649357.08648  21140377.52948
  -9006647.82806  22226985.39606  -7000214.78147  22226984.40847
   7655580.58206  21857314.95906   5962518.53147  21857312.31447
 -22065646.37107  19629491.12307 -17190567.44949  19629486.59649
   3300650.35206  22894885.26406   2573271.41847  22894882.48247
 -19735014.00807  20432147.74807 -15372111.87148  20432144.93648
  -3496635.05105  22574161.99005  -2718124.76247  22574159.78347
 08 11 15  1 57 59.9980000  0  9  3  6  7 13 16 19 23 25 27
 -16923481.37107  19382652.16207 -13159152.28149  19382650.18949
  -7403971.91007  20390406.00607  -5758078.93848  20390404.01848
 -13755486.91807  21124161.59207 -10715771.77748  21124158.16248
  -8952192.69906  22237348.69306  -6957782.26247  22237346.60447
   7706552.77706  21867014.38106   6002237.07847  21867011.22147
 -22100520.82807  19622854.63107 -17217742.35249  19622850.27949
   3379660.95706  22909919.75606   2634838.05947  22909917.23247
 -19780833.74607  20423428.66207 -15407815.57448  20423425.79148
  -3591114.22306  22556183.02106  -2791744.89547  22556181.44347
 08 11 15  1 58 29.9980000  0  9  3  6  7 13 16 19 23 25 27
 -16897067.88707  19387678.63107 -13138570.35549  19387676.75649
  -7359069.20707  20398950.80307  -5723089.84048  20398948.96348
 -13840337.69907  21108015.18607 -10781889.27048  21108011.20548
  -8897360.85206  22247782.10706  -6915056.17647  22247780.74447
   7757668.95306  21876742.35706   6042067.83647  21876738.33847
 -22134943.35207  19616304.37307 -17244565.09449  19616299.90049
   3458791.34006  22924979.56106   2696498.05947  22924975.65847
 -19826171.98407  20414800.98207 -15443144.07448  20414798.15448
  -3685363.98805  22538247.10005  -2865186.25047  22538245.70947
 08 11 15  1 58 59.9980000  0  9  3  6  7 13 16 19 23 25 27
 -16870277.91007  19392776.87307 -13117695.06349  19392774.41249
  -7313914.52007  20407543.29507  -5687904.39148  20407541.35048
 -13924803.79307  21091941.36507 -10847707.00848  21091938.58048
  -8842154.42206  22258288.52906  -6872038.22347  22258286.06847
   7808930.21106  21886496.68606   6082011.66447  21886492.96747
 -22168913.30507  19609839.86507 -17271035.19149  19609835.45149
   3538039.27306  22940058.88106   2758249.66447  22940055.36547
 -19871026.29307  20406265.73207 -15478095.49248  20406263.32648
  -3779381.01605  22520357.16205  -2938446.26647  22520355.29147
 08 11 15  1 59 29.9980000  0  9  3  6  7 13 16 19 23 25 27
 -16843109.83207  19397946.77907 -13096525.14149  19397944.29949
  -7268506.36307  20416184.48207  -5652521.42648  20416183.01448
 -14008879.32407  21075942.48207 -10913220.38348  21075939.45548
  -8786573.33606  22268865.52106  -6828728.28547  22268862.49447
   7860339.57806  21896279.65406   6122070.89147  21896276.42047
 -22202428.20707  19603462.23207 -17297150.68849  19603457.69349
   3617404.65606  22955162.13106   2820092.76247  22955158.75647
 -19915391.81607  20397823.22507 -15512666.03548  20397820.63148
  -3873159.93805  22502511.55305  -3011520.73447  22502509.29547
 08 11 15  1 59 59.9980000  0  9  3  6  7 13 16 19 23 25 27
 -16815566.67607  19403188.30307 -13075062.96149  19403185.88149
  -7222848.14507  20424872.66207  -5616943.60948  20424871.22948
 -14092563.23007  21060018.27907 -10978428.62148  21060015.72148
  -8730622.03905  22279512.05305  -6785129.90247  22279510.49447
   7911895.52706  21906090.14606   6162244.34447  21906087.54547
 -22235489.44107  19597170.97507 -17322912.69149  19597166.22149
   3696882.64806  22970286.00606   2882023.61747  22970282.32247
 -19959268.72707  20389473.38107 -15546855.84448  20389470.75648
  -3966699.91406  22484711.40406  -3084409.04347  22484709.98247
 08 11 15  2  0 29.9980000  0  9  3  6  7 13 16 19 23 25 27
 -16787644.97307  19408501.15407 -13053305.78949  19408499.11949
  -7176935.78507  20433609.40407  -5581167.76248  20433607.51848
 -14175847.12507  21044169.78707 -11043325.15648  21044166.70948
  -8674298.15206  22290229.70106  -6741241.17647  22290227.77947
   7963604.00806  21915929.90406   6202536.63347  21915927.21347
 -22268092.09407  19590966.77907 -17348317.35549  19590962.83049
   3776475.68006  22985432.69306   2944044.12547  22985428.93247
 -20002649.54307  20381218.38907 -15580659.07448  20381215.57248
  -4059992.65606  22466958.11506  -3157104.68047  22466956.47147
 08 11 15  2  0 59.9980000  0  9  3  6  7 13 16 19 23 25 27
 -16759352.51607  19413884.93607 -13031259.73049  19413882.84249
  -7130777.35507  20442393.60707  -5545200.17248  20442391.26048
 -14258734.67607  21028396.42007 -11107912.86348  21028393.73248
  -8617610.59406  22301017.49806  -6697069.08647  22301014.84247
   8015458.79706  21925797.44306   6242942.95347  21925795.19347
 -22300243.00407  19584848.99007 -17373370.01649  19584844.69749
   3856174.54706  23000598.83406   3006147.09047  23000594.68247
 -20045539.13307  20373056.77107 -15614079.54748  20373054.24048
  -4153042.01206  22449251.67006  -3229610.66847  22449249.66647
 08 11 15  2  1 29.9980000  0  9  3  6  7 13 16 19 23 25 27
 -16730694.84407  19419338.74007 -13008929.09449  19419335.70549
  -7084378.06307  20451222.74007  -5509044.90248  20451220.56848
 -14341226.95307  21012698.86507 -11172192.55948  21012696.03748
  -8560566.02706  22311873.02106  -6652618.79347  22311870.42847
   8067456.44906  21935692.45906   6283460.57447  21935690.08047
 -22331946.36707  19578815.92007 -17398073.93849  19578811.26049
   3935972.24606  23015783.89606   3068327.05147  23015780.47947
 -20087939.44107  20364988.26407 -15647118.75448  20364985.43948
  -4245849.30506  22431591.66206  -3301928.02347  22431588.72947
 08 11 15  2  1 59.9970000  0  9  3  6  7 13 16 19 23 25 27
 -16701665.49207  19424862.44607 -12986308.81649  19424860.76349
  -7037732.47307  20460099.57107  -5472697.71148  20460097.25548
 -14423309.85207  20997079.16507 -11236153.25848  20997075.60348
  -8503160.87106  22322797.30606  -6607887.52747  22322793.93847
   8119604.00006  21945615.59506   6324095.00447  21945612.38447
 -22363192.31607  19572869.87607 -17422421.43449  19572865.20449
   4015871.66005  23030987.29005   3130586.23847  23030985.41947
 -20129838.80507  20357015.30607 -15679767.61348  20357012.15348
  -4338400.32406  22413979.25906  -3374045.70347  22413976.99347
 08 11 15  2  2 29.9970000  0  9  3  6  7 13 16 19 23 25 27
 -16672275.46507  19430455.57907 -12963407.50849  19430453.56049
  -6990850.39807  20469020.62607  -5436166.23848  20469018.41148
 -14504997.12107  20981534.34507 -11299805.66848  20981531.29848
  -8445405.12506  22333786.63406  -6562883.06647  22333784.25947
   8171894.46506  21955566.19606   6364840.78547  21955563.12647
 -22393994.69107  19567008.48507 -17446423.28949  19567004.01749
   4095864.12904  23046210.31304   3192917.92647  23046207.52447
 -20171249.49207  20349134.97007 -15712035.68448  20349131.98548
  -4430709.59406  22396413.09506  -3445974.99647  22396411.42347
 08 11 15  2  2 59.9970000  0  9  3  6  7 13 16 19 23 25 27
 -16642520.46107  19436117.49307 -12940221.80549  19436115.12249
  -6943728.02307  20477987.49307  -5399447.52048  20477985.48148
 -14586276.89507  20966067.25907 -11363140.54748  20966064.48148
  -8387297.23006  22344844.06306  -6517604.22347  22344841.75547
   8224332.37906  21965544.56306   6405701.46547  21965541.38447
 -22424346.28907  19561232.86007 -17470073.89149  19561228.66549
   4175950.12105  23061450.34505   3255322.52347  23061446.83347
 -20212161.98807  20341349.87607 -15743915.56648  20341347.08748
  -4522765.07806  22378895.44606  -3517706.52347  22378894.17347
 08 11 15  2  3 29.9970000  0  9  3  6  7 13 16 19 23 25 27
 -16612400.71907  19441848.92307 -12916751.86749  19441847.09949
  -6896365.44507  20487000.44607  -5362541.63348  20486998.39948
 -14667144.84807  20950678.65707 -11426154.54348  20950675.56348
  -8328838.43806  22355968.04806  -6472051.94947  22355966.58347
   8276919.72706  21975552.07106   6446678.57847  21975548.61447
 -22454246.25807  19555542.99307 -17493372.56349  19555538.15749
   4256128.39505  23076707.18105   3317799.05147  23076704.25147
 -20252573.09807  20333659.72007 -15775404.73048  20333656.90348
  -4614562.80106  22361427.53206  -3589237.21147  22361425.33747
 08 11 15  2  3 59.9970000  0  9  3  6  7 13 16 19 23 25 27
 -16581926.82407  19447648.04807 -12893005.98449  19447646.30249
  -6848773.01207  20496056.84507  -5325456.64148  20496055.06048
 -14747606.56607  20935367.00107 -11488851.99248  20935364.43548
  -8270040.33206  22367157.79006  -6426235.26647  22367156.54047
   8329648.25806  21985586.06306   6487765.69947  21985582.57947
 -22483703.03507  19549937.64207 -17516325.90649  19549932.85349
   4336387.38305  23091979.89905   3380338.45347  23091977.37247
 -20292489.71107  20326063.80607 -15806508.60248  20326061.22048
  -4706108.70706  22344006.25906  -3660571.68447  22344005.62647
 08 11 15  2  4 29.9970000  0  9  3  6  7 13 16 19 23 25 27
 -16551099.07407  19453514.48507 -12868984.37149  19453512.08349
  -6800951.20707  20505157.39907  -5288192.90648  20505155.39948
 -14827659.07007  20920133.56307 -11551230.55948  20920131.29048
  -8210904.83606  22378411.09506  -6380155.71147  22378408.65347
   8382518.93406  21995647.12606   6528963.59047  21995643.88047
 -22512716.35207  19544416.68807 -17538933.68849  19544411.97049
   4416724.98005  23107268.02405   3442939.10946  23107264.12246
 -20331909.36307  20318562.63407 -15837225.20748  20318559.62248
  -4797399.25806  22326634.18806  -3731707.18047  22326632.70447
 08 11 15  2  4 59.9970000  0  9  3  6  7 13 16 19 23 25 27
 -16519909.77007  19459449.43107 -12844681.02349  19459447.64649
  -6752892.37907  20514302.86007  -5250744.50048  20514300.80248
 -14907289.69507  20904980.64907 -11613280.39548  20904977.71648
  -8151425.69506  22389730.22006  -6333808.34847  22389727.51347
   8435541.60206  22005737.11806   6570279.90247  22005734.29447
 -22541277.53907  19538981.62607 -17561189.15649  19538977.32549
   4497147.32805  23122570.99305   3505605.85946  23122568.80246
 -20370821.21507  20311157.90707 -15867546.15248  20311154.79048
  -4888422.60506  22309313.27406  -3802634.45747  22309311.78647
 08 11 15  2  5 29.9970000  0  9  3  6  7 13 16 19 23 25 27
 -16488368.25407  19465451.79807 -12820103.22348  19465450.17748
  -6704605.50007  20523491.39207  -5213118.36748  20523489.47048
 -14986503.29307  20889906.83707 -11675005.28148  20889904.40748
  -8091613.48406  22401111.80606  -6287201.48447  22401109.25147
   8488708.68406  22015853.77406   6611708.78547  22015851.48147
 -22569393.91807  19533630.92307 -17583098.02049  19533626.73149
   4577643.75405  23137890.05605   3568330.37146  23137885.84946
 -20409231.22307  20303848.71207 -15897476.02748  20303846.31348
  -4979183.87106  22292041.79806  -3873357.50047  22292039.97047
 08 11 15  2  5 59.9970000  0  9  3  6  7 13 16 19 23 25 27
 -16456473.87507  19471521.12607 -12795250.47749  19471518.64649
  -6656090.06607  20532723.39907  -5175314.14848  20532721.88448
 -15065295.39107  20874912.73507 -11736401.72748  20874910.43848
  -8031468.66005  22412556.88405  -6240335.41847  22412554.98147
   8542022.68406  22026000.19606   6653252.13347  22025997.17347
 -22597064.19907  19528365.58707 -17604659.28149  19528360.91549
   4658213.67206  23153222.19606   3631112.10246  23153218.35346
 -20447135.74607  20296635.51707 -15927012.03149  20296632.77849
  -5069678.25806  22274821.74306  -3943872.59847  22274819.29047
 08 11 15  2  6 29.9970000  0  8  3  6  7 13 16 19 25 27
 -16424228.97307  19477656.75107 -12770124.58248  19477655.00948
  -6607348.40207  20541998.91507  -5137333.63748  20541996.73148
 -15143663.90207  20860000.05607 -11797468.09048  20859997.23548
  -7970995.41006  22424064.01706  -6193213.43047  22424062.66147
   8595483.02306  22036173.12606   6694909.50047  22036170.29447
 -22624289.74207  19523185.05607 -17625873.98849  19523180.54449
 -20484534.10207  20289519.06307 -15956153.60548  20289516.60648
  -5159904.04306  22257652.25106  -4014178.38747  22257650.66947
 08 11 15  2  6 59.9970000  0  8  3  6  7 13 16 19 25 27
 -16391631.84407  19483859.88407 -12744724.23449  19483857.37249
  -6558378.64107  20551317.38407  -5099175.39848  20551315.39248
 -15221602.79707  20845168.81307 -11858199.69548  20845165.73548
  -7910193.16406  22435634.51706  -6145835.09047  22435632.93847
   8649093.25406  22046374.12606   6736683.68447  22046372.14247
 -22651067.52707  19518089.24307 -17646739.79749  19518084.62649
 -20521421.29707  20282499.63407 -15984896.87949  20282496.78249
  -5249855.38306  22240535.02406  -4084270.34047  22240532.57947
 08 11 15  2  7 29.9970000  0  8  3  6  7 13 16 19 25 27
 -16358686.84807  19490129.36807 -12719052.82449  19490127.14649
  -6509185.13707  20560678.60307  -5060842.80948  20560676.68148
 -15299112.35507  20830419.29007 -11918596.75048  20830416.56348
  -7849067.63706  22447266.56306  -6098204.85547  22447264.81347
   8702850.84806  22056604.36006   6778572.68447  22056601.63447
 -22677400.75807  19513078.13407 -17667259.19549  19513073.60649
 -20557798.84807  20275577.28207 -16013243.02348  20275574.48148
  -5339532.52706  22223470.18806  -4154148.62948  22223467.70448
 08 11 15  2  7 59.9970000  0  8  3  6  7 13 16 19 25 27
 -16325388.07007  19496465.72807 -12693105.73049  19496463.57949
  -6459761.83207  20570083.51707  -5022331.15648  20570081.93848
 -15376182.12507  20815753.44607 -11978651.12948  20815750.82548
  -7787614.45706  22458960.88406  -6050319.30547  22458958.54847
   8756763.93806  22066863.26706   6820582.84447  22066860.84147
 -22703282.43007  19508152.94607 -17687426.71949  19508148.39649
 -20593657.51607  20268753.42307 -16041184.84849  20268750.70449
  -5428925.27306  22206459.23506  -4223805.31348  22206456.66948
 08 11 15  2  8 29.9970000  0  8  3  6  7 13 16 19 25 27
 -16291734.93007  19502870.04807 -12666882.50848  19502867.64648
  -6410108.33207  20579532.56307  -4983640.13748  20579530.63048
 -15452807.53907  20801172.32107 -12038359.23448  20801169.62248
  -7725834.28506  22470717.57906  -6002178.96147  22470715.06047
   8810834.18406  22077153.18806   6862715.48047  22077150.14947
 -22728711.16007  19503314.05607 -17707241.31349  19503309.47449
 -20628993.84007  20262029.29807 -16068719.64848  20262026.97848
  -5518028.84006  22189502.68106  -4293236.63748  22189501.13848
 08 11 15  2  8 59.9970000  0  8  3  6  7 13 16 19 25 27
 -16257733.25407  19509340.34507 -12640387.70749  19509338.16149
  -6360229.75407  20589023.81307  -4944773.71948  20589021.60648
 -15528989.53907  20786675.21207 -12097721.83648  20786672.13048
  -7663733.97306  22482534.59506  -5953789.14147  22482533.19647
   8865058.36706  22087470.39906   6904968.06347  22087468.93847
 -22753691.21507  19498560.70407 -17726706.28549  19498555.63049
 -20663810.23807  20255403.97007 -16095849.31649  20255401.23549
  -5606844.49606  22172602.27406  -4362443.64148  22172600.52148
 08 11 15  2  9 29.9970000  0  8  3  6  7 13 16 19 25 27
 -16223370.93807  19515879.18107 -12613611.88348  19515877.27448
  -6310114.29307  20598560.57907  -4905722.72748  20598558.37248
 -15604712.19507  20772265.88407 -12156726.50848  20772262.59948
  -7601303.31606  22494415.00906  -5905141.92647  22494413.59547
   8919450.32006  22097821.68106   6947351.35947  22097818.89947
 -22778209.52007  19493894.61007 -17745811.45749  19493890.41149
 -20698091.84007  20248880.50107 -16122562.26248  20248877.72048
  -5695356.32006  22155758.71206  -4431413.88748  22155756.92348
 08 11 15  2  9 59.9970000  0  8  3  6  7 13 16 19 25 27
 -16188664.21907  19522483.75107 -12586567.69149  19522481.51349
  -6259777.77007  20608139.29807  -4866499.48048  20608136.88848
 -15679987.25007  20757941.12607 -12215382.39848  20757938.09948
  -7538559.43406  22506354.73506  -5856250.62947  22506353.17347
   8973995.79706  22108201.50906   6989854.30147  22108198.95847
 -22802280.95707  19489314.43107 -17764568.42249  19489309.66549
 -20731851.55107  20242455.79807 -16148868.53949  20242453.79049
  -5783576.23406  22138971.73506  -4500156.67648  22138969.06748
 08 11 15  2 10 29.9970000  0  9  3  6  7 11 13 16 19 25 27
 -16153606.03107  19529154.89207 -12559249.63748  19529152.56348
  -6209213.60207  20617761.24307  -4827098.83648  20617758.85348
 -15754804.05907  20743704.07907 -12273681.20348  20743701.46248
   -201292.57015  23227464.63405   -148628.70356  23227463.77846
  -7475497.50406  22518354.93806  -5807111.50847  22518353.07947
   9028703.03906  22118611.77406   7032483.26647  22118609.34547
 -22825898.22307  19484820.11807 -17782971.49249  19484815.59549
 -20765080.03107  20236132.70407 -16174760.85548  20236130.23948
  -5871493.70306  22122241.22006  -4568663.79348  22122239.13448
 08 11 15  2 10 59.9970000  0  9  3  6  7 11 13 16 19 25 27
 -16118199.23007  19535892.97807 -12531659.92649  19535890.50949
  -6158424.28907  20627426.43107  -4787522.77048  20627424.15348
 -15829160.89507  20729554.36007 -12331621.59048  20729551.73948
   -326297.21906  23203677.47006   -246034.78146  23203675.88846
  -7412121.25406  22530415.04806  -5757727.45347  22530412.62247
   9083571.39506  22129053.07106   7075237.80147  22129050.32147
 -22849062.67607  19480411.99307 -17801021.70349  19480407.45449
 -20797776.72307  20229910.94607 -16200238.80549  20229908.42749
  -5959107.13706  22105568.64206  -4636933.98848  22105566.61448
 08 11 15  2 11 29.9970000  0  9  3  6  7 11 13 16 19 25 27
 -16082453.09807  19542694.94607 -12503805.80548  19542692.91148
  -6107418.78107  20637132.21207  -4747778.22748  20637130.12248
 -15903062.63307  20715491.39907 -12389207.37148  20715488.72448
   -451233.66806  23179902.84506   -343387.77046  23179900.98146
  -7348441.27306  22542533.25906  -5708106.72347  22542531.37647
   9138593.53506  22139523.38406   7118112.16847  22139520.54447
 -22871782.64807  19476088.46207 -17818725.58649  19476083.99349
 -20829947.82807  20223788.97807 -16225307.20349  20223786.72449
  -6046421.35507  22088953.56307  -4704971.04748  22088951.11048
 08 11 15  2 11 59.9970000  0  9  3  6  7 11 13 16 19 25 27
 -16046373.50407  19549560.73507 -12475691.85249  19549558.54449
  -6056202.88707  20646878.33707  -4707869.76248  20646876.64248
 -15976510.89807  20701514.75907 -12446439.78148  20701511.90348
   -576103.95706  23156141.03206   -440689.21146  23156137.51346
  -7284464.93405  22554707.22005  -5658255.09047  22554705.82947
   9193765.37106  22150021.61006   7161103.19547  22150019.57147
 -22894062.89107  19471848.72007 -17836086.81649  19471844.27449
 -20861596.47707  20217766.14907 -16249968.49249  20217763.92749
  -6133438.18006  22072394.58706  -4772776.35248  22072392.26748
 08 11 15  2 12 29.9970000  0  9  3  6  7 11 13 16 19 25 27
 -16009960.26607  19556489.54007 -12447317.91048  19556487.59948
  -6004776.63307  20656664.38407  -4667797.37948  20656662.75548
 -16049501.50007  20687624.99307 -12503315.56348  20687621.68148
   -700903.48406  23132392.43106   -537935.50846  23132389.59946
  -7220193.67605  22566937.38405  -5608173.63347  22566936.27847
   9249088.86306  22160550.16506   7204212.35547  22160547.86447
 -22915902.47307  19467692.63407 -17853104.66849  19467688.30249
 -20892719.56607  20211843.80607 -16274220.27049  20211841.34149
  -6220153.16006  22055893.29006  -4840346.45348  22055890.80648
 08 11 15  2 12 59.9970000  0  9  3  6  7 11 13 16 19 25 27
 -15973211.12907  19563483.00107 -12418682.22349  19563480.89249
  -5953137.22307  20666490.99307  -4627558.88748  20666489.37248
 -16122028.00807  20673823.68107 -12559829.73448  20673820.28248
   -825625.80906  23108658.54006   -635121.65246  23108656.19246
  -7155626.64805  22579223.89905  -5557861.70347  22579222.70447
   9304568.12106  22171107.86806   7247442.93047  22171105.29047
 -22937297.85907  19463620.96207 -17869776.39849  19463617.31049
 -20923311.94507  20206022.46207 -16298058.48049  20206019.88049
  -6306560.18806  22039450.68806  -4907676.60248  22039447.84548
 08 11 15  2 13 29.9970000  0  9  3  6  7 11 13 16 19 25 27
 -15936138.21907  19570537.50907 -12389794.25448  19570535.60348
  -5901296.93807  20676356.43807  -4587163.89148  20676354.43848
 -16194098.16007  20660109.11807 -12615988.28548  20660106.01748
   -950278.63706  23084937.33706   -732253.62546  23084935.83746
  -7090777.07805  22591564.41505  -5507329.62146  22591562.88446
   9360193.21906  22181692.72806   7290787.11747  22181690.63447
 -22958260.38707  19459631.96207 -17886110.83649  19459628.11049
 -20953382.72307  20200300.14207 -16321490.26249  20200297.20449
  -6392667.00806  22023065.57906  -4974772.82848  22023062.08748
 08 11 15  2 13 59.9970000  0  9  3  6  7 11 13 16 19 25 27
 -15898745.00807  19577653.45407 -12360656.70348  19577651.42348
  -5849259.00807  20686258.45407  -4546614.86748  20686256.80648
 -16265711.44507  20646481.57107 -12671790.84048  20646478.42748
  -1074861.07406  23061230.92306   -829330.74247  23061228.36047
  -7025650.25006  22603957.87606  -5456581.49646  22603955.14246
   9415962.29306  22192304.88406   7334243.54747  22192303.38847
 -22978792.20707  19455725.43807 -17902109.65649  19455720.91949
 -20982932.59807  20194676.82907 -16344516.14549  20194674.37649
  -6478472.92206  22006737.18106  -5041634.57848  22006734.39248
 08 11 15  2 14 29.9970000  0  9  3  6  7 11 13 16 19 25 27
 -15861021.46507  19584832.38407 -12331261.75048  19584829.77448
  -5797013.26207  20696200.57907  -4505903.91848  20696198.54048
 -16336854.09807  20632943.45407 -12727226.66448  20632940.22048
  -1199358.77306  23037539.82906   -926341.79746  23037536.95846
  -6960237.39106  22616405.82106  -5405610.46546  22616403.31346
   9471886.82006  22202947.64906   7377821.06647  22202945.30647
 -22998882.60507  19451902.16507 -17917764.52749  19451897.85649
 -21011948.78507  20189155.49307 -16367126.16449  20189152.75149
  -6563963.75406  21990468.79806  -5108250.80548  21990465.26348
 08 11 15  2 14 59.9970000  0  9  3  6  7 11 13 16 19 25 27
 -15822972.27007  19592072.64207 -12301613.03948  19592070.56048
  -5744564.23007  20706181.38407  -4465034.54348  20706179.38848
 -16407525.91007  20619495.00907 -12782295.60948  20619492.01348
  -1323772.35206  23013864.50906  -1023287.35246  23013861.17746
  -6894544.73006  22628906.24306  -5354421.40246  22628903.41146
   9527964.39806  22213618.80606   7421517.85247  22213615.67747
 -23018535.28907  19448162.66507 -17933078.30549  19448157.77149
 -21040432.89807  20183734.97807 -16389321.59049  20183732.69249
  -6649139.97706  21974260.22806  -5174621.89148  21974257.64948
 08 11 15  2 15 29.9970000  0  9  3  6  7 11 13 16 19 25 27
 -15784599.27007  19599374.68107 -12271712.01248  19599372.59148
  -5691913.57007  20716200.51707  -4424008.07848  20716198.83748
 -16477724.94507  20606136.72807 -12836996.15248  20606133.72048
  -1448099.30506  22990205.50906  -1120165.39546  22990202.82946
  -6828575.59406  22641460.36006  -5303016.91046  22641458.02146
   9584194.87906  22224318.94606   7465333.78547  22224316.30647
 -23037751.32407  19444505.80607 -17948051.84449  19444501.06349
 -21068384.30107  20178416.15707 -16411101.91049  20178413.41949
  -6733999.57006  21958111.38406  -5240746.25048  21958109.07948
 08 11 15  2 15 59.9970000  0  9  3  6  7 11 13 16 19 25 27
 -15745907.44507  19606737.48507 -12241562.55548  19606735.34948
  -5639066.18407  20726256.94607  -4382828.31348  20726254.78248
 -16547451.58607  20592867.88407 -12891328.59848  20592865.41948
  -1572340.27706  22966563.44606  -1216976.41446  22966559.93846
  -6762336.15606  22654065.02406  -5251401.78946  22654062.77446
   9640575.15606  22235047.04006   7509266.44547  22235045.31747
 -23056534.65607  19440931.12607 -17962688.20749  19440926.79049
 -21095805.02307  20173198.12607 -16432468.71149  20173195.47049
  -6818543.37506  21942023.61006  -5306624.52048  21942021.36048
 08 11 15  2 16 29.9970000  0  9  3  6  7 11 13 16 19 25 27
 -15706897.88707  19614160.98507 -12211165.50048  19614158.60348
  -5586022.64107  20736351.01707  -4341495.69548  20736348.57148
 -16616703.08207  20579690.16507 -12945290.80548  20579687.42748
  -1696491.78106  22942937.68106  -1313717.71146  22942934.64946
  -6695829.03106  22666721.39206  -5199578.11747  22666719.12247
   9697106.28506  22245805.22806   7553316.62547  22245802.07547
 -23074885.06307  19437439.02407 -17976987.23449  19437434.58749
 -21122693.12907  20168081.31307 -16453420.48449  20168078.89649
  -6902767.74606  21925996.10306  -5372253.88748  21925993.84148
 08 11 15  2 16 59.9970000  0  9  3  6  7 11 13 16 19 25 27
 -15667568.94107  19621644.63407 -12180519.59048  19621642.86848
  -5532781.60907  20746482.70407  -4300009.19948  20746479.98548
 -16685474.05107  20566603.29007 -12998878.56348  20566599.90348
  -1820548.41406  22919329.94606  -1410385.12547  22919327.66547
  -6629054.44106  22679428.39906  -5147545.98447  22679425.95847
   9753791.20706  22256591.78206   7597486.68447  22256588.99747
 -23092800.76607  19434030.28207 -17990947.52349  19434025.65349
 -21149044.67207  20163066.75907 -16473954.16049  20163064.61849
  -6986667.45706  21910030.30606  -5437630.27748  21910028.42348
 08 11 15  2 17 29.9970000  0  9  3  6  7 11 13 16 19 25 27
 -15627928.02007  19629188.25107 -12149630.56648  19629186.07548
  -5479349.95707  20756650.18107  -4258374.16048  20756648.02148
 -16753767.39507  20553607.53207 -13052094.16048  20553604.83748
  -1944512.71106  22895740.05606  -1506980.57047  22895737.58747
  -6562020.80506  22692184.60306  -5095312.00847  22692182.58747
   9810624.44106  22267406.67306   7641772.27747  22267403.78647
 -23110287.82007  19430702.33707 -18004573.80549  19430697.77449
 -21174864.08607  20158153.72007 -16494073.20349  20158151.04049
  -7070245.71906  21894125.65706  -5502756.18848  21894124.16548
 08 11 15  2 17 59.9970000  0  9  3  6  7 11 13 16 19 25 27
 -15587972.21907  19636791.72807 -12118496.19548  19636789.38848
  -5425724.89507  20766854.47007  -4216588.41448  20766852.88848
 -16821576.32807  20540704.00907 -13104932.30148  20540701.16948
  -2068377.71505  22872169.56305  -1603498.69147  22872166.50147
  -6494726.75406  22704990.13406  -5042875.13347  22704988.36447
   9867611.13306  22278251.28206   7686177.47747  22278247.61047
 -23127342.44507  19427457.01707 -18017863.12149  19427452.54849
 -21200145.76207  20153342.61807 -16513773.21549  20153340.14949
  -7153495.37506  21878284.41506  -5567626.04748  21878281.98948
 08 11 15  2 18 29.9970000  0  9  3  6  7 11 13 16 19 25 27
 -15547707.23007  19644453.73507 -12087120.87948  19644451.25948
  -5371911.68806  20777094.61806  -4174656.04748  20777093.06348
 -16888902.43807  20527892.39207 -13157394.20348  20527889.40348
  -2192144.78505  22848616.89205  -1699940.46547  22848614.57947
  -6427179.43006  22717844.16506  -4990240.88747  22717842.06347
   9924747.02306  22289123.69606   7730698.92647  22289121.26747
 -23143969.37108  19424293.06308 -18030819.16849  19424288.82549
 -21224892.64507  20148633.63407 -16533056.50449  20148630.66149
  -7236418.03506  21862505.05606  -5632241.10548  21862502.33348
 08 11 15  2 18 59.9970000  0  9  3  6  7 11 13 16 19 25 27
 -15507134.48807  19652174.43807 -12055505.76248  19652172.38848
  -5317911.97707  20787370.69607  -4132578.35948  20787368.80648
 -16955743.19507  20515173.12607 -13209477.91048  20515170.24348
  -2315811.37506  22825084.90706  -1796303.98447  22825081.97447
  -6359382.27706  22730744.96206  -4937411.99647  22730743.53647
   9982032.46906  22300024.14206   7775336.89547  22300022.59547
 -23160169.88307  19421210.02407 -18043442.94149  19421205.64649
 -21249103.96107  20144026.26707 -16551922.46949  20144023.99349
  -7319011.21906  21846787.59506  -5696599.43448  21846785.58348
 08 11 15  2 19 29.9970000  0  9  3  6  7 11 13 16 19 25 27
 -15466258.46107  19659953.22807 -12023654.32448  19659951.06048
  -5263729.54307  20797680.82107  -4090358.28948  20797679.34548
 -17022098.79307  20502545.97807 -13261183.57048  20502542.95848
  -2439377.07405  22801570.08705  -1892588.85947  22801569.31747
  -6291340.67206  22743692.65706  -4884392.60947  22743691.35347
  10039465.15206  22310953.50106   7820089.60947  22310951.94247
 -23175946.94107  19418207.94607 -18055736.75849  19418203.29449
 -21272781.01207  20139520.61807 -16570372.13349  20139518.00549
  -7401274.88306  21831133.29006  -5760700.99248  21831130.86848
 08 11 15  2 19 59.9970000  0  9  3  6  7 11 13 16 19 25 27
 -15425091.50407  19667786.85307 -11991576.18048  19667784.99748
  -5209376.55107  20808024.09507  -4048005.32048  20808021.86448
 -17087977.54307  20490009.38407 -13312517.67648  20490006.93148
  -2562849.92206  22778074.19606  -1988801.42247  22778072.54047
  -6223068.46105  22756684.35305  -4831193.52347  22756683.73947
  10097034.49206  22321908.93806   7864948.81347  22321906.93847
 -23191312.11308  19415284.22808 -18067709.62149  19415279.62249
 -21295933.59407  20135114.77407 -16588413.10549  20135112.61049
  -7483217.41806  21815540.22006  -5824552.29748  21815538.12648
 08 11 15  2 20 29.9970000  0  9  3  6  7 11 13 16 19 25 27
 -15383630.43807  19675676.54807 -11959268.87548  19675674.03648
  -5154850.18007  20818399.75907  -4005517.24648  20818398.07948
 -17153372.46907  20477565.26707 -13363474.75048  20477562.30648
  -2686222.98406  22754596.43106  -2084936.22747  22754595.28647
  -6154564.13305  22769720.89205  -4777813.56346  22769718.62646
  10154745.08606  22332890.72806   7909918.07447  22332888.59547
 -23206261.71107  19412439.15707 -18079358.66449  19412434.43549
 -21318556.12907  20130809.91507 -16606041.06349  20130807.44649
  -7564831.89806  21800009.44606  -5888147.99248  21800007.69248
 08 11 15  2 20 59.9970000  0  9  3  6  7 11 13 16 19 25 27
 -15341873.68007  19683622.66507 -11926731.14148  19683620.85648
  -5100148.24606  20828809.24306  -3962892.38348  20828807.84548
 -17218278.05107  20465214.54807 -13414050.53548  20465211.48548
  -2809490.30105  22731140.01705  -2180988.66847  22731137.82947
  -6085827.79305  22782800.19605  -4724252.83646  22782799.75546
  10212600.66406  22343901.35306   7955000.32847  22343898.74347
 -23220793.08607  19409674.09507 -18090681.80549  19409669.38849
 -21340644.57807  20126606.54807 -16623252.84849  20126604.13049
  -7646112.44906  21784541.70406  -5951483.46948  21784540.13848
 08 11 15  2 21 29.9970000  0  9  3  6  7 11 13 16 19 25 27
 -15299827.41407  19691623.90707 -11893967.83648  19691621.55248
  -5045277.01206  20839251.43106  -3920135.60248  20839249.29048
 -17282696.79307  20452955.83707 -13464246.95748  20452953.36048
  -2932653.67605  22707702.68805  -2276960.14147  22707701.20047
  -6016867.35505  22795923.47805  -4670517.48846  22795921.65746
  10270596.71506  22354936.99306   8000192.02747  22354935.18847
 -23234912.09807  19406987.39907 -18101683.64149  19406982.81349
 -21362202.66407  20122504.37607 -16640051.36349  20122501.47049
  -7727061.39506  21769138.18106  -6014560.56348  21769136.37248
 08 11 15  2 21 59.9970000  0  9  3  6  7 11 13 16 19 25 27
 -15257487.63307  19699680.82107 -11860975.79348  19699678.64948
  -4990231.74606  20849725.71206  -3877243.18448  20849724.41548
 -17346619.75807  20440791.53207 -13514057.05548  20440789.15348
  -3055704.24205  22684287.01705  -2372843.67246  22684285.84146
  -5947679.31305  22809088.78205  -4616604.80546  22809087.81746
  10328739.29706  22366001.68806   8045497.93447  22365998.28647
 -23248613.24607  19404380.13407 -18112359.85549  19404375.77449
 -21383223.18407  20118504.54807 -16656430.99249  20118501.69649
  -7807670.00806  21753798.72006  -6077372.47348  21753796.92348
 08 11 15  2 22 29.9970000  0  9  3  6  7 11 13 16 19 25 27
 -15214858.86707  19707792.94607 -11827758.59848  19707791.03648
  -4935016.93406  20860233.20406  -3834218.67648  20860231.06748
 -17410047.91407  20428721.74307 -13563481.59048  20428718.91548
  -3178642.64105  22660892.50905  -2468639.80547  22660890.73547
  -5878270.30105  22822297.38405  -4562519.89846  22822296.09146
  10387025.56306  22377092.98506   8090915.76247  22377090.09147
 -23261900.52007  19401851.44607 -18122713.58249  19401847.06749
 -21403708.58607  20114606.32907 -16672393.64849  20114603.27449
  -7887939.15206  21738524.05606  -6139919.84848  21738522.32148
 08 11 15  2 22 59.9970000  0  9  3  6  7 11 13 16 19 25 27
 -15171940.35907  19715960.00907 -11794315.61348  19715957.54848
  -4879631.76606  20870772.57106  -3791061.43048  20870770.72448
 -17472976.84407  20416746.88407 -13612517.12148  20416743.69648
  -3301463.97305  22637520.28205  -2564344.69547  22637518.91947
  -5808640.95705  22835547.81305  -4508263.31346  22835545.93846
  10445457.76206  22388212.57106   8136447.30947  22388209.15747
 -23274772.66407  19399401.96207 -18132743.83249  19399397.73149
 -21423655.66407  20110810.37607 -16687936.83249  20110807.26349
  -7967863.87906  21723314.71206  -6202198.85248  21723313.44648
 08 11 15  2 23 29.9970000  0  9  3  6  7 11 13 16 19 25 27
 -15128735.90207  19724181.69607 -11760649.82048  19724179.57948
  -4824079.96507  20881343.84507  -3747774.33648  20881341.64948
 -17535406.57007  20404866.66507 -13661163.66448  20404863.69248
  -3424167.65205  22614171.68105  -2659957.91446  22614168.97446
  -5738796.84405  22848838.42305  -4453839.35947  22848836.94247
  10504033.67606  22399359.03206   8182090.84447  22399356.23947
 -23287232.99607  19397030.97007 -18142453.19149  19397026.64949
 -21443065.87107  20107116.80607 -16703061.67649  20107113.94249
  -8047444.14106  21708171.36006  -6264209.44148  21708169.51348
 08 11 15  2 23 59.9970000  0  9  3  6  7 11 13 16 19 25 27
 -15085246.15607  19732457.51707 -11726761.71148  19732454.98548
  -4768361.85207  20891946.32907  -3704357.63348  20891944.69648
 -17597333.69107  20393081.91507 -13709418.55948  20393079.74348
  -3546749.84405  22590844.49305  -2755476.48846  22590841.20846
  -5668739.93406  22862170.18806  -4399249.60247  22862169.41147
  10562754.94106  22410533.13406   8227847.64147  22410530.72847
 -23299281.07007  19394738.26707 -18151841.29749  19394733.87649
 -21461937.39507  20103525.36007 -16717766.75449  20103522.52449
  -8126676.39806  21693093.82906  -6325948.86348  21693091.90348
 08 11 15  2 24 29.9970000  0 10  3  6  7  8 11 13 16 19 25 27
 -15041474.71907  19740786.64207 -11692654.11348  19740784.79848
  -4712480.45307  20902580.32107  -3660813.71148  20902578.79448
 -17658757.38707  20381393.87607 -13757281.17648  20381391.20848
   -192230.23014  23355386.75104   -141873.96956  23355386.03246
  -3669209.69905  22567540.78205  -2850899.73847  22567538.61047
  -5598475.13706  22875541.00906  -4344497.86347  22875539.66547
  10621619.93406  22421734.44606   8273716.42247  22421731.54047
 -23310919.80507  19392523.47807 -18160910.44149  19392518.90349
 -21480271.02707  20100036.90707 -16732052.71949  20100034.10349
  -8205559.90606  21678082.36006  -6387416.53148  21678080.79048
 08 11 15  2 24 59.9970000  0 10  3  6  7  8 11 13 16 19 25 27
 -14997422.64807  19749169.45407 -11658327.84448  19749167.42348
  -4656436.73007  20913245.15707  -3617143.29748  20913243.11448
 -17719675.03107  20369801.25107 -13804749.46948  20369798.83748
   -311535.39504  23332684.45404   -234839.02746  23332683.64946
  -3791544.09806  22544262.00106  -2946225.21147  22544259.27847
  -5528005.18005  22888951.75905  -4289586.21546  22888949.25546
  10680629.20306  22432963.54806   8319697.67647  22432960.82547
 -23322149.14107  19390386.66507 -18169660.57849  19390382.23549
 -21498065.53907  20096650.57107 -16745918.57849  20096648.25149
  -8284091.83606  21663138.94606  -6448610.23448  21663136.99348
 08 11 15  2 25 29.9970000  0 10  3  6  7  8 11 13 16 19 25 27
 -14953091.99207  19757605.73507 -11623784.49248  19757603.48148
  -4600232.33607  20923941.14207  -3573347.68848  20923938.55648
 -17780084.82007  20358306.02407 -13851822.03148  20358303.31048
   -430675.40603  23310012.09503   -327675.37946  23310011.96246
  -3913750.62905  22521006.21205  -3041451.06347  22521004.20047
  -5457333.52706  22902400.18806  -4234517.47347  22902398.57947
  10739782.59806  22444220.19606   8365791.18447  22444217.76347
 -23332970.51207  19388327.21207 -18178092.81649  19388323.05249
 -21515320.61707  20093367.09507 -16759364.09449  20093364.82149
  -8362270.08606  21648261.82906  -6509528.34048  21648260.49348
 08 11 15  2 25 59.9970000  0 10  3  6  7  8 11 13 16 19 25 27
 -14908483.28107  19766094.24307 -11589024.46548  19766092.31348
  -4543867.98407  20934666.82107  -3529427.43048  20934664.51748
 -17839983.86307  20346907.39207 -13898496.61348  20346904.42348
   -549646.16804  23287373.05604   -420379.82846  23287373.38846
  -4035825.88305  22497775.06305  -3136574.59847  22497774.18147
  -5386462.61706  22915885.31306  -4179293.43447  22915884.84147
  10799081.06306  22455504.19606   8411997.73047  22455502.00947
 -23343384.19907  19386345.95407 -18186207.37949  19386341.48949
 -21532034.69107  20090186.38407 -16772388.05949  20090184.06749
  -8440091.42206  21633453.00106  -6570168.33648  21633451.38448
 08 11 15  2 26 29.9970000  0 10  3  6  7  8 11 13 16 19 25 27
 -14863593.96507  19774636.47007 -11554045.80548  19774634.27148
  -4487341.03907  20945422.94607  -3485380.49648  20945421.45048
 -17899366.05907  20335607.09507 -13944768.44948  20335604.59148
   -668441.31305  23264768.04005   -512947.48046  23264766.94246
  -4157763.34005  22474571.65705  -3231590.75447  22474570.30247
  -5315391.60206  22929410.66506  -4123913.48047  22929409.78247
  10858528.47706  22466816.77406   8458320.37147  22466814.81347
 -23353387.45307  19384442.22007 -18194002.12549  19384437.56049
 -21548203.18007  20087109.77407 -16784986.88749  20087107.50149
  -8517549.58206  21618713.65706  -6630525.34848  21618711.52848
 08 11 15  2 26 59.9970000  0 10  3  6  7  8 11 13 16 19 25 27
 -14818419.74607  19783232.91507 -11518845.12948  19783230.79848
  -4430646.66007  20956211.93107  -3441203.07848  20956209.96648
 -17958222.83207  20324406.98507 -13990630.85548  20324404.57948
   -787051.12505  23242196.66505   -605370.68846  23242196.68846
  -4279554.25405  22451395.90705  -3326492.67647  22451393.99347
  -5244117.37906  22942973.48506  -4068375.19147  22942972.71647
  10918131.29306  22478158.65706   8504764.06647  22478156.27847
 -23362974.86707  19382618.16507 -18201472.82849  19382613.40349
 -21563819.13707  20084138.04807 -16797155.17649  20084136.09149
  -8594636.21506  21604044.25906  -6690592.84448  21604042.29048
 08 11 15  2 27 29.9970000  0 10  3  6  7  8 11 13 16 19 25 27
 -14772963.44107  19791882.84507 -11483424.64848  19791880.93548
  -4373787.56607  20967032.11007  -3396897.32448  20967029.45448
 -18016553.50007  20313307.49307 -14036083.32848  20313304.52448
   -905473.97305  23219662.02405   -697648.20346  23219660.73546
  -4401196.83205  22428248.40705  -3421279.07847  22428246.32947
  -5172644.32406  22956574.79806  -4012681.92647  22956573.00147
  10977888.56606  22489531.37606   8551328.12947  22489528.00547
 -23372148.64507  19380872.39907 -18208621.23849  19380867.59549
 -21578883.24607  20081271.66507 -16808893.45349  20081269.49749
  -8671349.92606  21589446.36806  -6750369.76248  21589443.89248
 08 11 15  2 27 59.9970000  0 10  3  6  7  8 11 13 16 19 25 27
 -14727223.54307  19800586.86007 -11447783.18048  19800585.11848
  -4316761.65607  20977883.68107  -3352461.56648  20977881.39948
 -18074352.25007  20302309.10307 -14081121.31348  20302306.08348
  -1023703.59005  23197163.94605   -789775.16846  23197162.35346
  -4522685.08606  22405129.39906  -3515945.19947  22405127.61447
  -5100972.28105  22970212.57105  -3956833.63746  22970211.22446
  11037803.60506  22500932.23506   8598015.14547  22500929.74747
 -23380906.15207  19379206.07107 -18215445.26249  19379201.47449
 -21593391.46907  20078510.82107 -16820198.56649  20078508.30249
  -8747684.71506  21574920.04806  -6809851.39848  21574917.63848
 08 11 15  2 28 29.9970000  0 10  3  6  7  8 11 13 16 19 25 27
 -14681204.98007  19809343.79807 -11411924.58248  19809342.03648
  -4259573.57807  20988765.94607  -3307899.43448  20988763.36048
 -18131620.30507  20291410.83707 -14125745.77048  20291408.29848
  -1141740.35505  23174702.56305   -881751.84446  23174700.79446
  -4644019.89806  22382040.61006  -3610491.79747  22382038.04447
  -5029107.66806  22983888.79006  -3900835.28146  22983887.51746
  11097872.91006  22512362.86806   8644822.34047  22512360.69247
 -23389252.14807  19377617.32107 -18221948.63749  19377613.16149
 -21607346.49607  20075855.25107 -16831072.62949  20075852.58349
  -8823641.87106  21560465.85306  -6869038.80148  21560463.50948
 08 11 15  2 28 59.9970000  0 10  3  6  7  8 11 13 16 19 25 27
 -14634908.34807  19818154.12607 -11375849.29348  19818151.57948
  -4202223.90207  20999678.71207  -3263211.39848  20999677.15748
 -18188355.00407  20280614.75107 -14169954.63348  20280611.87248
  -1259580.16405  23152278.17305   -973575.04747  23152276.81347
  -4765197.57806  22358981.21206  -3704915.96947  22358978.20047
  -4957052.96906  22997600.82106  -3844688.84446  22997598.45446
  11158097.78106  22523823.29806   8691750.78947  22523820.75147
 -23397186.57407  19376107.49307 -18228131.30549  19376103.08749
 -21620746.94907  20073305.42307 -16841514.55149  20073303.09149
  -8899218.25406  21546084.82106  -6927929.49248  21546081.70848
 08 11 15  2 29 29.9970000  0 10  3  6  7  8 11 13 16 19 25 27
 -14588334.86707  19827016.45407 -11339558.29348  19827014.62648
  -4144713.64106  21010623.36006  -3218398.22748  21010621.08348
 -18244553.79707  20269920.60307 -14213745.89148  20269917.23148
  -1377219.80106  23129892.60306  -1065242.29747  23129889.70047
  -4886215.23006  22335952.00106  -3799215.37947  22335949.41547
  -4884811.05506  23011347.22806  -3788396.49646  23011345.45446
  11218478.64105  22535313.07905   8738800.77347  22535310.42347
 -23404710.31607  19374675.82107 -18233993.96949  19374671.57949
 -21633592.08207  20070860.82107 -16851523.74649  20070857.93849
  -8974411.34806  21531775.62606  -6986521.50048  21531772.97848
 08 11 15  2 29 59.9970000  0 10  3  6  7  8 11 13 16 19 25 27
 -14541486.65607  19835931.47007 -11303053.21148  19835929.04048
  -4087044.55106  21021597.02406  -3173461.28148  21021595.33748
 -18300215.05907  20259328.36807 -14257118.31348  20259325.46648
  -1494656.84006  23107545.44606  -1156751.65247  23107542.93147
  -5007070.22306  22312954.17306  -3893388.06347  22312952.00547
  -4812385.50805  23025129.54805  -3731961.09446  23025128.22846
  11279015.37505  22546832.69605   8785972.20747  22546830.11847
 -23411824.48007  19373322.02407 -18239537.46949  19373317.86849
 -21645881.58207  20068522.07907 -16861099.98449  20068519.94649
  -9049218.87906  21517540.04006  -7044813.07848  21517537.81348
 08 11 15  2 30 29.9970000  0 10  3  6  7  8 11 13 16 19 25 27
 -14494373.64507  19844896.82107 -11266341.78948  19844894.43148
  -4029226.59006  21032599.71206  -3128408.34848  21032597.45448
 -18355345.08607  20248837.80607 -14300076.77348  20248834.50148
  -1611896.82806  23085234.76706  -1248107.44947  23085233.11847
  -5127769.42206  22289985.98506  -3987439.33247  22289983.12247
  -4739787.84005  23038944.32905  -3675391.49646  23038943.49746
  11339699.37506  22558380.85306   8833258.39847  22558378.40347
 -23418539.09808  19372044.50908 -18244769.63749  19372039.85649
 -21657623.56607  20066287.67307 -16870249.59449  20066285.19249
  -9123647.19106  21503377.18106  -7102809.16448  21503374.20848
 08 11 15  2 30 59.9970000  0 10  3  6  7  8 11 13 16 19 25 27
 -14446995.53907  19853912.50107 -11229423.79348  19853910.54448
  -3971258.85207  21043630.86807  -3083238.69148  21043628.60648
 -18409939.95707  20238448.38407 -14342618.23048  20238445.06048
  -1728934.40206  23062963.18106  -1339305.51247  23062961.61047
  -5248307.41006  22267048.40706  -4081365.01247  22267045.15747
  -4667018.97705  23052791.57905  -3618688.54746  23052791.65346
  11400532.69906  22569957.02406   8880660.95347  22569954.20847
 -23424852.73807  19370842.81307 -18249689.35949  19370838.05649
 -21668815.62107  20064157.85307 -16878970.67649  20064155.39649
  -9197691.61706  21489286.87606  -7160506.10948  21489284.06748
 08 11 15  2 31 29.9970000  0 10  3  6  7  8 11 13 16 19 25 27
 -14399357.47707  19862977.59507 -11192303.24248  19862976.07548
  -3913146.19107  21054689.33707  -3037956.12548  21054686.90748
 -18464001.00407  20228161.06307 -14384743.72348  20228157.90748
  -1845770.21906  23040730.20406  -1430346.37147  23040728.33347
  -5368685.00006  22244141.01706  -4175165.71947  22244137.82147
  -4594085.78905  23066671.04805  -3561857.59846  23066669.95046
  11461512.12106  22581561.25906   8928177.34847  22581558.25947
 -23430770.08607  19369716.70407 -18254300.28149  19369712.23149
 -21679460.39107  20062132.29807 -16887265.30949  20062129.79849
  -9271353.30906  21475269.35306  -7217904.82848  21475266.46648
 08 11 15  2 31 59.9970000  0 10  3  6  7  8 11 13 16 19 25 27
 -14351462.72707  19872091.71207 -11154982.66848  19872089.82548
  -3854891.15207  21065774.68107  -2992562.60548  21065772.66948
 -18517527.82807  20217975.34507 -14426452.92648  20217971.98148
  -1962402.69906  23018534.82106  -1521228.78947  23018533.59547
  -5488900.53506  22221264.95406  -4268840.17247  22221262.16947
  -4520992.97705  23080580.47005  -3504902.21546  23080579.05646
  11522636.14506  22593192.64206   8975806.41847  22593190.98547
 -23436293.46107  19368665.48507 -18258604.21549  19368661.17349
 -21689559.02707  20060210.07907 -16895134.38749  20060208.38449
  -9344631.58606  21461325.04806  -7275004.77748  21461322.87248
 08 11 15  2 32 29.9970000  0 10  3  6  7  8 11 13 16 19 25 27
 -14303311.58607  19881254.44607 -11117462.30548  19881252.46648
  -3796494.22307  21076887.24307  -2947058.50848  21076885.46648
 -18570517.18007  20207891.48507 -14467743.33248  20207888.66148
  -2078827.51206  22996380.60306  -1611949.39847  22996378.59947
  -5608951.09006  22198420.71206  -4362386.03147  22198417.64647
  -4447742.46906  23094520.17306  -3447823.95746  23094518.55646
  11583906.02706  22604851.87606   9023549.14547  22604849.79847
 -23441423.17607  19367689.64907 -18262601.40649  19367685.27849
 -21699110.10907  20058393.00907 -16902576.80149  20058391.14249
  -9417523.21906  21447454.19606  -7331803.46148  21447452.32548
 08 11 15  2 32 59.9970000  0 10  3  6  7  8 11 13 16 19 25 27
 -14254909.43007  19890465.33707 -11079746.35248  19890463.19648
  -3737960.90207  21088025.87607  -2901448.14848  21088023.58748
 -18622971.15607  20197909.94607 -14508616.55548  20197906.83748
  -2195045.79706  22974265.39906  -1702509.10547  22974263.14647
  -5728837.91006  22175606.40706  -4455804.30547  22175603.79047
  -4374341.64806  23108486.89206  -3390628.59447  23108484.91147
  11645317.62906  22616538.71206   9071402.30547  22616536.21647
 -23446164.35507  19366787.27407 -18266295.83649  19366782.75949
 -21708117.27707  20056679.00907 -16909595.37949  20056676.57149
  -9490030.00806  21433656.35306  -7388302.24648  21433654.60648
 08 11 15  2 33 29.9970000  0 10  3  6  7  8 11 13 16 19 25 27
 -14206252.86707  19899724.52407 -11041832.16048  19899722.23148
  -3679286.78107  21099191.09507  -2855728.07448  21099189.01348
 -18674882.53507  20188031.17307 -14549066.98048  20188028.72848
  -2311049.19106  22952189.85306  -1792901.32447  22952187.90747
  -5848552.77306  22152824.46206  -4549088.58247  22152822.98547
  -4300788.21906  23122483.78206  -3333314.29346  23122481.37646
  11706876.64506  22628252.61006   9119370.34447  22628249.96647
 -23450512.51607  19365960.23507 -18269684.01249  19365955.63049
 -21716574.77707  20055069.47007 -16916185.63749  20055067.09949
  -9562144.33606  21419933.23506  -7444495.22348  21419931.43848
 08 11 15  2 33 59.9970000  0 10  3  6  7  8 11 13 16 19 25 27
 -14157353.74207  19909029.19607 -11003728.95348  19909027.17348
  -3620483.99606  21110380.93106  -2809907.73448  21110378.93848
 -18726260.12507  20178254.73507 -14589101.46548  20178252.14948
  -2426844.86705  22930153.78205  -1883131.69546  22930152.67746
  -5968103.55506  22130074.72806  -4642245.03547  22130073.32547
  -4227095.69906  23136507.03206  -3275891.57446  23136505.11446
  11768572.59406  22639992.72006   9167445.07047  22639990.02447
 -23454479.23007  19365205.43107 -18272774.96149  19365200.54449
 -21724492.77707  20053563.19607 -16922355.52749  20053560.59949
  -9633874.27706  21406284.00906  -7500388.68448  21406281.95848
 08 11 15  2 34 29.9970000  0 10  3  6  7  8 11 13 16 19 25 27
 -14108210.96507  19918381.36007 -10965435.89148  19918378.93148
  -3561551.22707  21121595.57907  -2763986.12548  21121593.95848
 -18777099.60507  20168580.03207 -14628716.64548  20168577.64948
  -2542427.66805  22908159.40705  -1973196.15646  22908158.49746
  -6087485.20305  22107357.78205  -4735269.62947  22107356.06747
  -4153264.93806  23150556.57906  -3218361.12946  23150554.65346
  11830408.02006  22651759.40706   9215628.46947  22651757.26747
 -23458063.39507  19364523.16507 -18275567.82049  19364518.88849
 -21731868.50807  20052159.29807 -16928102.85949  20052157.26749
  -9705214.94907  21392708.11807  -7555978.80548  21392706.34548
 08 11 15  2 34 59.9970000  0 10  3  6  7  8 11 13 16 19 25 27
 -14058825.35207  19927779.05607 -10926953.62548  19927777.18848
  -3502488.63306  21132834.63406  -2717963.34848  21132833.34948
 -18827397.13707  20159008.85307 -14667909.52348  20159006.41148
  -2657793.12105  22886206.49305  -2063091.30547  22886204.99747
  -6206693.98406  22084672.60306  -4828159.59447  22084670.27447
  -4079297.89506  23164631.87606  -3160724.52346  23164630.20046
  11892384.43006  22663553.60306   9263921.75447  22663551.38047
 -23461264.76607  19363913.93807 -18278062.40249  19363909.50549
 -21738700.60907  20050859.25107 -16933426.58649  20050857.07549
  -9776162.85506  21379206.57106  -7611262.87548  21379204.90748
 08 11 15  2 35 29.9970000  0 10  3  6  7  8 11 13 16 19 25 27
 -14009197.25007  19937223.43107 -10888282.38748  19937220.75148
  -3443296.08206  21144098.66506  -2671839.30948  21144096.65348
 -18877150.09407  20149541.40707 -14706678.06648  20149538.54448
  -2772937.10906  22864295.64906  -2152813.84846  22864293.52446
  -6325725.71905  22062022.18105  -4920911.62147  22062019.85647
  -4005196.47706  23178732.77406  -3102983.15646  23178731.70846
  11954502.52006  22675374.01706   9312325.41047  22675371.68147
 -23464083.38307  19363377.40707 -18280258.73449  19363372.77449
 -21744987.37507  20049662.95407 -16938325.37949  20049660.18549
  -9846714.64806  21365781.35306  -7666238.30548  21365779.82948
 08 11 15  2 35 59.9970000  0 10  3  6  7  8 11 13 16 19 25 27
 -13959335.58607  19946711.50107 -10849429.14848  19946708.97848
  -3383982.52306  21155385.46206  -2625620.96948  21155384.18148
 -18926364.34007  20140175.99307 -14745026.82448  20140173.10348
  -2887863.83206  22842426.35306  -2242367.15247  22842422.80647
  -6444585.48006  22039403.80606  -5013529.62147  22039400.58747
  -3930971.50006  23192857.60306  -3045145.48446  23192855.70046
  12016755.10206  22687220.45406   9360833.87147  22687217.41147
 -23466527.86707  19362912.45407 -18282163.53149  19362907.56349
 -21750736.14107  20048568.70407 -16942804.94949  20048566.80249
  -9916875.91007  21352430.17307  -7720909.41048  21352428.52448
 08 11 15  2 36 29.9970000  0 10  3  6  7  8 11 13 16 19 25 27
 -13909236.30907  19956245.02407 -10810390.77048  19956242.68848
  -3324543.43406  21166696.75106  -2579304.82048  21166695.09948
 -18975032.25407  20130914.68107 -14782949.87148  20130911.75548
  -3002564.37906  22820599.10306  -2331744.21947  22820596.34147
  -6563265.06306  22016820.25906  -5106007.19947  22016818.43847
  -3856620.34405  23207006.21205  -2987209.59046  23207003.46646
  12079147.98406  22699093.39906   9409451.66847  22699090.50547
 -23468593.42607  19362519.19607 -18283773.05949  19362514.34549
 -21755940.96107  20047578.47007 -16946860.67649  20047576.15749
  -9986638.37907  21339154.97007  -7775269.77748  21339153.17348
 08 11 15  2 36 59.9970000  0  9  3  6  7  8 11 16 19 25 27
 -13858903.86707  19965822.86807 -10771170.70748  19965820.93148
  -3264982.94106  21178030.44606  -2532894.06648  21178029.15748
 -19023154.68407  20121757.79807 -14820447.86348  20121754.92748
  -3117039.03506  22798814.72806  -2420945.21547  22798812.36047
  -6681764.55906  21994270.23506  -5198344.43447  21994268.38447
  12141678.42206  22710992.49306   9458176.60547  22710989.86047
 -23470284.02707  19362197.45407 -18285090.41049  19362193.29049
 -21760604.52007  20046691.02407 -16950494.62149  20046688.34949
 -10056002.94507  21325955.43107  -7829320.09048  21325953.39648
 08 11 15  2 37 29.9970000  0  9  3  6  7  8 11 16 19 25 27
 -13808342.21107  19975444.47007 -10731772.03148  19975442.78648
  -3205304.66806  21189387.02406  -2486391.55148  21189385.65348
 -19070732.31607  20112703.63407 -14857521.34048  20112701.21248
  -3231287.12906  22777073.91506  -2509969.69547  22777071.76747
  -6800083.69906  21971755.51706  -5290541.15647  21971752.45447
  12204344.02806  22722918.22006   9507006.88347  22722915.75147
 -23471603.66007  19361946.65707 -18286118.70349  19361942.01749
 -21764728.89107  20045906.18107 -16953708.43448  20045903.31748
 -10124969.57407  21312831.15707  -7883060.32048  21312829.30648
 08 11 15  2 37 59.9970000  0  9  3  6  7  8 11 16 19 25 27
 -13757544.54707  19985110.88407 -10692189.45748  19985108.72848
  -3145501.68806  21200767.39906  -2439791.86348  21200765.02448
 -19117755.31307  20103755.44607 -14894162.64849  20103753.36849
  -3345297.05906  22755378.89906  -2598808.57047  22755377.48947
  -6918211.61306  21949276.11806  -5382588.86747  21949273.17747
  12267153.06306  22734869.58706   9555948.96947  22734867.38447
 -23472545.10507  19361767.02407 -18286852.29749  19361762.70849
 -21768305.81607  20045225.82907 -16956495.64849  20045223.32149
 -10193527.86707  21299785.44607  -7936482.36748  21299783.38048
 08 11 15  2 38 29.9970000  0  9  3  6  7  8 11 16 19 25 27
 -13706508.42207  19994822.97807 -10652421.05548  19994820.78248
  -3085571.14806  21212171.74306  -2393092.75048  21212169.64248
 -19164217.73007  20094914.12607 -14930367.13748  20094911.59548
  -3459061.11706  22733730.60306  -2687455.88747  22733728.44247
  -7036141.49206  21926834.77406  -5474482.27747  21926831.27447
  12330109.56306  22746849.72806   9605005.95747  22746847.81747
 -23473105.40207  19361660.75107 -18287288.89549  19361656.48549
 -21771331.07808  20044650.07908 -16958853.00449  20044647.51349
 -10261671.54707  21286817.96207  -7989581.33248  21286815.88048
 08 11 15  2 38 59.9970000  0  9  3  6  7  8 11 16 19 25 27
 -13655239.98407  20004578.77407 -10612471.64148  20004576.98148
  -3025519.01206  21223598.60306  -2346298.90248  21223597.15348
 -19210122.57807  20086178.74307 -14966137.14848  20086176.39248
  -3572581.86306  22712127.63406  -2775913.61347  22712126.27847
  -7153875.61706  21904430.60306  -5566223.16047  21904428.27847
  12393208.69106  22758857.49306   9654174.03947  22758855.13847
 -23473290.48807  19361625.40707 -18287433.11749  19361621.01349
 -21773809.41007  20044178.58707 -16960784.18449  20044175.81749
 -10329403.39807  21273928.70407  -8042359.40248  21273926.81048
 08 11 15  2 39 29.9970000  0  9  3  6  7  8 11 16 19 25 27
 -13603749.05107  20014376.80607 -10572348.85548  20014375.05248
  -2965354.50406  21235047.60306  -2299417.49648  21235046.29048
 -19255476.07807  20077548.06307 -15001477.53948  20077545.52448
  -3685863.91406  22690571.03206  -2864185.31647  22690568.93847
  -7271419.22306  21882063.10306  -5657815.55547  21882060.02447
  12456442.78506  22770890.67306   9703447.32446  22770887.56346
 -23473109.43407  19361659.90707 -18287292.04349  19361655.31349
 -21775748.70307  20043809.57907 -16962295.32049  20043806.94249
 -10396729.24607  21261117.11807  -8094821.09048  21261115.54048
 08 11 15  2 39 59.9970000  0  9  3  6  7  8 11 16 19 25 27
 -13552032.16407  20024218.18107 -10532050.00448  20024216.77448
  -2905074.14806  21246518.64906  -2252445.83248  21246517.27848
 -19300272.04307  20069024.25907 -15036383.49649  20069021.34949
  -3798899.55506  22669061.41506  -2952265.02047  22669059.37647
  -7388765.32806  21859732.97006  -5749254.05147  21859729.29447
  12519816.58605  22782950.72805   9752829.45347  22782948.25947
 -23472558.93807  19361764.80607 -18286863.09049  19361760.05649
 -21777144.02707  20043543.94607 -16963382.60549  20043541.77449
 -10463642.01206  21248383.96206  -8146960.90248  21248381.71248
 08 11 15  2 40 29.9970000  0  9  3  6  7  8 11 16 19 25 27
 -13500087.17207  20034102.98507 -10491573.38748  20034101.30648
  -2844675.57806  21258012.28206  -2205382.02748  21258010.68548
 -19344504.99607  20060606.42307 -15070850.72349  20060603.92749
  -3911681.86705  22647599.79805  -3040147.32047  22647597.20047
  -7505907.35206  21837441.75906  -5840533.53547  21837438.79847
  12583333.43805  22795036.70405   9802323.07046  22795034.60346
 -23471636.40607  19361939.96207 -18286144.23049  19361935.89649
 -21777991.77007  20043382.64207 -16964043.18449  20043380.27849
 -10530136.07807  21235730.73507  -8198774.46148  21235728.36048
 08 11 15  2 40 59.9970000  0  9  3  6  7  8 11 16 19 25 27
 -13447916.23007  20044031.25107 -10450920.73048  20044029.46648
  -2784160.07406  21269527.86006  -2158227.12148  21269526.87648
 -19388173.56307  20052296.30607 -15104878.15648  20052293.65748
  -4024207.87506  22626187.11806  -3127829.91447  22626183.97847
  -7622842.83206  21815188.97806  -5931652.09447  21815185.20847
  12646993.48805  22807151.32905   9851928.24246  22807149.07946
 -23470343.25007  19362186.35307 -18285136.57849  19362181.49749
 -21778292.19507  20043325.16507 -16964277.29349  20043323.44649
 -10596209.43807  21223157.41507  -8250260.19548  21223155.37648
 08 11 15  2 41 29.9970000  0  9  3  6  7  8 11 16 19 25 27
 -13395519.82807  20054001.96207 -10410092.37948  20053999.82948
  -2723528.21506  21281066.09506  -2110981.53548  21281064.30248
 -19431275.53907  20044094.83707 -15138464.10948  20044091.70048
  -4136474.02005  22604822.73505  -3215309.97747  22604820.72447
  -7739568.71906  21792977.06306  -6022607.34047  21792973.46247
  12710797.13705  22819292.27405   9901645.31646  22819289.81346
 -23468680.08607  19362502.62607 -18283840.60249  19362498.47049
 -21778044.56307  20043372.41507 -16964084.34449  20043370.05649
 -10661859.24607  21210664.12607  -8301415.87948  21210662.64948
 08 11 15  2 41 59.9970000  0  9  3  6  7  8 11 16 19 25 27
 -13342905.96107  20064013.97807 -10369094.56648  20064011.70848
  -2662787.55106  21292624.37606  -2063651.18848  21292623.48148
 -19473815.39807  20035999.61007 -15171612.07048  20035996.81048
  -4248483.37106  22583507.79806  -3302589.96947  22583505.39647
  -7856088.60506  21770803.70406  -6113402.06347  21770801.25147
  12774738.34805  22831460.54005   9951469.57446  22831458.04046
 -23466654.30907  19362888.32907 -18282262.07049  19362883.80649
 -21777255.18407  20043522.56307 -16963469.25049  20043520.47449
 -10727089.70707  21198251.36807  -8352244.81348  21198249.45048
 08 11 15  2 42 29.9970000  0  9  3  6  7  8 11 16 19 25 27
 -13290073.59807  20074067.77407 -10327926.51648  20074065.60348
  -2601936.71906  21304204.36006  -2016234.98448  21304202.28648
 -19515789.22307  20028012.08707 -15204318.93848  20028009.75548
  -4360230.42606  22562243.14906  -3389665.55147  22562241.31047
  -7972397.39106  21748670.40706  -6204032.27347  21748668.26747
  12838819.39505  22843654.67305  10001402.82447  22843652.91947
 -23464264.87907  19363343.04007 -18280400.18049  19363338.67749
 -21775921.78507  20043776.38407 -16962430.24249  20043773.57549
 -10791896.44906  21185919.18106  -8402743.56648  21185917.24348
 08 11 15  2 42 59.9970000  0  9  3  6  7  8 11 16 19 25 27
 -13237019.44507  20084164.02407 -10286585.62548  20084161.72448
  -2540972.24206  21315805.41506  -1968730.22748  21315803.72448
 -19557190.85507  20020134.11807 -15236579.95749  20020131.24749
  -4471707.38706  22541030.22806  -3476530.70347  22541027.69647
  -8088487.82406  21726579.54006  -6294492.33247  21726577.03647
  12903045.00804  22855876.43804  10051448.69546  22855875.45046
 -23461508.37107  19363867.97807 -18278252.25449  19363863.09949
 -21774039.59407  20044134.70407 -16960963.60949  20044132.21649
 -10856272.48807  21173669.07907  -8452906.71948  21173667.01748
 08 11 15  2 43 29.9970000  0  9  3  6  7  8 11 16 19 25 27
 -13183745.12107  20094301.10307 -10245073.18048  20094299.31748
  -2479895.19906  21327428.14206  -1921137.74648  21327426.22048
 -19598018.75007  20012364.54007 -15268393.91849  20012361.91549
  -4582911.10906  22519867.28206  -3563182.91047  22519866.06047
  -8204357.01606  21704529.67306  -6384779.98847  21704527.58347
  12967415.38705  22868125.64205  10101607.41046  22868124.84946
 -23458385.70707  19364461.40707 -18275819.00849  19364457.37249
 -21771608.70707  20044597.45407 -16959069.41449  20044594.55649
 -10920215.69507  21161500.91507  -8502732.58648  21161499.20848
 08 11 15  2 43 59.9970000  0  9  3  6  7  8 11 16 19 25 27
 -13130255.79307  20104480.24307 -10203393.20748  20104477.90348
  -2418710.35906  21339071.40706  -1873461.28148  21339068.83748
 -19638274.76207  20004704.12607 -15299762.21549  20004701.48949
  -4693841.81606  22498758.93806  -3649622.39147  22498756.23947
  -8320006.21506  21682522.84506  -6474896.22747  21682520.20847
  13031926.78105  22880402.10305  10151875.95347  22880399.93847
 -23454901.85207  19365124.66507 -18273104.31649  19365120.28249
 -21768632.81307  20045163.64207 -16956750.53149  20045160.99749
 -10983727.52307  21149415.20407  -8552222.32848  21149413.41948
 08 11 15  2 44 29.9970000  0  9  3  6  7  8 11 16 19 25 27
 -13076548.89107  20114700.25107 -10161543.69148  20114697.50148
  -2357414.68406  21350735.72806  -1825698.44948  21350733.61848
 -19677953.32007  19997153.49307 -15330680.57448  19997150.83748
  -4804492.57006  22477702.64206  -3735843.73447  22477700.78247
  -8435428.73406  21660558.96206  -6564835.85947  21660555.77447
  13096583.39805  22892705.57105  10202257.72346  22892704.13046
 -23451053.73007  19365856.99307 -18270105.78149  19365852.85349
 -21765107.91807  20045834.58707 -16954003.86349  20045832.65749
 -11046801.69107  21137412.50107  -8601371.03548  21137410.71248
 08 11 15  2 44 59.9970000  0  9  3  6  7  8 11 16 19 25 27
 -13022623.60907  20124961.82907 -10119524.00048  20124959.06748
  -2296007.33206  21362421.14906  -1777848.59048  21362418.84148
 -19717050.88307  19989713.53207 -15361146.21149  19989710.98549
  -4914857.88706  22456701.29006  -3821842.69147  22456698.77847
  -8550619.63306  21638639.70406  -6654594.99247  21638637.18847
  13161387.40205  22905037.33705  10252754.31646  22905035.29846
 -23446840.57407  19366658.14907 -18266822.80949  19366653.88049
 -21761031.99607  20046610.34507 -16950827.82849  20046607.68549
 -11109434.23807  21125494.15707  -8650175.62548  21125491.61048
 08 11 15  2 45 29.9970000  0  9  3  6  7  8 11 16 19 25 27
 -12968485.17207  20135263.87607 -10077338.23048  20135260.98148
  -2234493.22307  21374126.45407  -1729915.55148  21374124.70848
 -19755569.98007  19982383.82107 -15391161.10248  19982380.90748
  -5024938.66806  22435753.00906  -3907619.91847  22435751.84547
  -8665580.33206  21616762.85306  -6744174.71547  21616760.39647
  13226334.62605  22917396.50105  10303362.47346  22917394.98546
 -23442267.74607  19367529.06307 -18263259.56349  19367524.47449
 -21756409.29307  20047489.63407 -16947225.73049  20047487.03249
 -11171627.32007  21113659.11807  -8698637.76248  21113656.73948
 08 11 15  2 45 59.9970000  0  9  3  6  7  8 11 16 19 25 27
 -12914135.09807  20145606.79007 -10034987.53548  20145603.85348
  -2172873.40606  21385852.79806  -1681900.12548  21385851.02148
 -19793509.09407  19975164.05607 -15420724.05549  19975161.28249
  -5134731.60506  22414859.75106  -3993172.84047  22414858.66147
  -8780308.07806  21594930.61806  -6833572.94548  21594928.17748
  13291425.57005  22929783.97005  10354082.66047  22929782.18147
 -23437336.35907  19368466.95407 -18259416.93049  19368462.56049
 -21751239.80107  20048473.19607 -16943197.56349  20048470.72449
 -11233378.41807  21101907.89207  -8746755.49648  21101905.40348
 08 11 15  2 46 29.9970000  0  9  3  6  7  8 11 16 19 25 27
 -12859570.60207  20155990.00907  -9992469.76248  20155987.37248
  -2111144.95707  21397599.25107  -1633800.05548  21397597.08348
 -19830862.74207  19968056.02407 -15449830.79348  19968053.14948
  -5244229.59406  22394023.62606  -4078495.93047  22394021.23947
  -8894796.42206  21573144.64906  -6922784.58647  21573142.06347
  13356664.33605  22942197.95405  10404918.02746  22942195.81746
 -23432043.33207  19369474.61807 -18255292.49649  19369470.51749
 -21745519.79307  20049561.88407 -16938740.41448  20049559.07548
 -11294681.50407  21090242.73507  -8794524.12948  21090240.50148
 08 11 15  2 46 59.9970000  0  9  3  6  7  8 11 16 19 25 27
 -12804794.52307  20166413.63407  -9949787.12148  20166411.41148
  -2049310.12906  21409366.19606  -1585617.10248  21409364.27148
 -19867630.32007  19961059.39907 -15478480.86349  19961056.38849
  -5353430.66406  22373243.64206  -4163587.66447  22373241.16947
  -9009043.49206  21551404.11006  -7011808.28947  21551400.43547
  13422049.02305  22954639.89905  10455867.10246  22954636.89246
 -23426391.15207  19370549.71207 -18250888.19949  19370545.23149
 -21739250.65207  20050754.93807 -16933855.37148  20050752.13448
 -11355535.75807  21078662.11007  -8841943.03148  21078660.13048
 08 11 15  2 47 29.9970000  0  9  3  6  7  8 11 16 19 25 27
 -12749806.58206  20176877.22006  -9906939.39148  20176875.38048
  -1987368.07806  21421153.52406  -1537350.59848  21421150.79448
 -19903808.95307  19954174.85307 -15506672.01248  19954171.84548
  -5462329.78506  22352520.93806  -4248444.09847  22352518.67347
  -9123045.23406  21529710.18106  -7100640.78947  21529706.24747
  13487581.71105  22967110.74305  10506931.51646  22967107.40746
 -23420379.44907  19371694.19607 -18246203.75449  19371689.46649
 -21732430.66407  20052052.93807 -16928541.10248  20052049.84948
 -11415937.34407  21067167.96207  -8889009.19548  21067166.84148
 08 11 15  2 47 59.9970000  0  9  3  6  7  8 11 16 19 25 27
 -12694608.21507  20187381.16507  -9863927.68848  20187379.39648
  -1925320.16406  21432960.39206  -1489001.59848  21432958.77848
 -19939397.41007  19947402.11007 -15534403.28949  19947399.20049
  -5570923.87106  22331855.64206  -4333062.85247  22331853.93147
  -9236799.28106  21508063.30606  -7189280.28947  21508060.39247
  13553262.40605  22979609.60305  10558111.21547  22979606.68547
 -23414009.49207  19372906.25907 -18241240.16449  19372901.74749
 -21725060.46107  20053454.99307 -16922798.08248  20053452.48948
 -11475884.48007  21055760.96207  -8935721.25448  21055758.85648
 08 11 15  2 48 29.9970000  0  9  3  6  7  8 11 16 19 25 27
 -12639200.48007  20197925.26707  -9820752.82448  20197922.67748
  -1863167.31306  21444787.68106  -1440570.82448  21444786.02448
 -19974394.04307  19940742.53207 -15561673.39148  19940739.88048
  -5679209.52306  22311249.97006  -4417441.25447  22311247.59547
  -9350302.57006  21486464.77406  -7277724.35948  21486462.46648
  13619091.34804  22992134.92304  10609406.43446  22992134.49346
 -23407282.28107  19374186.48507 -18235998.18449  19374181.89949
 -21717139.93007  20054962.68807 -16916626.25048  20054959.99348
 -11535374.82407  21044440.09507  -8982077.36748  21044438.11048
 08 11 15  2 48 59.9970000  0  9  3  6  7  8 11 16 19 25 27
 -12583589.89107  20208506.85307  -9777419.91048  20208504.99748
  -1800915.43806  21456634.30606  -1392062.89848  21456632.33748
 -20008802.43007  19934194.98507 -15588485.13348  19934192.13048
  -5787188.76206  22290701.68806  -4501580.90647  22290700.06047
  -9463557.78506  21464912.63406  -7365975.13747  21464909.75547
  13685063.67605  23004690.38405  10660813.39147  23004688.20447
 -23400204.47707  19375533.20407 -18230483.02049  19375528.65749
 -21708674.53107  20056573.07907 -16910029.84048  20056570.75548
 -11594411.58607  21033206.11807  -9028080.05148  21033203.94648
 08 11 15  2 49 29.9970000  0  9  3  6  7  8 11 16 19 25 27
 -12527777.33607  20219128.17307  -9733929.62948  20219125.62248
  -1738565.53906  21468498.50906  -1343478.58248  21468497.04048
 -20042621.60907  19927759.68807 -15614837.74648  19927757.29448
  -5894858.51206  22270213.14906  -4585479.35947  22270211.31747
  -9576561.51206  21443408.54006  -7454029.95348  21443406.55648
  13751179.10205  23017272.46205  10712331.87146  23017268.56346
 -23392776.74607  19376946.79807 -18224695.18049  19376942.48149
 -21699664.48807  20058288.08707 -16903009.02748  20058285.58348
 -11652992.66807  21022058.45407  -9073727.64148  21022055.84948
 08 11 15  2 49 59.9970000  0  9  3  6  7  8 11 16 19 25 27
 -12471758.81606  20229787.88406  -9690278.84448  20229785.72048
  -1676112.53106  21480382.98506  -1294813.91048  21480381.40348
 -20075843.75007  19921437.36807 -15640725.14148  19921434.79848
  -6002208.94106  22249785.04006  -4669129.04747  22249782.79447
  -9689305.63306  21421954.16506  -7541882.48448  21421951.23548
  13817443.96905  23029880.43805  10763966.76247  23029879.46647
 -23384994.06607  19378427.50107 -18218630.76249  19378423.28249
 -21690103.93007  20060107.31307 -16895559.25849  20060105.05649
 -11711110.09007  21010998.79807  -9119013.93048  21010996.70448
 08 11 15  2 50 29.9970000  0  9  3  6  7  8 11 16 19 25 27
 -12415540.47307  20240485.82107  -9646472.35948  20240483.89948
  -1613561.97306  21492286.47806  -1246073.22348  21492284.04848
 -20108472.34807  19915228.31307 -15666150.04348  19915225.38848
  -6109242.01606  22229417.40706  -4752531.41447  22229414.72447
  -9801792.30106  21400548.00106  -7629534.38747  21400545.65747
  13883853.55105  23042518.97805  10815714.46947  23042516.43147
 -23376862.60507  19379974.67307 -18212294.55949  19379970.90349
 -21679998.07007  20062030.47007 -16887684.55949  20062027.88449
 -11768766.59807  21000027.18807  -9163941.07048  21000024.86048
 08 11 15  2 50 59.9970000  0  9  3  6  7  8 11 16 19 25 27
 -12359123.10907  20251221.61807  -9602510.78548  20251220.26348
  -1550914.76606  21504207.22006  -1197257.26648  21504205.35348
 -20140505.98007  19909132.65707 -15691111.31349  19909130.02449
  -6215954.02706  22209110.80606  -4835683.60247  22209108.93547
  -9914018.48006  21379192.33706  -7716983.32848  21379189.58748
  13950408.14804  23055183.79804  10867575.16046  23055181.45846
 -23368383.51207  19381588.39207 -18205687.48449  19381584.38049
 -21669346.85507  20064057.32907 -16879384.93049  20064054.71649
 -11825959.59007  20989143.96207  -9208507.05148  20989141.32948
 08 11 15  2 51 29.9970000  0  9  3  6  7  8 11 16 19 25 27
 -12302511.11707  20261994.45407  -9558397.55948  20261993.20848
  -1488175.29306  21516146.69606  -1148369.39847  21516144.51747
 -20171947.03907  19903149.75907 -15715610.82448  19903146.88048
  -6322345.33606  22188864.46206  -4918585.89147  22188862.98147
 -10025984.84806  21357886.32906  -7804229.81348  21357884.20448
  14017104.18004  23067874.56304  10919546.05946  23067872.83746
 -23359561.60207  19383267.45407 -18198813.27049  19383262.63049
 -21658154.31307  20066187.00107 -16870663.47348  20066184.04848
 -11882690.87907  20978348.12607  -9252713.24648  20978345.53248
 08 11 15  2 51 59.9970000  0  9  3  6  7  8 11 16 19 25 27
 -12245706.63707  20272804.11807  -9514134.33648  20272802.17348
  -1425344.89506  21528103.03206  -1099410.66848  21528101.06348
 -20202794.44907  19897279.28207 -15739647.77749  19897276.75949
  -6428413.23006  22168681.41506  -5001236.17247  22168680.07547
 -10137689.27006  21336629.46206  -7891272.17248  21336626.75548
  14083941.46905  23080593.96205  10971627.02346  23080592.07146
 -23350398.19107  19385011.11807 -18191672.95749  19385006.59549
 -21646421.16007  20068419.52407 -16861520.75848  20068417.13048
 -11938958.87107  20967640.70407  -9296558.43848  20967638.48148
 08 11 15  2 52 29.9970000  0  9  3  6  7  8 11 16 19 25 27
 -12188717.47307  20283648.71207  -9469727.21548  20283647.00548
  -1362431.18406  21540074.76706  -1050387.01648  21540073.43848
 -20233053.57407  19891521.48507 -15763226.32848  19891518.49748
  -6534161.12506  22148558.17306  -5083637.10247  22148556.30647
 -10249136.11706  21315421.18806  -7978113.83248  21315419.11048
  14150912.89806  23093338.71206  11023812.51246  23093336.30246
 -23340901.19107  19386818.47007 -18184272.70749  19386813.96249
 -21634154.59407  20070753.84507 -16851962.39848  20070751.34148
 -11994768.44507  20957020.73507  -9340046.41848  20957018.07148
 08 11 15  2 52 59.9970000  0  9  3  6  7  8 11 16 19 25 27
 -12131540.01607  20294529.15707  -9425173.37148  20294527.43548
  -1299430.16006  21552063.16506  -1001295.32848  21552062.32948
 -20262718.48407  19885876.45407 -15786341.85549  19885873.05249
  -6639580.78906  22128497.23506  -5165782.27347  22128495.20447
 -10360317.59406  21294264.43806  -8064748.70348  21294261.05648
  14218023.72705  23106108.96205  11076106.62546  23106107.74746
 -23331066.65207  19388689.99307 -18176609.43049  19388685.51749
 -21621349.87907  20073190.37607 -16841984.71548  20073188.14248
 -12050112.31607  20946488.72007  -9383171.50848  20946486.67348
 08 11 15  2 53 29.9970000  0  9  3  6  7  8 11 16 19 25 27
 -12074170.85507  20305446.68107  -9380470.14148  20305444.42348
  -1236338.01606  21564069.74306   -952132.65648  21564068.48548
 -20291783.06607  19880345.54007 -15808989.57849  19880342.89249
  -6744663.94906  22108500.55606  -5247665.23847  22108499.29447
 -10471226.14806  21273159.33706  -8151170.92248  21273157.57148
  14285278.99205  23118908.16505  11128513.25847  23118905.88447
 -23320891.32007  19390626.18107 -18168680.60249  19390621.71649
 -21608002.86307  20075730.46207 -16831584.45348  20075728.07948
 -12104984.07007  20936047.13407  -9425928.72348  20936045.58348
 08 11 15  2 53 59.9970000  0  9  3  6  7  8 11 16 19 25 27
 -12016621.39807  20316398.11807  -9335626.42248  20316396.11848
  -1173165.80106  21576090.59506   -902907.58647  21576089.14247
 -20320256.46907  19874927.38407 -15831176.65249  19874925.09549
  -6849417.39806  22088566.79806  -5329291.29347  22088565.20447
 -10581869.44906  21252104.43106  -8237386.46948  21252101.86448
  14352668.25005  23131731.44605  11181024.29347  23131730.38847
 -23310386.69507  19392625.01707 -18160495.19549  19392620.41949
 -21594124.07407  20078371.68107 -16820769.82449  20078369.69649
 -12159391.91007  20925693.97807  -9468324.45348  20925691.42748
 08 11 15  2 54 29.9970000  0  9  3  6  7  8 11 16 19 25 27
 -11958884.55907  20327385.00107  -9290636.69148  20327383.34548
  -1109905.97306  21588128.83706   -853614.24647  21588127.36447
 -20348129.14807  19869623.39907 -15852895.62949  19869620.73549
  -6953830.00406  22068697.22006  -5410651.74647  22068696.20047
 -10692236.34007  21231102.78207  -8323386.61348  21231100.26748
  14420199.87106  23144583.31306  11233646.32447  23144581.25947
 -23299545.33607  19394688.23507 -18152047.37949  19394683.64649
 -21579705.75807  20081115.45407 -16809534.78548  20081113.12248
 -12213325.53107  20915430.36807  -9510350.66048  20915428.06048
 08 11 15  2 54 59.9970000  0  9  3  6  7  8 11 16 19 25 27
 -11900957.82807  20338407.87607  -9245499.02048  20338406.03648
  -1046555.55906  21600184.03206   -804250.31347  21600181.85647
 -20375396.14807  19864434.45407 -15874142.63748  19864431.86848
  -7057894.59006  22048894.43806  -5491741.02747  22048893.63447
 -10802320.49607  21210154.45407  -8409166.45348  21210150.91148
  14487877.80906  23157461.41506  11286382.32847  23157460.39947
 -23288364.84007  19396815.42307 -18143335.31649  19396810.98549
 -21564744.48807  20083962.21207 -16797876.67648  20083959.81348
 -12266779.14807  20905258.41507  -9552002.82848  20905256.90748
 08 11 15  2 55 29.9970000  0  9  3  6  7  8 11 16 19 25 27
 -11842853.58607  20349464.61007  -9200223.00448  20349462.98548
   -983126.71906  21612254.36006   -754825.27347  21612252.34947
 -20402067.47707  19859358.93107 -15894925.49249  19859356.35349
  -7161619.08606  22029156.49306  -5572565.31347  22029155.16547
 -10912130.63307  21189258.02407  -8494732.77748  21189254.95048
  14555690.98406  23170366.00106  11339223.73446  23170362.52846
 -23276857.57007  19399005.42307 -18134368.62549  19399001.07149
 -21549252.07007  20086910.42307 -16785804.66848  20086907.38448
 -12319762.23807  20895176.18107  -9593288.36348  20895174.34548
 08 11 15  2 55 59.9970000  0  9  3  6  7  8 11 16 19 25 27
 -11784573.80107  20360555.30607  -9154810.21148  20360553.02848
   -919621.00806  21624338.93806   -705340.32447  21624336.67747
 -20428142.71907  19854397.47007 -15915243.87148  19854394.31748
  -7265000.68806  22009483.51706  -5653122.37947  22009482.27147
 -11021664.37906  21168414.25106  -8580083.74248  21168410.63848
  14623638.77305  23183296.12605  11392170.01247  23183292.98547
 -23265025.14807  19401257.17307 -18125148.56349  19401252.69649
 -21533229.56307  20089959.51707 -16773319.61348  20089956.49348
 -12372273.60207  20885183.68107  -9634206.31648  20885181.64648
 08 11 15  2 56 29.9970000  0  9  3  6  7  8 11 16 19 25 27
 -11726116.78907  20371679.37607  -9109259.31348  20371677.12248
   -856036.66006  21636439.36006   -655794.10547  21636437.17747
 -20453618.61307  19849549.57907 -15935095.19949  19849546.72449
  -7368034.02705  21989876.80605  -5733408.07047  21989875.65347
 -11130917.00006  21147624.25106  -8665215.60948  21147621.57148
  14691723.02705  23196250.29805  11445222.60546  23196249.39246
 -23252866.60207  19403570.75107 -18115674.36749  19403566.13849
 -21516675.20707  20093109.86007 -16760420.12148  20093106.79048
 -12424308.94107  20875282.07107  -9674753.33248  20875279.78248
 08 11 15  2 56 59.9970000  0  9  3  6  7  8 11 16 19 25 27
 -11667485.54307  20382836.33707  -9063572.64548  20382834.08348
   -792375.94106  21648553.25906   -606188.40247  21648550.94247
 -20478495.41407  19844815.33707 -15954479.72349  19844812.92749
  -7470717.11306  21970337.03206  -5813420.85247  21970335.12247
 -11239887.23006  21126888.43106  -8750127.44148  21126885.08348
  14759942.91005  23209233.55605  11498380.92246  23209230.03646
 -23240384.40607  19405946.02407 -18105947.99649  19405941.44249
 -21499590.89507  20096360.85307 -16747107.68048  20096358.20848
 -12475867.48007  20865470.64907  -9714928.82448  20865468.00948
 08 11 15  2 57 29.9970000  0  9  3  6  7  8 11 16 19 25 27
 -11608675.10207  20394027.86007  -9017746.35548  20394025.53648
   -728633.77306  21660682.91506   -556519.19947  21660680.72847
 -20502765.72307  19840197.25907 -15973391.65248  19840194.07148
  -7573040.36306  21950865.42306  -5893153.27347  21950863.72847
 -11348566.50806  21106207.03206  -8834812.56348  21106203.54048
  14828304.41005  23222242.26705  11551649.56346  23222239.30246
 -23227573.85907  19408383.78207 -18095965.75049  19408379.82149
 -21481971.24607  20099713.58707 -16733378.08248  20099711.13848
 -12526941.71107  20855751.43107  -9754726.93848  20855749.48548
 08 11 15  2 57 59.9970000  0  9  3  6  7  8 11 16 19 25 27
 -11549694.41007  20405251.25107  -8971787.41048  20405249.27448
   -664818.43006  21672826.14206   -506793.00447  21672824.18847
 -20526436.77307  19835692.50907 -15991836.62548  19835689.39948
  -7675008.44106  21931461.71206  -5972608.88747  21931459.60347
 -11456959.73006  21085580.43806  -8919274.80548  21085576.84148
  14896799.85504  23235276.22004  11605022.64546  23235273.38046
 -23214443.80107  19410882.57907 -18085734.53549  19410878.02849
 -21463824.60907  20103166.57907 -16719237.86348  20103164.17348
 -12577537.36307  20846122.89907  -9794152.12948  20846120.87648
 08 11 15  2 58 29.9970000  0  9  3  6  7  8 11 16 19 25 27
 -11490542.53507  20416507.22807  -8925695.06648  20416505.17348
   -600928.55506  21684984.32106   -457008.75047  21684981.98547
 -20549505.15607  19831303.04807 -16009812.00449  19831299.36449
  -7776616.08606  21912126.82906  -6051783.67247  21912124.29447
 -11565061.93806  21065009.55606  -9003510.28948  21065005.47048
  14965431.73804  23248336.97004  11658501.95746  23248333.80646
 -23200992.93407  19413441.90707 -18075253.34849  19413437.52149
 -21445149.28507  20106720.80607 -16704685.67248  20106718.09948
 -12627650.30107  20836586.99307  -9833201.17248  20836584.57148
 08 11 15  2 58 59.9970000  0  9  3  6  7  8 11 16 19 25 27
 -11431219.10507  20427796.31307  -8879469.05148  20427793.93548
   -536963.98406  21697156.08706   -407166.26647  21697154.77147
 -20571968.60907  19827028.07907 -16027315.99649  19827025.20849
  -7877858.63706  21892860.59506  -6130673.97747  21892858.14247
 -11672869.70706  21044494.02406  -9087516.32848  21044490.94648
  15034200.77004  23261422.46204  11712088.19946  23261420.82946
 -23187221.48007  19416062.55607 -18064522.34849  19416058.34149
 -21425944.83207  20110375.09507 -16689721.17648  20110372.49748
 -12677277.80907  20827143.19607  -9871871.97348  20827140.87648
 08 11 15  2 59 29.9970000  0  9  3  6  7  8 11 16 19 25 27
 -11371728.87507  20439116.86807  -8833113.05948  20439114.90348
   -472928.41806  21709341.99306   -357268.45747  21709340.26747
 -20593829.54707  19822868.29807 -16044350.49249  19822865.01349
  -7978735.99206  21873664.11806  -6209279.68847  21873662.03647
 -11780383.21506  21024034.85306  -9171293.06348  21024031.75148
  15103103.73804  23274534.82104  11765778.78146  23274534.02146
 -23173133.89507  19418743.30607 -18053545.00849  19418739.09949
 -21406215.05907  20114129.36007 -16674347.34048  20114126.81748
 -12726421.21506  20817791.75906  -9910165.54348  20817789.11848
 08 11 15  2 59 59.9970000  0  9  3  6  7  8 11 16 19 25 27
 -11312065.93807  20450470.79807  -8786622.48448  20450468.38448
   -408816.03106  21721541.93106   -307310.80147  21721540.73147
 -20615080.32007  19818824.22007 -16060909.54349  19818821.24749
  -8079238.36706  21854539.24306  -6287593.21147  21854537.12647
 -11887593.70306  21003632.96206  -9254833.69148  21003630.84548
  15172147.83204  23287672.69604  11819579.35246  23287671.84946
 -23158724.52707  19421485.34507 -18042316.93049  19421480.78649
 -21385953.91807  20117985.28207 -16658559.45748  20117982.41148
 -12775071.85907  20808534.02407  -9948075.13748  20808531.96248
 08 11 15  3  0 29.9970000  0  8  3  6  7  8 11 19 25 27
 -11252238.08207  20461855.42307  -8740003.39848  20461853.46248
   -344634.05506  21733755.61806   -257298.90647  21733754.09147
 -20635726.63707  19814895.37607 -16076997.60249  19814892.57949
  -8179368.78506  21835484.97806  -6365616.91047  21835483.07547
 -11994504.52006  20983288.74306  -9338140.80148  20983286.05248
 -23144001.23807  19424287.10307 -18030844.24649  19424282.63049
 -21365168.70707  20121940.62607 -16642363.19948  20121937.39248
 -12823234.71907  20799368.89907  -9985604.64148  20799367.39648
 08 11 15  3  0 59.9970000  0  8  3  6  7  8 11 19 25 27
 -11192240.70707  20473272.39907  -8693252.22348  20473270.45848
   -280377.31306  21745982.82906   -207228.76647  21745982.06747
 -20655761.53907  19811082.86807 -16092609.21949  19811079.75549
  -8279118.38306  21816503.29806  -6443343.85247  21816501.33347
 -12101107.14506  20963003.08706  -9421207.77048  20963000.33348
 -23128959.02007  19427149.57907 -18019123.03549  19427145.10649
 -21343854.13707  20125996.78207 -16625754.44548  20125993.91948
 -12870901.91407  20790297.73507 -10022747.91048  20790296.16948
 08 11 15  3  1 29.9970000  0  8  3  6  7  8 11 19 25 27
 -11132074.55107  20484721.40707  -8646369.53548  20484719.10648
   -216046.53106  21758224.68106   -157100.92247  21758223.43147
 -20675184.33607  19807386.95407 -16107743.87549  19807383.66149
  -8378483.48806  21797594.86806  -6520771.19547  21797593.32547
 -12207399.09006  20942776.14206  -9504032.65648  20942774.09148
 -23113599.30907  19430072.71207 -18007154.44949  19430068.00949
 -21322011.08207  20130153.05607 -16608733.89548  20130150.74748
 -12918071.80506  20781321.78206 -10059503.67648  20781320.14248
 08 11 15  3  1 59.9970000  0  8  3  6  7  8 11 19 25 27
 -11071743.71907  20496202.49307  -8599358.52748  20496199.94648
   -151645.13706  21770479.93106   -106918.06347  21770478.85347
 -20693997.07807  19803806.97807 -16122403.17248  19803803.84948
  -8477463.74206  21778760.17306  -6597898.66447  21778757.22047
 -12313380.72706  20922608.47006  -9586615.72748  20922606.69248
 -23097925.71907  19433055.10307 -17994941.27049  19433050.40349
 -21299642.96107  20134409.47807 -16591304.20748  20134406.94648
 -12964745.40607  20772440.20407 -10095872.73048  20772438.73948
 08 11 15  3  2 29.9970000  0  8  3  6  7  8 11 19 25 27
 -11011251.23007  20507714.08707  -8552221.55948  20507711.04448
    -87176.03506  21782748.42306    -56682.44547  21782747.42747
 -20712200.42207  19800343.05607 -16136587.60249  19800340.68149
  -8576057.84006  21759997.64906  -6674725.21947  21759996.28647
 -12419051.38306  20902499.90706  -9668956.48048  20902498.44648
 -23081941.82007  19436096.81307 -17982486.28949  19436092.31349
 -21276752.55907  20138765.15707 -16573467.54748  20138762.70848
 -13010923.10907  20763652.67307 -10131855.36748  20763651.45448
 08 11 15  3  2 59.9970000  0  8  3  6  7  8 11 19 25 27
 -10950599.91407  20519255.44607  -8504960.81648  20519253.38048
    -22641.57806  21795028.26706     -6395.89547  21795027.12247
 -20729796.02707  19796994.64207 -16150298.48049  19796992.00549
  -8674264.73406  21741310.01706  -6751250.05547  21741307.42747
 -12524410.22706  20882451.06306  -9751054.24248  20882448.54448
 -23065651.01207  19439196.98507 -17969792.16849  19439192.68149
 -21253342.77307  20143219.97007 -16555226.16048  20143217.38448
 -13056605.05106  20754960.43106 -10167451.69148  20754958.33348
 08 11 15  3  3 29.9970000  0  8  3  6  7  8 11 19 25 27
 -10889787.32807  20530827.62607  -8457574.41048  20530825.77848
     41961.04306  21807322.18106     43943.77747  21807320.48547
 -20746779.57407  19793762.68107 -16163532.41848  19793759.91948
  -8772077.06606  21722696.81306  -6827467.44147  21722693.94647
 -12629451.12506  20862462.11806  -9832904.28948  20862459.89948
 -23049050.07807  19442355.98507 -17956856.38749  19442351.38049
 -21229410.62107  20147774.60307 -16536577.73848  20147771.82548
 -13101785.90207  20746362.21207 -10202657.55948  20746360.25948
 08 11 15  3  3 59.9970000  0  8  3  6  7  8 11 19 25 27
 -10828819.11707  20542429.17307  -8410066.72748  20542427.47048
    106626.73406  21819628.49306     94332.59447  21819625.89247
 -20763154.66407  19790646.57907 -16176292.23849  19790643.72449
  -8869496.49606  21704157.97806  -6903378.68847  21704155.82147
 -12734176.23006  20842533.74306  -9914508.27048  20842531.33748
 -23032144.91007  19445572.66507 -17943683.54349  19445568.07949
 -21204961.43007  20152426.90707 -16517526.43448  20152424.27448
 -13146468.51606  20737859.38406 -10237475.17648  20737857.32548
 08 11 15  3  4 29.9970000  0  8  3  6  7  8 11 19 25 27
 -10767691.24607  20554061.54007  -8362434.64548  20554059.56348
    171360.00406  21831946.39906    144774.06348  21831944.74748
 -20778915.57807  19787647.38407 -16188573.47749  19787644.25549
  -8966514.48006  21685696.29806  -6978977.09847  21685693.54447
 -12838577.37506  20822667.32906  -9995859.77348  20822664.74748
 -23014931.49607  19448848.21207 -17930270.50049  19448843.88049
 -21179990.83207  20157178.64207 -16498068.82448  20157175.81748
 -13190646.03507  20729452.48507 -10271899.23448  20729450.64248
 08 11 15  3  4 59.9970000  0  8  3  6  7  8 11 19 25 27
 -10706406.10507  20565723.46207  -8314680.02048  20565721.44248
    236158.52006  21844276.82106    195266.38747  21844275.75947
 -20794063.09407  19784765.34507 -16200376.74649  19784762.25549
  -9063129.32406  21667311.14206  -7054261.38347  21667308.78647
 -12942653.65606  20802862.09506 -10076958.13348  20802858.97048
 -22997412.53507  19452181.99307 -17916619.36349  19452177.70049
 -21154501.39807  20162029.47007 -16478206.93448  20162027.02148
 -13234318.44106  20721141.77406 -10305929.68848  20721139.70848
 08 11 15  3  5 29.9970000  0  8  3  6  7  8 11 19 25 27
 -10644969.65207  20577415.02407  -8266807.46948  20577413.01748
    301016.79706  21856618.66506    245805.26247  21856617.88847
 -20808601.22707  19781998.57107 -16211705.17649  19781996.02149
  -9159342.41406  21649002.21206  -7129232.61747  21649000.03247
 -13046407.48407  20783118.17307 -10157805.25448  20783115.31748
 -22979594.33607  19455572.76707 -17902735.05949  19455568.08749
 -21128498.87907  20166977.47007 -16457945.24648  20166975.04448
 -13277489.06306  20712926.93806 -10339569.12948  20712925.25548
 08 11 15  3  5 59.9970000  0  8  3  6  7  8 11 19 25 27
 -10583378.96907  20589135.22807  -8218814.73848  20589133.64248
    365938.30106  21868974.00906    296393.41847  21868971.89247
 -20822525.44107  19779348.82107 -16222555.21949  19779346.16949
  -9255146.61306  21630771.54006  -7203885.23447  21630769.43147
 -13149832.36306  20763437.46206 -10238396.04748  20763434.04048
 -22961473.68807  19459021.47807 -17888615.09049  19459016.58749
 -21101979.99207  20172023.68807 -16437281.19148  20172021.32148
 -13320152.05906  20704808.31306 -10372813.02748  20704806.57948
 08 11 15  3  6 29.9970000  0  8  3  6  7  8 11 19 25 27
 -10521634.63707  20600884.65707  -8170702.29748  20600883.04448
    430923.04306  21881339.89906    347030.84447  21881338.68147
 -20835834.58607  19776816.20407 -16232925.99249  19776813.62249
  -9350538.26206  21612619.36006  -7278216.37547  21612616.65747
 -13252924.84806  20743818.68106 -10318727.81648  20743816.70048
 -22943051.28907  19462527.26707 -17874259.98049  19462522.56349
 -21074945.09407  20177168.40707 -16416215.03548  20177166.13048
 -13362305.42206  20696787.00106 -10405659.80548  20696784.89648
 08 11 15  3  6 59.9970000  0  8  3  6  7  8 11 19 25 27
 -10459733.58207  20612663.74307  -8122467.72348  20612662.72048
    495974.29306  21893718.48506    397720.12547  21893717.52847
 -20848523.98007  19774401.55607 -16242813.84449  19774398.80249
  -9445509.96106  21594547.09506  -7352220.26247  21594544.63447
 -13355678.71107  20724265.84507 -10398795.72348  20724262.94648
 -22924324.36307  19466090.25907 -17859667.57849  19466085.78249
 -21047391.30507  20182411.62607 -16394744.56648  20182409.31348
 -13403943.55506  20688863.55606 -10438105.11748  20688861.47448
 08 11 15  3  7 29.9970000  0  8  3  6  7  8 11 19 25 27
 -10397681.15207  20624472.56307  -8074115.20348  20624470.84148
    561086.86706  21906109.05606    448457.17247  21906107.27847
 -20860597.83607  19772104.17307 -16252222.05149  19772101.29449
  -9540063.24206  21576553.49306  -7425898.15247  21576551.66947
 -13458095.86706  20704776.54806 -10478601.26648  20704773.64948
 -22905298.68807  19469710.94607 -17844842.38749  19469706.57949
 -21019324.11307  20187752.82107 -16372874.04348  20187750.39248
 -13445069.53507  20681037.09507 -10470151.33648  20681035.56348
 08 11 15  3  7 59.9970000  0  8  3  6  7  8 11 19 25 27
 -10335468.49207  20636311.27407  -8025637.82448  20636309.07548
    626269.95306  21918512.88406    499249.16047  21918511.46247
 -20872045.78107  19769925.16507 -16261142.53149  19769922.97449
  -9634185.11706  21558642.57106  -7499239.84447  21558640.01347
 -13560164.02706  20685353.31306 -10558134.87148  20685350.11048
 -22885965.60507  19473389.95407 -17829777.65649  19473385.54049
 -20990734.62107  20193192.99307 -16350596.52048  20193190.59148
 -13485671.76206  20673310.94606 -10501789.43048  20673309.00948
 08 11 15  3  8 29.9970000  0  8  3  6  7  8 11 19 25 27
 -10273105.25007  20648178.45407  -7977043.11748  20648176.37248
    691514.53506  21930928.29806    550089.03947  21930927.17747
 -20882875.78507  19767864.68807 -16269581.50449  19767861.34149
  -9727880.79706  21540812.72806  -7572249.46547  21540810.08747
 -13661889.14806  20665995.76706 -10637401.17248  20665992.45048
 -22866334.73807  19477125.52407 -17814480.89149  19477121.29049
 -20961632.55107  20198730.96207 -16327919.58648  20198728.49748
 -13525757.60907  20665683.24307 -10533025.17248  20665680.85648
 08 11 15  3  8 59.9970000  0  8  3  6  7  8 11 19 25 27
 -10210585.73807  20660075.53207  -7928326.62148  20660073.47848
    756826.48006  21943356.46206    600981.44147  21943355.70847
 -20893080.86307  19765922.51707 -16277533.52349  19765919.75549
  -9821140.21506  21523066.25906  -7644919.14847  21523064.02147
 -13763262.16407  20646705.07107 -10716393.10248  20646702.46648
 -22846400.76207  19480918.72007 -17798947.92649  19480914.05249
 -20932012.16807  20204367.47807 -16304838.78148  20204364.99348
 -13565318.74207  20658154.63407 -10563852.02748  20658153.21648
 08 11 15  3  9 29.9970000  0  8  3  6  7  8 11 19 25 27
 -10147914.07007  20672001.47807  -7879491.57848  20671999.67348
    822202.06306  21955797.93806    651923.41847  21955796.07147
 -20902663.89507  19764099.02407 -16285000.83649  19764096.48149
  -9913963.53506  21505402.25906  -7717249.01247  21505400.73547
 -13864283.84007  20627481.17307 -10795111.27048  20627478.46648
 -22826167.83207  19484768.99307 -17783182.00849  19484764.63449
 -20901877.75407  20210102.14907 -16281357.43048  20210099.91148
 -13604356.93406  20650726.19606 -10594271.40648  20650724.21648
 08 11 15  3  9 59.9970000  0  8  3  6  7  8 11 19 25 27
 -10085087.89807  20683956.93807  -7830536.13348  20683955.25948
    887644.21106  21968251.10306    702917.28947  21968250.03247
 -20911620.82807  19762394.53207 -16291980.26649  19762392.51349
 -10006344.08606  21487822.95406  -7789233.85247  21487821.07547
 -13964948.03506  20608325.29006 -10873550.87548  20608322.18148
 -22805633.91807  19488676.54807 -17767181.56349  19488672.06049
 -20871227.03907  20215934.75107 -16257473.77048  20215931.94648
 -13642867.57006  20643397.52406 -10624279.69948  20643395.88048
 08 11 15  3 10 29.9970000  0  8  3  6  7  8 11 19 25 27
 -10022110.27707  20695940.97807  -7781462.68048  20695939.50548
    953150.37106  21980716.34506    753961.00847  21980715.07947
 -20919953.23007  19760809.03207 -16298473.05949  19760806.45049
 -10098280.74206  21470327.86806  -7860872.78947  21470325.91947
 -14065254.29706  20589237.63406 -10951711.57848  20589234.31348
 -22784801.96907  19492640.84507 -17750948.87949  19492636.16149
 -20840063.02007  20221865.04807 -16233190.12548  20221862.32548
 -13680851.01607  20636169.90707 -10653877.19148  20636168.02448
 08 11 15  3 10 59.9970000  0  8  3  6  7  8 11 19 25 27
  -9958982.10506  20707954.04006  -7732271.91048  20707953.36448
   1018719.96906  21993193.87606    805054.18047  21993192.23947
 -20927660.95707  19759342.19607 -16304479.08649  19759339.82149
 -10189770.30506  21452918.37606  -7932163.34447  21452916.14947
 -14165200.07007  20570218.61007 -11029591.39848  20570215.23548
 -22763673.23007  19496661.13407 -17734484.93049  19496656.94249
 -20808386.79307  20227892.85307 -16208507.37148  20227890.70048
 -13718305.72707  20629042.47807 -10683062.68048  20629040.37648
 08 11 15  3 11 29.9970000  0  8  3  6  7  8 11 19 25 27
  -9895703.68006  20719995.97806  -7682964.07048  20719993.75148
   1084352.89806  22005683.36006    856196.71547  22005681.48547
 -20934742.86307  19757994.89907 -16309997.46949  19757992.07149
 -10280809.16407  21435594.24307  -8003102.71547  21435591.59947
 -14264782.49207  20551269.10307 -11107188.07848  20551265.88048
 -22742248.14507  19500738.36007 -17717790.06349  19500734.15349
 -20776199.00007  20234017.51707 -16183425.98848  20234015.68148
 -13755229.80507  20622016.01707 -10711834.69148  20622013.98148
 08 11 15  3 11 59.9960000  0  8  3  6  7  8 11 19 25 27
  -9832277.29707  20732064.85607  -7633540.93048  20732063.23848
   1150047.74606  22018184.05906    907387.46147  22018183.85647
 -20941197.71107  19756766.54307 -16315027.22749  19756763.59049
 -10371389.84406  21418357.57406  -8073685.06347  21418355.15647
 -14363994.66407  20532389.02707 -11184496.22748  20532386.48848
 -22720527.54707  19504871.84007 -17700864.93049  19504867.32449
 -20743500.60907  20240240.00407 -16157946.74248  20240237.52048
 -13791619.51607  20615091.39507 -10740190.30948  20615089.91448
 08 11 15  3 12 29.9960000  0  8  3  6  7  8 11 19 25 27
  -9768696.00407  20744164.40207  -7583997.10248  20744162.83248
   1215811.24206  22030698.90206    958631.71947  22030697.66847
 -20947021.97707  19755658.36307 -16319565.64549  19755655.67249
 -10461512.02306  21401207.07406  -8143910.13748  21401205.42648
 -14462837.50807  20513580.20707 -11261516.60948  20513576.89848
 -22698507.94107  19509062.05107 -17683706.80549  19509057.92649
 -20710287.66407  20246560.48807 -16132066.54348  20246557.54748
 -13827472.93807  20608268.12907 -10768128.03948  20608266.69148
 08 11 15  3 12 59.9960000  0  8  3  6  7  8 11 19 25 27
  -9704973.12907  20756290.57407  -7534342.94548  20756288.61748
   1281630.53906  22043224.50406   1009919.45747  22043222.58647
 -20952225.79707  19754668.19107 -16323620.57449  19754665.11349
 -10551180.03106  21384144.31606  -8213781.30147  21384142.56347
 -14561315.75407  20494840.37107 -11338252.87548  20494837.64148
 -22676201.76207  19513306.71507 -17666325.38349  19513302.26649
 -20676572.65207  20252976.23107 -16105795.10548  20252973.51248
 -13862797.76607  20601545.83207 -10795653.89148  20601544.87548
 08 11 15  3 13 29.9960000  0  8  3  6  7  8 11 19 25 27
  -9641107.93006  20768443.19906  -7484577.87548  20768442.09048
   1347507.11706  22055760.61306   1061251.83647  22055758.74247
 -20956806.96107  19753796.02007 -16327190.30549  19753793.21549
 -10640388.87506  21367167.98806  -8283294.68447  21367166.59447
 -14659425.17207  20476170.56607 -11414701.74248  20476168.36748
 -22653608.22307  19517606.29307 -17648720.02049  19517601.82049
 -20642354.96107  20259487.62907 -16079131.98448  20259485.23848
 -13897590.77707  20594925.37107 -10822765.33648  20594923.99248
 08 11 15  3 13 59.9960000  0  8  3  6  7  8 11 19 25 27
  -9577105.44506  20780623.16006  -7434705.83248  20780621.23448
   1413436.24206  22068305.84006   1112625.15647  22068305.61747
 -20960769.52007  19753042.15207 -16330278.02049  19753039.16449
 -10729139.11706  21350279.48106  -8352450.71147  21350278.10947
 -14757167.15207  20457571.06607 -11490864.29748  20457568.25848
 -22630732.29707  19521959.01207 -17630894.63349  19521954.93849
 -20607639.73007  20266093.23807 -16052081.16448  20266091.07048
 -13931854.60507  20588405.21507 -10849464.42248  20588403.37548
 08 11 15  3 14 29.9960000  0  8  3  6  7  8 11 19 25 27
  -9512959.39506  20792829.94906  -7384721.92248  20792827.84048
   1479424.61706  22080862.87906   1164044.60547  22080862.56647
 -20964106.02307  19752407.23807 -16332877.90649  19752404.20749
 -10817420.91006  21333479.97306  -8421241.70748  21333478.02048
 -14854531.99207  20439043.24607 -11566732.99648  20439040.12148
 -22607568.10907  19526367.17607 -17612844.62549  19526363.06349
 -20572421.22707  20272795.42607 -16024638.19548  20272792.92248
 -13965580.93807  20581987.69907 -10875744.69948  20581985.31348
 08 11 15  3 14 59.9960000  0  8  3  6  7  8 11 19 25 27
  -9448668.96106  20805063.82406  -7334625.48848  20805062.21548
   1545473.27306  22093432.01206   1215511.08247  22093430.17647
 -20966814.91007  19751891.87107 -16334988.73049  19751888.98149
 -10905229.43006  21316770.87106  -8489663.91848  21316769.30548
 -14951516.02007  20420587.62907 -11642304.94548  20420585.11348
 -22584115.32407  19530830.02707 -17594569.73849  19530826.24249
 -20536699.21907  20279592.91007 -15996802.85248  20279591.14848
 -13998767.07007  20575672.69907 -10901604.01648  20575670.68448
 08 11 15  3 15 29.9960000  0  8  3  6  7  8 11 19 25 27
  -9384240.17606  20817324.33206  -7284421.27748  20817322.06648
   1611576.48406  22106009.79306   1267020.03547  22106010.08647
 -20968901.01207  19751494.69907 -16336614.27349  19751492.05549
 -10992566.45306  21300151.98106  -8557718.73048  21300149.96148
 -15048121.90207  20402204.41807 -11717582.25048  20402200.98848
 -22560380.05507  19535346.67607 -17576074.73049  19535342.52049
 -20500479.95707  20286485.48807 -15968580.07848  20286483.38348
 -14031416.72707  20569459.16807 -10927045.32048  20569457.50448
 08 11 15  3 15 59.9960000  0  8  3  6  7  8 11 19 25 27
  -9319670.60506  20829611.52706  -7234107.33248  20829609.37548
   1677737.21106  22118600.67606   1318573.80947  22118599.06347
 -20970360.98807  19751216.86307 -16337751.91849  19751214.32449
 -11079426.11306  21283622.61306  -8625401.57048  21283620.48448
 -15144343.96507  20383893.78507 -11792560.46948  20383890.91848
 -22536360.19107  19539917.63707 -17557357.95749  19539913.04349
 -20463761.56607  20293472.73107 -15939968.35548  20293470.23448
 -14063525.57806  20563349.37906 -10952065.20748  20563347.83648
 08 11 15  3 16 29.9960000  0  8  3  6  7  8 11 19 25 27
  -9254965.69506  20841924.19906  -7183687.95748  20841921.87548
   1743950.41006  22131200.99606   1370168.46147  22131199.60247
 -20971199.34807  19751057.73107 -16338405.19949  19751054.57049
 -11165809.64506  21267184.15206  -8692713.41048  21267181.42648
 -15240184.39107  20365656.05907 -11867241.30948  20365653.18848
 -22512061.57807  19544541.36307 -17538423.98449  19544537.29349
 -20426549.72307  20300553.74607 -15910972.13348  20300551.60648
 -14095096.71907  20557341.25407 -10976666.11748  20557339.41048
 08 11 15  3 16 59.9960000  0  8  3  6  7  8 11 19 25 27
  -9190128.56606  20854262.59006  -7133165.53947  20854260.66847
   1810213.43806  22143809.83206   1421801.93847  22143809.03147
 -20971418.06307  19751016.02007 -16338575.63749  19751013.07049
 -11251715.76206  21250836.52006  -8759653.23448  21250834.81348
 -15335642.78907  20347490.78507 -11941624.46548  20347488.20348
 -22487487.41407  19549217.98107 -17519275.30149  19549213.74249
 -20388848.18807  20307728.29307 -15881594.32848  20307726.26648
 -14126131.44907  20551435.66007 -11000849.03148  20551434.24648
 08 11 15  3 17 29.9960000  0  8  3  6  7  8 11 19 25 27
  -9125152.25406  20866626.70706  -7082534.66047  20866625.41447
   1876533.44106  22156430.52706   1473479.79747  22156430.01647
 -20971009.55107  19751093.36307 -16338257.32049  19751090.87549
 -11337134.05506  21234581.97306  -8826212.93048  21234580.17248
 -15430709.35907  20329399.98107 -12015702.30148  20329397.71948
 -22462631.30507  19553947.89507 -17499906.91449  19553943.66849
 -20350650.37907  20314997.46507 -15851829.82848  20314995.07448
 -14156620.73407  20545633.76207 -11024606.92248  20545632.81348
 08 11 15  3 17 59.9960000  0  8  3  6  7  8 11 19 25 27
  -9060044.50006  20879015.92606  -7031801.36348  20879014.28948
   1942903.10206  22169061.05106   1525196.36347  22169059.58247
 -20969980.97707  19751289.05907 -16337455.83649  19751286.51649
 -11422068.55906  21218419.73806  -8892395.65647  21218418.23147
 -15525388.88307  20311383.36307 -12089478.54348  20311381.13348
 -22437500.94107  19558730.27707 -17480324.81649  19558725.90649
 -20311964.93807  20322358.94107 -15821685.33648  20322356.82448
 -14186570.61306  20539934.59006 -11047944.50448  20539933.05148
 08 11 15  3 18 29.9960000  0  8  3  6  7  8 11 19 25 27
  -8994808.13706  20891430.69106  -6980967.85948  20891429.44148
   2009320.03106  22181699.35606   1576949.78947  22181698.59847
 -20968334.00807  19751602.48807 -16336172.49649  19751599.77349
 -11506517.70706  21202349.56606  -8958200.19148  21202347.69948
 -15619680.36307  20293440.07407 -12162952.42248  20293437.93048
 -22412099.44907  19563563.49607 -17460531.45749  19563559.36349
 -20272794.87107  20329812.53507 -15791163.22748  20329810.26648
 -14215981.57807  20534338.00407 -11070862.14848  20534335.92648
 08 11 15  3 18 59.9960000  0  8  3  6  7  8 11 19 25 27
  -8929443.85506  20903869.05906  -6930034.68848  20903867.24648
   2075783.95706  22194346.62106   1628739.80547  22194346.07847
 -20966068.96107  19752033.19907 -16334407.52748  19752030.71948
 -11590478.84006  21186372.06606  -9023624.43048  21186370.61748
 -15713582.07007  20275571.28507 -12236122.56648  20275568.82448
 -22386428.44507  19568448.74607 -17440528.08649  19568444.50049
 -20233141.73807  20337358.23107 -15760264.69148  20337355.81348
 -14244852.56607  20528843.61307 -11093359.02348  20528842.03948
 08 11 15  3 19 29.9960000  0  8  3  6  7  8 11 19 25 27
  -8863951.57806  20916331.80106  -6879001.78148  20916330.24248
   2142295.34406  22207003.84006   1680566.80947  22207002.76647
 -20963184.62107  19752582.20707 -16332160.00849  19752579.52749
 -11673947.53906  21170488.22306  -9088664.98048  21170487.01248
 -15807090.32007  20257777.23807 -12308986.12548  20257773.89548
 -22360487.63707  19573384.68407 -17420314.47749  19573380.71949
 -20193005.87107  20344995.91007 -15728990.00848  20344993.52348
 -14273181.34807  20523453.09807 -11115433.40648  20523451.18448
 08 11 15  3 19 59.9960000  0  8  3  6  7  8 11 19 25 27
  -8798330.37906  20928819.69906  -6827868.41048  20928817.79348
   2208855.90606  22219669.14506   1732432.15647  22219668.77347
 -20959679.33607  19753249.73107 -16329428.64548  19753246.68048
 -11756919.25806  21154699.63706  -9153318.25448  21154697.96948
 -15900200.30507  20240059.29307 -12381539.34848  20240055.79348
 -22334275.90207  19578373.24607 -17399889.76249  19578368.87949
 -20152386.72307  20352725.07407 -15697338.73048  20352723.00048
 -14300965.11306  20518165.91006 -11137083.09448  20518164.04748
 08 11 15  3 20 29.9960000  0  8  3  6  7  8 11 19 25 27
  -8732583.32806  20941330.84006  -6776636.95348  20941328.70348
   2275462.40206  22232344.55906   1784333.23447  22232343.32047
 -20955555.55907  19754034.31607 -16326215.30549  19754031.63749
 -11839393.49206  21139005.32406  -9217583.88348  21139003.81648
 -15992912.96507  20222416.21507 -12453782.96548  20222413.11748
 -22307797.09007  19583411.84807 -17379256.93449  19583407.94149
 -20111288.60907  20360546.19107 -15665314.27048  20360543.73148
 -14328205.56307  20512982.27007 -11158309.43048  20512980.43048
 08 11 15  3 20 59.9960000  0  8  3  6  7  8 11 19 25 27
  -8666713.34006  20953865.49606  -6725309.72348  20953864.11748
   2342112.48405  22245027.37105   1836268.31347  22245026.11747
 -20950815.97307  19754936.23807 -16322522.12949  19754933.16049
 -11921369.25406  21123405.66806  -9281461.09448  21123403.68048
 -16085228.08607  20204849.45707 -12525716.82048  20204846.72748
 -22281054.44107  19588500.63707 -17358418.51649  19588496.14149
 -20069714.82007  20368457.85607 -15632919.12548  20368455.40248
 -14354903.38707  20507901.55107 -11179112.93048  20507899.91448
 08 11 15  3 21 29.9960000  0  8  3  6  7  8 11 19 25 27
  -8600720.49606  20966423.37106  -6673886.77748  20966421.91848
   2408806.78505  22257718.20705   1888237.81647  22257717.98147
 -20945459.71107  19755955.27007 -16318348.43048  19755952.88348
 -12002842.41406  21107901.68406  -9344946.66848  21107899.10248
 -16177142.52007  20187358.57407 -12597338.44948  20187356.05948
 -22254048.30507  19593639.86307 -17337374.78949  19593635.58649
 -20027665.94107  20376459.20707 -15600153.79348  20376456.62148
 -14381056.87107  20502925.11307 -11199492.27348  20502923.61348
 08 11 15  3 21 59.9960000  0  8  3  6  7  8 11 19 25 27
  -8534609.49206  20979003.76206  -6622371.73848  20979001.73148
   2475540.38306  22270418.19106   1940237.98047  22270416.83647
 -20939491.09407  19757091.19107 -16313697.56348  19757088.44548
 -12083814.47706  21092493.31606  -9408041.77348  21092490.87148
 -16268658.04707  20169943.83207 -12668649.23848  20169940.53148
 -22226784.00407  19598828.50407 -17316129.88349  19598823.77749
 -19985147.80107  20384550.19107 -15567022.78948  20384547.87548
 -14406669.31306  20498051.21506 -11219450.02748  20498049.25048
 08 11 15  3 22 29.9960000  0  8  3  6  7  8 11 19 25 27
  -8468378.93406  20991606.66806  -6570763.53948  20991605.43048
   2542315.51205  22283124.66005   1992270.50047  22283123.78547
 -20932908.07007  19758343.93407 -16308567.94148  19758341.02748
 -12164280.17207  21077181.06607  -9470742.31648  21077179.31348
 -16359770.27007  20152605.67607 -12739645.77048  20152602.03148
 -22199260.52707  19604065.59007 -17294683.02349  19604061.64149
 -19942159.55107  20392730.35607 -15533525.46548  20392728.27348
 -14431737.37107  20493281.01207 -11238983.58248  20493278.90248
 08 11 15  3 22 59.9960000  0  8  3  6  7  8 11 19 25 27
  -8402026.33206  21004233.48806  -6519060.25848  21004232.10248
   2609134.55505  22295840.32405   2044337.25847  22295839.56347
 -20925708.10207  19759714.22307 -16302957.57849  19759711.41849
 -12244233.48407  21061966.86307  -9533043.58648  21061964.77748
 -16450474.10207  20135345.24607 -12810324.06648  20135342.19148
 -22171475.54307  19609352.89507 -17273032.40249  19609349.05149
 -19898699.92207  20401000.15207 -15499660.81648  20400998.15648
 -14456257.11307  20488614.76207 -11258089.88348  20488613.08648
 08 11 15  3 23 29.9960000  0  8  3  6  7  8 11 19 25 27
  -8335558.37106  21016881.54306  -6467267.07448  21016880.13348
   2675991.68405  22308562.94905   2096433.64847  22308561.66447
 -20917897.13707  19761200.41807 -16296871.11749  19761197.91449
 -12323677.02306  21046849.48806  -9594947.64548  21046847.31648
 -16540772.68007  20118162.02707 -12880686.58248  20118159.02048
 -22143436.16807  19614688.61307 -17251183.54749  19614684.42649
 -19854776.07807  20409358.94907 -15465434.44948  20409356.73148
 -14480233.53907  20484052.46507 -11276772.82048  20484050.71948
 08 11 15  3 23 59.9960000  0  8  3  6  7  8 11 19 25 27
  -8268976.03106  21029552.15206  -6415384.77348  21029550.64148
   2742886.08206  22321292.76206   2148559.10247  22321292.27747
 -20909475.84807  19762802.94907 -16290309.09449  19762800.48849
 -12402608.64507  21031828.77007  -9656452.78948  21031826.78948
 -16630664.21107  20101056.37107 -12950731.90248  20101053.65648
 -22115143.55507  19620072.36307 -17229137.36349  19620068.56649
 -19810389.83607  20417805.09807 -15430847.79748  20417803.06648
 -14503665.88307  20479593.97307 -11295031.79748  20479591.82048
 08 11 15  3 24 29.9960000  0  8  3  6  7  8 11 19 25 27
  -8202285.94906  21042243.21506  -6363418.50848  21042241.91848
   2809811.86306  22334028.34006   2200709.02047  22334027.60947
 -20900450.16407  19764520.31607 -16283276.10249  19764518.07849
 -12481030.97707  21016905.62107  -9717561.07448  21016903.52048
 -16720151.90207  20084027.45707 -13020462.57848  20084023.99648
 -22086604.62507  19625503.28507 -17206899.23849  19625499.20349
 -19765548.57407  20426338.34007 -15395906.57048  20426336.43048
 -14526558.98007  20475237.37107 -11312870.57448  20475234.93848
 08 11 15  3 24 59.9960000  0  8  3  6  7  8 11 19 25 27
  -8135482.59806  21054955.46506  -6311363.99248  21054953.92248
   2876774.87506  22346770.87906   2252887.97347  22346769.30947
 -20890814.36707  19766354.39507 -16275767.69149  19766351.77349
 -12558934.75407  21002080.62107  -9778265.30948  21002079.32048
 -16809227.66007  20067077.30907 -13089872.26248  20067074.21148
 -22057814.23007  19630982.01207 -17184465.17249  19630977.88349
 -19720247.52307  20434959.15207 -15360607.07448  20434956.89548
 -14548905.55507  20470984.68407 -11330283.49648  20470983.02048
 08 11 15  3 25 29.9960000  0  8  3  6  7  8 11 19 25 27
  -8068571.80906  21067688.07406  -6259225.75448  21067686.50848
   2943769.45705  22359519.09805   2305091.48447  22359517.97747
 -20880573.72707  19768302.83207 -16267787.97749  19768300.38749
 -12636322.39806  20987354.72306  -9838567.37148  20987352.53548
 -16897894.41807  20050204.22307 -13158963.20748  20050201.50448
 -22028778.35507  19636507.31607 -17161839.82449  19636503.09449
 -19674493.68807  20443665.65207 -15324954.75048  20443663.67248
 -14570710.23407  20466835.36307 -11347274.15648  20466833.95348
 08 11 15  3 25 59.9960000  0  8  3  6  7  8 11 19 25 27
  -8001544.27306  21080442.74606  -6206996.57048  21080441.47748
   3010805.35206  22372276.73106   2357327.23047  22372274.55147
 -20869719.30907  19770368.43407 -16259329.99648  19770365.68448
 -12713180.92606  20972728.98806  -9898457.12548  20972726.63348
 -16986140.09807  20033411.73107 -13227726.06648  20033408.94948
 -21999488.35507  19642080.94907 -17139016.45749  19642077.09849
 -19628278.65207  20452460.02007 -15288943.03948  20452457.89548
 -14591962.48407  20462791.09007 -11363834.36348  20462789.25848
 08 11 15  3 26 29.9960000  0  8  3  6  7  8 11 19 25 27
  -7934408.71506  21093218.59006  -6154683.18448  21093216.97348
   3077874.27706  22385038.90206   2409588.67647  22385038.32447
 -20858259.04707  19772548.91807 -16250399.93048  19772546.29748
 -12789515.32007  20958202.55107  -9957938.46948  20958201.01648
 -17073970.51207  20016698.03507 -13296165.33648  20016695.05548
 -21969953.35907  19647701.52707 -17116002.18449  19647697.14149
 -19581612.05907  20461340.14507 -15252579.46948  20461338.64148
 -14612669.43007  20458850.82407 -11379969.64148  20458849.09048
 08 11 15  3 26 59.9960000  0  8  3  6  7  8 11 19 25 27
  -7867167.00406  21106013.38706  -6102287.05947  21106012.37547
   3144974.68006  22397807.68406   2461874.66047  22397807.18047
 -20846194.61307  19774845.06607 -16240999.08649  19774841.92649
 -12865324.16406  20943777.25406 -10017010.28948  20943774.94148
 -17161384.78107  20000063.38707 -13364280.34448  20000060.26248
 -21940175.70307  19653368.35607 -17092798.82849  19653363.84049
 -19534496.89507  20470306.48107 -15215866.37948  20470304.14148
 -14632831.37907  20455013.87907 -11395680.25848  20455012.44148
 08 11 15  3 27 29.9960000  0  8  3  6  7  8 11 19 25 27
  -7799821.72306  21118829.54306  -6049810.25047  21118828.19547
   3212104.28106  22410581.65206   2514183.40647  22410581.34847
 -20833528.86307  19777254.88707 -16231129.68448  19777252.55148
 -12940606.86707  20929451.74607 -10075672.14148  20929449.33248
 -17248382.59007  19983508.20707 -13432070.83248  19983505.46148
 -21910158.25007  19659080.06607 -17069408.62149  19659076.21949
 -19486936.68807  20479357.11307 -15178806.49648  20479354.52748
 -14652449.49607  20451280.51207 -11410967.09048  20451279.05148
 08 11 15  3 27 59.9960000  0  8  3  6  7  8 11 19 25 27
  -7732364.97706  21131665.60606  -5997246.58647  21131664.46547
   3279271.53106  22423363.60606   2566521.47347  22423363.22347
 -20820253.55907  19779781.77707 -16220785.29749  19779778.44949
 -13015351.82806  20915227.74606 -10133914.96148  20915226.10648
 -17334953.19107  19967034.31607 -13499528.42648  19967031.39548
 -21879893.54707  19664839.23107 -17045825.74249  19664834.78549
 -19438924.52707  20488492.97307 -15141394.43848  20488490.92248
 -14671514.44507  20447652.87907 -11425822.90248  20447651.46948
 08 11 15  3 28 29.9960000  0  8  3  6  7  8 11 19 25 27
  -7664805.71506  21144522.09806  -5944603.02047  21144520.80547
   3346467.54306  22436151.15206   2618881.97747  22436149.40647
 -20806377.69907  19782421.82407 -16209972.95349  19782419.28949
 -13089564.77706  20901105.47306 -10191743.21548  20901103.71148
 -17421102.83207  19950640.91807 -13566658.01648  19950637.68848
 -21849390.87507  19670643.89507 -17022057.43849  19670639.20349
 -19390470.59807  20497713.43407 -15103638.14548  20497711.31648
 -14690034.00007  20444129.00407 -11440253.73448  20444127.00048
 08 11 15  3 28 59.9960000  0  8  3  6  7  8 11 19 25 27
  -7597149.77006  21157396.86306  -5891884.13347  21157395.03947
   3413687.56606  22448942.03506   2671261.19547  22448941.44547
 -20791906.48007  19785175.91007 -16198696.69549  19785173.09849
 -13163247.34006  20887084.02006 -10249158.19148  20887082.76248
 -17506834.16007  19934326.58207 -13633461.63748  19934323.79748
 -21818655.96107  19676492.46507 -16998108.16049  19676488.14149
 -19341581.24207  20507017.12107 -15065542.56648  20507014.34048
 -14708012.02007  20440707.49607 -11454262.58648  20440705.55948
 08 11 15  3 29 29.9960000  0  8  3  6  7  8 11 19 25 27
  -7529388.59807  21170291.37107  -5839083.24247  21170290.86747
   3480940.09806  22461740.38706   2723665.71947  22461738.95747
 -20776831.70707  19788044.14507 -16186950.13348  19788041.81648
 -13236387.91806  20873166.17606 -10306150.84448  20873164.46548
 -17592136.30507  19918094.39507 -13699930.82848  19918091.16048
 -21787681.07407  19682386.74607 -16973971.91449  19682382.51649
 -19292249.31307  20516404.73107 -15027102.11348  20516401.65648
 -14725439.22707  20437391.61307 -11467842.23048  20437389.77348
 08 11 15  3 29 59.9960000  0  8  3  6  7  8 11 19 25 27
  -7461532.73006  21183204.02006  -5786208.58647  21183202.41847
   3548214.99605  22474542.11305   2776087.69147  22474539.42247
 -20761163.84007  19791025.75407 -16174741.41048  19791023.39848
 -13308993.93406  20859348.94906 -10362726.96148  20859347.43448
 -17677017.18407  19901942.09807 -13766071.76648  19901938.88348
 -21756476.97707  19688324.70707 -16949657.04349  19688320.15649
 -19242486.69107  20525874.25407 -14988326.06348  20525872.06648
 -14742324.78107  20434178.33207 -11480999.81348  20434176.45748
 08 11 15  3 30 29.9960000  0  8  3  6  7  8 11 19 25 27
  -7393570.73406  21196136.74606  -5733251.21147  21196135.34847
   3615523.61705  22487350.69105   2828535.93847  22487348.78547
 -20744891.96507  19794122.41807 -16162062.03548  19794119.18048
 -13381050.81306  20845637.35606 -10418875.16048  20845635.93448
 -17761462.78507  19885872.33207 -13831873.51248  19885869.41848
 -21725033.36307  19694308.32407 -16925155.53949  19694303.89149
 -19192283.34007  20535427.66007 -14949206.57848  20535426.12548
 -14758656.32007  20431070.84007 -11493725.70348  20431068.54748
 08 11 15  3 30 59.9960000  0  8  3  6  7  8 11 19 25 27
  -7325508.68806  21209088.37106  -5680215.87947  21209087.24247
   3682861.12105  22500163.87105   2881006.66047  22500163.18047
 -20728021.18407  19797332.52007 -16148915.98048  19797329.59448
 -13452560.47706  20832029.64506 -10474596.96548  20832027.58248
 -17845475.56607  19869885.16007 -13897338.01648  19869882.08248
 -21693356.00807  19700336.27007 -16900471.89549  19700332.14549
 -19141645.71507  20545063.04307 -14909748.70748  20545061.99248
 -14774437.96907  20428067.30907 -11506023.10548  20428066.10248
 08 11 15  3 31 29.9960000  0  8  3  6  7  8 11 19 25 27
  -7257355.39106  21222057.23806  -5627109.45347  21222056.28147
   3750218.65205  22512981.85605   2933493.00847  22512981.77747
 -20710561.09807  19800655.39507 -16135310.73048  19800652.02048
 -13523528.66006  20818524.60606 -10529896.84848  20818522.69948
 -17929062.75007  19853979.16007 -13962470.87948  19853976.67648
 -21661454.04307  19706406.96507 -16875613.23849  19706402.97349
 -19090584.21907  20554779.78507 -14869960.56648  20554778.28948
 -14789677.84807  20425167.44907 -11517898.34848  20425165.34448
 08 11 15  3 31 59.9960000  0  8  3  6  7  8 11 19 25 27
  -7189100.39806  21235046.17606  -5573923.77747  21235044.96947
   3817606.92205  22525805.43405   2986003.26647  22525804.49247
 -20692501.47307  19804092.05107 -16121238.31349  19804089.11349
 -13593942.13706  20805125.73806 -10584764.48848  20805123.55548
 -18012210.95707  19838156.52707 -14027261.68048  19838154.32448
 -21629317.69907  19712522.29307 -16850571.94549  19712517.70349
 -19039089.87107  20564578.88707 -14829835.11348  20564577.14848
 -14804364.53507  20422372.48807 -11529342.52748  20422370.33648
 08 11 15  3 32 29.9960000  0  8  3  6  7  8 11 19 25 27
  -7120746.19906  21248053.22306  -5520660.77047  21248051.80947
   3885024.05505  22538634.60605   3038536.05947  22538633.46147
 -20673844.86707  19807642.28507 -16106700.68849  19807639.73849
 -13663799.91406  20791832.11306 -10639199.11348  20791830.57848
 -18094919.91007  19822417.61307 -14091710.20748  19822414.70748
 -21596949.95307  19718681.88707 -16825350.35249  19718677.25449
 -18987166.10907  20574459.73807 -14789375.03148  20574457.62548
 -14818499.22707  20419682.65207 -11540356.58248  20419681.07848
 08 11 15  3 32 59.9960000  0  8  3  6  7  8 11 19 25 27
  -7052294.82406  21261079.52006  -5467322.07047  21261077.68047
   3952468.07805  22551469.21505   3091089.78147  22551467.18447
 -20654593.36707  19811305.57407 -16091699.52749  19811302.96549
 -13733100.73406  20778644.30106 -10693199.75448  20778642.78548
 -18177189.14107  19806762.54307 -14155816.09448  19806758.90648
 -21564353.38307  19724884.91007 -16799950.43049  19724880.34849
 -18934816.41007  20584421.95707 -14748583.07848  20584419.95348
 -14832083.15607  20417097.80107 -11550941.46548  20417096.25048
 08 11 15  3 33 29.9960000  0  8  3  6  7  8 11 19 25 27
  -6983754.78106  21274121.53506  -5413914.25847  21274121.50847
   4019931.33205  22564306.27005   3143658.52347  22564305.69947
 -20634755.61307  19815080.84807 -16076241.54748  19815077.87148
 -13801849.70706  20765562.09806 -10746770.38748  20765560.31648
 -18259024.49207  19791189.08207 -14219583.89148  19791186.30148
 -21531536.46507  19731129.44107 -16774378.82049  19731125.12149
 -18882050.14507  20594462.86307 -14707466.54348  20594461.26248
 -14845123.25407  20414616.37907 -11561102.59448  20414614.27748
 08 11 15  3 33 59.9960000  0  8  3  6  7  8 11 19 25 27
  -6915119.97706  21287182.95706  -5360432.63747  21287181.14547
   4087420.05105  22577149.92605   3196247.09047  22577149.11347
 -20614325.89507  19818968.02007 -16060322.27348  19818965.60248
 -13870037.49206  20752586.09806 -10799903.72748  20752584.59448
 -18340417.36307  19775700.70707 -14283006.89548  19775697.54348
 -21498493.62507  19737417.30107 -16748631.16849  19737413.29349
 -18828862.59807  20604584.12107 -14666021.72348  20604582.18848
 -14857612.52007  20412239.78507 -11570834.48848  20412237.65248
 08 11 15  3 34 29.9960000  0  8  3  6  7  8 11 19 25 27
  -6846389.94506  21300261.99606  -5306876.81647  21300260.55947
   4154934.80505  22589996.78505   3248855.93846  22589996.56646
 -20593304.18407  19822968.44907 -16043941.73049  19822966.11349
 -13937660.57006  20739717.85606 -10852597.03548  20739715.89548
 -18421364.91807  19760297.37107 -14346082.91048  19760294.20348
 -21465224.85207  19743748.58207 -16722707.46149  19743744.29749
 -18775255.06607  20614785.35607 -14624249.62948  20614782.50048
 -14869549.75807  20409968.42607 -11580136.25448  20409966.74648
 08 11 15  3 34 59.9960000  0  8  3  6  7  8 11 19 25 27
  -6777566.80506  21313358.28506  -5253248.46147  21313357.33647
   4222474.57405  22602848.87905   3301484.27746  22602848.66446
 -20571692.47307  19827081.17607 -16027101.43049  19827078.64149
 -14004717.84006  20726957.76206 -10904849.44948  20726955.50448
 -18501866.18007  19744978.19907 -14408811.15248  19744975.53948
 -21431732.67607  19750121.63707 -16696609.66049  19750117.18049
 -18721230.35207  20625066.02707 -14582152.45348  20625063.41048
 -14880935.53907  20407801.05107 -11589008.30548  20407799.75448
 08 11 15  3 35 29.9960000  0  8  3  6  7  8 11 19 25 27
  -6708648.45306  21326473.30106  -5199545.87147  21326471.89847
   4290041.37506  22615707.02006   3354133.73846  22615706.23446
 -20549489.34407  19831306.27707 -16009800.29748  19831303.44548
 -14071204.06606  20714305.56606 -10956656.89148  20714303.99648
 -18581917.07007  19729744.81607 -14471188.46548  19729741.93048
 -21398015.34407  19756537.53507 -16670336.41449  19756533.73149
 -18666788.01606  20635425.81606 -14539729.87948  20635424.00448
 -14891766.98407  20405740.41007 -11597448.40248  20405738.60948
 08 11 15  3 35 59.9960000  0  8  3  6  7  8 11 19 25 27
  -6639632.75006  21339606.66006  -5145767.43047  21339605.35647
   4357637.81306  22628569.84006   3406806.21947  22628569.77347
 -20526693.25807  19835644.56607 -15992037.12549  19835641.11749
 -14137114.15206  20701763.46506 -11008015.40648  20701762.15248
 -18661512.87507  19714598.45707 -14533211.16848  19714595.44548
 -21364071.25007  19762997.27007 -16643886.49649  19762993.40249
 -18611927.41007  20645865.80907 -14496981.38748  20645863.74648
 -14902041.13307  20403785.36307 -11605454.24648  20403783.40248
 08 11 15  3 36 29.9960000  0  8  3  6  7  8 11 19 25 27
  -6570531.99606  21352755.75406  -5091922.73847  21352755.33247
   4425251.94106  22641436.81606   3459492.51647  22641435.98147
 -20503316.39807  19840092.88707 -15973821.40648  19840090.00848
 -14202457.48006  20689328.59806 -11058932.27348  20689327.72748
 -18740663.44907  19699536.62107 -14594886.93448  19699533.99248
 -21329913.12507  19769497.30907 -16617269.77049  19769493.44549
 -18556662.09807  20656382.48107 -14453917.52748  20656380.19948
 -14911769.59007  20401933.95707 -11613034.87548  20401932.04348
 08 11 15  3 36 59.9960000  0  8  3  6  7  8 11 19 25 27
  -6501340.98406  21365922.53506  -5038007.70347  21365921.27047
   4492888.94106  22654308.33206   3512196.61747  22654307.20347
 -20479354.84407  19844652.66007 -15955150.07449  19844650.16849
 -14267226.00806  20677003.82406 -11109401.26648  20677001.80948
 -18819361.48007  19684560.70707 -14656210.06348  19684557.46548
 -21295536.57807  19776039.04307 -16590482.85949  19776034.41049
 -18500988.71507  20666976.60607 -14410535.69548  20666974.15248
 -14920946.68407  20400187.87107 -11620185.87148  20400186.12148
 08 11 15  3 37 29.9960000  0  8  3  6  7  8 11 19 25 27
  -6432070.92206  21379104.48106  -4984031.06647  21379102.77047
   4560538.50006  22667181.27706   3564910.49246  22667179.63746
 -20454819.38307  19849321.72307 -15936031.54349  19849318.98449
 -14331427.52706  20664786.36306 -11159428.41448  20664785.20348
 -18897615.33207  19669669.40207 -14717187.09048  19669666.46948
 -21260952.73007  19782619.87907 -16563534.40648  19782615.37948
 -18444919.42607  20677646.50407 -14366845.35548  20677643.57048
 -14929582.30907  20398544.68407 -11626914.93848  20398542.55548
 08 11 15  3 37 59.9960000  0  8  3  6  7  8 11 19 25 27
  -6362719.89106  21392301.48106  -4929991.34847  21392300.16047
   4628202.99605  22680056.34805   3617636.02746  22680056.02046
 -20429708.68807  19854099.73807 -15916464.80549  19854097.33249
 -14395057.03906  20652678.42606 -11209009.84048  20652676.54348
 -18975420.69107  19654863.93407 -14777814.64848  19654860.54348
 -21226160.39107  19789240.72307 -16536423.50049  19789236.28949
 -18388453.65207  20688391.64507 -14322846.08248  20688389.00048
 -14937673.45307  20397004.94907 -11633219.74248  20397002.98848
 08 11 15  3 38 29.9960000  0  8  3  6  7  8 11 19 25 27
  -6293286.55906  21405513.84806  -4875887.49647  21405512.75847
   4695883.69906  22692935.71506   3670374.18446  22692935.32046
 -20404022.57407  19858987.75407 -15896449.65649  19858984.71549
 -14458110.52006  20640679.78506 -11258142.42648  20640678.00448
 -19052774.12507  19640143.55107 -14838090.03549  19640141.23849
 -21191158.45707  19795901.27707 -16509149.27049  19795897.22749
 -18331591.93406  20699211.85606 -14278538.26648  20699209.93848
 -14945218.47707  20395569.11307 -11639098.98848  20395567.59448
 08 11 15  3 38 59.9960000  0  8  3  6  7  8 11 19 25 27
  -6223776.02306  21418741.84006  -4821723.48847  21418740.50847
   4763576.49606  22705818.52006   3723121.74646  22705816.44546
 -20377766.11307  19863984.09007 -15875990.07448  19863981.37948
 -14520589.45706  20628790.05106 -11306827.31348  20628788.57848
 -19129678.06607  19625509.30907 -14898015.18048  19625506.58248
 -21155952.00407  19802600.69107 -16481715.68449  19802596.68049
 -18274340.37107  20710106.50407 -14233926.68048  20710104.24248
 -14952221.46507  20394236.27007 -11644555.87148  20394234.29748
 08 11 15  3 39 29.9960000  0  8  3  6  7  8 11 19 25 27
  -6154177.93406  21431985.41006  -4767491.26647  21431984.57447
   4831292.13305  22718703.95705   3775887.07446  22718703.13746
 -20350929.50407  19869090.76207 -15855078.44548  19869088.09048
 -14582481.20306  20617013.02706 -11355054.64848  20617011.27748
 -19206119.55107  19610963.43407 -14957579.96948  19610959.57048
 -21120531.23007  19809341.18407 -16454115.09049  19809337.25849
 -18216690.08607  20721076.80107 -14189004.40248  20721074.95348
 -14958671.25407  20393008.86307 -11649581.69148  20393007.38348
 08 11 15  3 39 59.9960000  0  8  3  6  7  8 11 19 25 27
  -6084498.23406  21445245.28506  -4713195.43447  21445243.85947
   4899023.88705  22731593.39505   3828665.00846  22731592.27346
 -20323520.22307  19874306.40207 -15833720.57048  19874303.81348
 -14643789.34006  20605346.40206 -11402827.21548  20605344.34048
 -19282103.34807  19596503.75407 -15016788.12148  19596500.66448
 -21084903.64507  19816120.94907 -16426353.34449  19816116.82849
 -18158649.53906  20732121.29306 -14143778.01248  20732119.55148
 -14964574.15207  20391885.70707 -11654181.36348  20391884.25448
 08 11 15  3 40 29.9960000  0  8  3  6  7  8 11 19 25 27
  -6014731.18006  21458522.07406  -4658831.54747  21458519.87147
   4966778.60505  22744485.95705   3881460.87146  22744485.69946
 -20295532.76207  19879632.65207 -15811912.16849  19879630.21949
 -14704504.60506  20593792.56606 -11450137.80948  20593790.78548
 -19357621.09807  19582133.30907 -15075633.10949  19582130.36349
 -21049063.35207  19822941.33207 -16398425.85549  19822937.11749
 -18100214.00806  20743241.16006 -14098243.85248  20743239.19548
 -14969923.04307  20390867.92607 -11658349.34448  20390865.94148
 08 11 15  3 40 59.9960000  0  8  3  6  7  8 11 19 25 27
  -5944881.23806  21471813.53506  -4604403.06647  21471812.57447
   5034552.62905  22757383.50405   3934271.72346  22757382.73446
 -20266971.82807  19885067.62107 -15789656.92249  19885064.94149
 -14764628.34806  20582351.27706 -11496987.46548  20582349.33648
 -19432674.45307  19567851.19107 -15134116.22348  19567848.66848
 -21013014.79307  19829800.88707 -16370336.07849  19829796.75849
 -18041389.05906  20754435.50406 -14052406.23048  20754433.32048
 -14974721.46907  20389954.86307 -11662088.38748  20389953.01248
 08 11 15  3 41 29.9960000  0  8  3  6  7  8 11 19 25 27
  -5874946.86706  21485121.65206  -4549908.76647  21485120.01647
   5102347.74605  22770284.87105   3987099.02347  22770283.57847
 -20237836.57007  19890611.91807 -15766954.13749  19890609.29349
 -14824156.14806  20571023.45706 -11543372.76648  20571021.00848
 -19507259.44907  19553658.05907 -15192234.39848  19553654.84048
 -20976756.84807  19836700.56607 -16342083.14149  19836696.44549
 -17982174.81307  20765703.46507 -14006265.28948  20765701.49248
 -14978967.32407  20389147.26207 -11665396.84448  20389145.16048
 08 11 15  3 41 59.9960000  0  8  3  6  7  8 11 19 25 27
  -5804931.41406  21498445.27706  -4495351.32047  21498444.30547
   5170160.02004  22783188.53504   4039939.72346  22783187.73846
 -20208132.48007  19896264.41807 -15743808.11749  19896261.79349
 -14883089.93406  20559808.73106 -11589295.20348  20559806.06648
 -19581378.36707  19539553.65207 -15249989.39549  19539550.87549
 -20940294.33607  19843639.02007 -16313670.81349  19843635.18049
 -17922577.22307  20777044.82407 -13959825.61348  20777042.75848
 -14982664.46507  20388443.12907 -11668277.72348  20388441.80948
 08 11 15  3 42 29.9960000  0  8  3  6  7  8 11 19 25 27
  -5734838.03106  21511783.16006  -4440733.13747  21511781.49247
   5237987.55105  22796095.53505   4092792.28946  22796095.62546
 -20177862.19907  19902024.66007 -15720220.90249  19902022.05949
 -14941429.40206  20548707.05106 -11634754.54348  20548704.78948
 -19655031.55507  19525538.03507 -15307381.47348  19525535.25048
 -20903630.12107  19850616.55107 -16285101.29749  19850612.04349
 -17862600.25806  20788458.18406 -13913090.34448  20788456.40648
 -14985814.79707  20387843.82407 -11670732.52748  20387842.14848
 08 11 15  3 42 59.9960000  0  8  3  6  7  8 11 19 25 27
  -5664669.87106  21525136.65206  -4386056.70347  21525135.06347
   5305827.42205  22809005.22305   4145654.46147  22809004.80947
 -20147029.82407  19907892.36307 -15696195.69148  19907888.95748
 -14999174.89106  20537718.78506 -11679751.03148  20537716.80148
 -19728220.37907  19511610.67607 -15364411.70349  19511608.19949
 -20866768.23407  19857630.77707 -16256377.76649  19857626.87949
 -17802248.77707  20799942.84007 -13866063.23848  20799940.22748
 -14988421.01607  20387347.80907 -11672763.34848  20387346.37548
 08 11 15  3 43 29.9960000  0  8  3  6  7  8 11 19 25 27
  -5594426.89806  21538503.00406  -4331321.96147  21538502.22747
   5373680.27303  22821916.53503   4198526.75847  22821917.68847
 -20115635.88707  19913866.00407 -15671732.88748  19913862.68048
 -15056323.27007  20526843.83207 -11724282.23048  20526840.96548
 -19800941.90607  19497772.05907 -15421077.82448  19497769.37148
 -20829708.02007  19864683.39507 -16227499.68849  19864678.82049
 -17741524.18806  20811498.03506 -13818745.39548  20811495.69548
 -14990482.35507  20386955.29307 -11674369.60248  20386953.47348
 08 11 15  3 43 59.9960000  0  8  3  6  7  8 11 19 25 27
  -5524109.19106  21551884.20706  -4276528.98047  21551883.00047
   5441545.70703  22834831.80903   4251408.83246  22834831.45746
 -20083682.16407  19919947.01207 -15646833.90649  19919943.67249
 -15112872.80507  20516082.96507 -11768346.80548  20516080.62548
 -19873195.12107  19484022.85607 -15477379.01649  19484019.85949
 -20792451.08207  19871773.05107 -16198468.32048  19871768.41048
 -17680428.97707  20823124.12107 -13771138.75848  20823121.82048
 -14991999.17607  20386666.84007 -11675551.54348  20386665.28548
 08 11 15  3 44 29.9960000  0  8  3  6  7  8 11 19 25 27
  -5453714.94106  21565279.84006  -4221676.34447  21565277.98447
   5509426.07803  22847748.84803   4304302.56646  22847748.81346
 -20051167.78107  19926134.10607 -15621498.02048  19926131.65248
 -15168818.79307  20505436.47307 -11811941.07848  20505434.16848
 -19944974.96907  19470363.62907 -15533311.35249  19470360.50049
 -20754995.91007  19878900.19907 -16169282.48849  19878896.09049
 -17618962.74206  20834820.98806 -13723243.00848  20834818.58648
 -14992968.90607  20386482.63707 -11676307.19548  20386480.78548
 08 11 15  3 44 59.9960000  0  9  3  6  7  8 11 19 25 27 28
  -5383249.36706  21578689.21506  -4166768.12947  21578687.80547
   5577317.14103  22860668.16803   4357204.62546  22860668.24646
 -20018098.05107  19932426.80907 -15595729.41849  19932424.55149
 -15224163.46907  20494904.44907 -11855066.79748  20494902.69948
 -20016285.19907  19456793.94907 -15588877.75848  19456790.58248
 -20717347.52707  19886064.27707 -16139946.10249  19886060.85949
 -17557131.78507  20846586.49607 -13675063.06648  20846584.79348
 -14993395.94507  20386401.59807 -11676639.95748  20386399.18048
   -162344.76615  23371129.98805   -119827.05156  23371127.19946
 08 11 15  3 45 29.9960000  0  9  3  6  7  8 11 19 25 27 28
  -5312712.47306  21592111.31606  -4111804.35947  21592109.50447
   5645218.86304  22873589.29304   4410115.01246  22873590.27046
 -19984474.62507  19938824.98107 -15569529.36348  19938823.31348
 -15278904.82806  20484487.92606 -11897722.39848  20484485.83248
 -20087124.05107  19443313.94107 -15644076.85249  19443310.34449
 -20679507.08207  19893265.57407 -16110460.05548  19893261.22748
 -17494938.47306  20858422.39506 -13626600.77748  20858419.47748
 -14993280.37507  20386423.33207 -11676549.89848  20386421.44548
   -263328.31306  23351913.35606   -198515.55946  23351910.36346
 08 11 15  3 45 59.9960000  0  9  3  6  7  8 11 19 25 27 28
  -5242105.14506  21605547.77706  -4056785.67647  21605545.50847
   5713130.64103  22886512.47303   4463033.21146  22886512.08646
 -19950299.21107  19945328.16007 -15542899.19148  19945325.71148
 -15333040.84006  20474185.93406 -11939906.32048  20474184.23148
 -20157489.91807  19429923.62107 -15698907.38749  19429920.08249
 -20641476.05107  19900502.26207 -16080825.49248  19900498.00448
 -17432385.32406  20870325.57406 -13577858.09048  20870322.95348
 -14992623.00007  20386548.30107 -11676037.66448  20386546.18048
   -364347.47304  23332690.56604   -277231.77746  23332686.78546
 08 11 15  3 46 29.9960000  0  9  3  6  7  8 11 19 25 27 28
  -5171424.63706  21618997.74606  -4001709.99247  21618996.40247
   5781055.19103  22899438.59003   4515961.38346  22899438.27746
 -19915570.26207  19951937.16007 -15515837.70748  19951934.10248
 -15386566.81606  20464000.69906 -11981614.87948  20463998.48448
 -20227378.66407  19416623.97307 -15753366.13749  19416620.89549
 -20603251.78107  19907776.22307 -16051040.35548  19907772.11348
 -17369471.79706  20882297.19906 -13528834.57048  20882294.67248
 -14991421.09007  20386776.96507 -11675101.11348  20386775.13348
   -465398.43005  23313461.06605   -355972.72746  23313457.77046
 08 11 15  3 46 59.9960000  0  9  3  6  7  8 11 19 25 27 28
  -5100677.37906  21632460.37906  -3946582.31347  21632459.68047
   5848987.22304  22912365.98804   4568895.38746  22912365.23146
 -19880294.84807  19958649.93407 -15488350.39149  19958647.35649
 -15439486.02306  20453930.12906 -12022850.62148  20453928.25848
 -20296793.96507  19403414.59807 -15807455.97749  19403411.30949
 -20564841.00807  19915086.07407 -16021109.89848  19915081.41848
 -17306205.44107  20894336.68407 -13479536.12548  20894334.22748
 -14989680.10907  20387108.24607 -11673744.50848  20387106.64548
   -566484.83205  23294224.42605   -434741.33646  23294222.25446
 08 11 15  3 47 29.9960000  0  9  3  6  7  8 11 19 25 27 28
  -5029862.38706  21645936.85606  -3891401.85247  21645935.17247
   5916927.69102  22925293.89502   4621835.96546  22925292.70746
 -19844473.56607  19965467.06607 -15460437.69949  19965464.20349
 -15491795.77006  20443975.85606 -12063611.46148  20443973.89548
 -20365733.50407  19390295.91807 -15861175.09049  19390293.01249
 -20526243.56307  19922430.79307 -15991033.97748  19922426.97748
 -17242587.39806  20906443.05906 -13429963.64848  20906440.61348
 -14987399.23007  20387542.16007 -11671967.20348  20387540.43048
   -667604.49206  23274982.27706   -513535.83646  23274979.91446
 08 11 15  3 47 59.9960000  0  9  3  6  7  8 11 19 25 27 28
  -4958981.33606  21659424.51206  -3836169.88747  21659422.95747
   5984875.48803  22938225.09003   4674782.24246  22938224.02346
 -19808108.64507  19972386.68407 -15432101.40649  19972384.01649
 -15543494.67607  20434138.39507 -12103896.32848  20434136.03948
 -20434196.48407  19377267.97307 -15914522.85949  19377265.04349
 -20487461.41407  19929810.72307 -15960814.12148  19929806.64148
 -17178620.89106  20918615.69106 -13380119.64148  20918612.59448
 -14984579.55507  20388078.97307 -11669770.07448  20388076.93048
   -768756.64806  23255734.00406   -592355.64846  23255732.46946
 08 11 15  3 48 29.9960000  0  9  3  6  7  8 11 19 25 27 28
  -4888035.28506  21672925.44106  -3780887.27747  21672924.08647
   6052829.66803  22951156.20703   4727733.50046  22951154.21946
 -19771202.59007  19979409.73107 -15403343.45349  19979407.33249
 -15594581.48807  20424416.59007 -12143704.25048  20424415.00448
 -20502182.44508  19364330.69108 -15967498.94149  19364327.87149
 -20448495.82006  19937225.55906 -15930451.33648  19937221.29748
 -17114309.01606  20930853.91006 -13330006.50448  20930851.67648
 -14981222.42207  20388717.49607 -11667154.13748  20388716.24648
   -869940.63706  23236479.34006   -671200.30547  23236477.13347
 08 11 15  3 48 59.9960000  0  9  3  6  7  8 11 19 25 27 28
  -4817021.39106  21686438.87106  -3725551.81347  21686437.70747
   6120793.86303  22964089.44103   4780692.59845  22964086.62945
 -19733753.44107  19986536.09007 -15374162.32448  19986533.45748
 -15645050.88706  20414811.99606 -12183031.05148  20414810.40648
 -20569686.24207  19351484.71507 -16020099.29749  19351482.01249
 -20409344.51207  19944675.75407 -15899943.82448  19944671.55548
 -17049650.45307  20943157.37907 -13279623.23448  20943155.59448
 -14977324.48807  20389459.77707 -11664116.79748  20389457.85248
   -971151.53106  23217218.87106   -750065.93847  23217217.05547
 08 11 15  3 49 29.9960000  0  9  3  6  7  8 11 19 25 27 28
  -4745939.82406  21699964.80106  -3670163.60547  21699964.22747
   6188767.78502  22977023.55102   4833659.28145  22977021.54745
 -19695762.87507  19993765.05107 -15344559.30148  19993762.93448
 -15694901.16806  20405326.55106 -12221875.43448  20405324.57448
 -20636706.74207  19338731.72307 -16072323.06349  19338728.09049
 -20370008.43807  19952161.15207 -15869292.35248  19952157.23848
 -16984647.65206  20955527.17606 -13228971.71548  20955525.00048
 -14972886.17607  20390304.17607 -11660658.37948  20390302.11748
  -1072387.84806  23197954.48806   -828951.37946  23197952.66046
 08 11 15  3 49 59.9960000  0  9  3  6  7  8 11 19 25 27 28
  -4674793.06306  21713503.71506  -3614724.62947  21713503.22347
   6256749.27001  22989959.55901   4886631.79346  22989960.41846
 -19657234.77007  20001097.27007 -15314537.41048  20001094.95348
 -15744132.54707  20395958.01207 -12260237.53948  20395956.02748
 -20703244.72707  19326069.94107 -16124170.84449  19326066.78549
 -20330490.62907  19959681.49607 -15838499.25048  19959677.28148
 -16919305.18007  20967961.63707 -13178055.52348  20967959.33248
 -14967910.02707  20391250.98107 -11656780.87148  20391249.25448
  -1173650.69106  23178684.21506   -907857.44947  23178683.04747
 08 11 15  3 50 29.9960000  0  9  3  6  7  8 11 19 25 27 28
  -4603580.23406  21727055.25406  -3559234.14847  21727053.82047
   6324740.30502  23002897.98102   4939611.69146  23002898.92246
 -19618169.05107  20008531.05907 -15284096.59848  20008528.41848
 -15792741.92607  20386708.23107 -12298114.98848  20386706.00848
 -20769297.05907  19313500.44107 -16175640.19149  19313497.16849
 -20290790.17607  19967236.05907 -15807563.83649  19967231.74249
 -16853623.52707  20980459.91807 -13126875.03548  20980458.03548
 -14962394.80107  20392300.34807 -11652483.30548  20392298.80148
  -1274937.03506  23159410.89506   -986781.85547  23159408.61347
 08 11 15  3 50 59.9960000  0  9  3  6  7  8 11 19 25 27 28
  -4532300.93806  21740619.40206  -3503691.86747  21740619.36347
   6392740.48403  23015839.48803   4992598.89846  23015838.71946
 -19578567.24207  20016067.25407 -15253238.05148  20016064.28548
 -15840726.68807  20377576.93407 -12335505.71148  20377574.69148
 -20834861.75007  19301023.90207 -16226729.56649  19301020.93849
 -20250907.57407  19974824.82407 -15776486.50449  19974820.96149
 -16787604.59007  20993022.84007 -13075431.74248  20993021.05948
 -14956340.37507  20393452.69107 -11647765.59048  20393451.24648
  -1376244.29706  23140132.55106  -1065722.56347  23140130.78147
 08 11 15  3 51 29.9960000  0  9  3  6  7  8 11 19 25 27 28
  -4460950.32006  21754196.80106  -3448094.02047  21754195.73147
   6460755.87103  23028781.84803   5045597.87146  23028781.41446
 -19538425.37507  20023705.14507 -15221958.66848  20023703.69948
 -15888079.39807  20368565.95707 -12372403.92248  20368563.30548
 -20899932.13307  19288641.41007 -16277433.76249  19288638.25449
 -20210838.24207  19982449.98807 -15745263.66048  19982446.67648
 -16721245.32006  21005650.94906 -13023723.23448  21005648.45748
 -14949741.78107  20394708.51207 -11642623.83648  20394706.96148
  -1477565.71106  23120851.49606  -1144674.25047  23120849.55147
 08 11 15  3 51 59.9960000  0  9  3  6  7  8 11 19 25 27 28
  -4389532.26605  21767786.92605  -3392443.64547  21767785.77047
   6528783.06302  23041726.76202   5098606.03145  23041725.54345
 -19497748.30107  20031446.36307 -15190262.27748  20031444.49248
 -15934801.63707  20359674.76207 -12408810.85548  20359673.01648
 -20964510.08207  19276352.74607 -16327754.23849  19276349.60649
 -20170586.48406  19990109.96506 -15713898.66848  19990105.97348
 -16654551.15607  21018342.74607 -12971753.78148  21018339.73448
 -14942602.68407  20396067.02707 -11637060.91048  20396065.47348
  -1578903.18406  23101566.77006  -1223638.46547  23101565.14147
 08 11 15  3 52 29.9960000  0  8  3  7  8 11 19 25 27 28
  -4318048.95706  21781389.92606  -3336742.43047  21781388.60647
 -19456540.14807  20039287.91807 -15158152.03949  20039285.58249
 -15980894.15207  20350903.73107 -12444727.09848  20350902.13348
 -21028596.43407  19264157.32407 -16377691.65649  19264154.23449
 -20130154.95307  19997803.69907 -15682393.57848  19997799.44548
 -16587526.87106  21031096.66806 -12919527.10248  21031094.39148
 -14934925.93807  20397528.05107 -11631079.04748  20397526.75448
  -1680257.48005  23082280.19105  -1302615.78946  23082277.52046
