     2.10           OBSERVATION DATA    G (GPS)             RINEX VERSION / TYPE
Pinnacle 1.00                           16-NOV-08 16:01     PGM / RUN BY / DATE
build April 19, 2002                                        COMMENT
-Unknown-           -Unknown-                               OBSERVER / AGENCY
         Begin Pinnacle project                             COMMENT
1115                                                        COMMENT
                                                            COMMENT
                                                            COMMENT
November 16, 2008 3:45:30 pm                                COMMENT
                                                            COMMENT
                                                            COMMENT
D:\2008-----\gps\20081115\Pinnacle.dbd                 COMMENT
         End Pinnacle project                               COMMENT
                                                            COMMENT
7291                                                        MARKER NAME
7291(Tail)(Head)                                            MARKER NUMBER
AG7DJYXE328         TPS GB-1000         3.1 Jun,28,2007 p3  REC # / TYPE / VERS
-Unknown-           TPSPG_A1        NONE                    ANT # / TYPE
 -3064109.3254  4054742.4979  3840892.3118                  APPROX POSITION XYZ
        1.4929        0.0000        0.0000                  ANTENNA: DELTA H/E/N
     1     1                                                WAVELENGTH FACT L1/2
     7    L1    L2    C1    P1    P2    D1    D2            # / TYPES OF OBSERV
    30.000                                                  INTERVAL
  2008    11    15     1     0    0.0000000     GPS         TIME OF FIRST OBS
  2008    11    15     3     0    0.0000000     GPS         TIME OF LAST OBS
    12                                                      # OF SATELLITES
   G 3   241   241   241   241   241   241   241            PRN / # OF OBS
   G 6   241   241   241   241   241   241   241            PRN / # OF OBS
   G 7   241   241   241   241   241   241   241            PRN / # OF OBS
   G 8    63    50    63    50    50    63    50            PRN / # OF OBS
   G11   102   101   102   101   101   102   101            PRN / # OF OBS
   G13   171   151   171   151   151   171   151            PRN / # OF OBS
   G16   213   171   213   171   171   201   171            PRN / # OF OBS
   G19   241   241   241   241   241   241   241            PRN / # OF OBS
   G21    38    22    38    22    22    32    22            PRN / # OF OBS
   G23    95    77    95    77    77    92    77            PRN / # OF OBS
   G25   241   241   241   241   241   241   241            PRN / # OF OBS
   G27   206   198   206   198   198   206   198            PRN / # OF OBS
SE TPS 8ad2756d                                             COMMENT
                                                            END OF HEADER
 08 11 15  1  0  0.0000000  0  9G 6G 3G16G19G23G13G25G21G 7         
 107376769.817    83670216.4044   20433118.655 8  20433118.46045  20433120.86245
      -966.258        -752.938  
 105002463.047    81820104.3114   19981302.548 8  19981302.03846  19981305.05646
        65.807          51.277  
 113224304.371    88226732.6724   21545865.819 7  21545865.21445  21545867.77545
     -1983.178       -1545.333  
 113398256.936    88362280.3624   21578968.418 7  21578967.64945  21578967.36645
      2019.712        1573.801  
 116104118.509    90470745.8194   22093878.356 7  22093878.29845  22093877.50545
     -2283.465       -1779.318  
 116974618.649    91149049.2124   22259525.986 6  22259526.51843  22259527.54643
      -657.725        -512.514  
 118619577.909    92430845.7504   22572552.903 7  22572552.48445  22572554.86544
      2100.543        1636.781  
 126966922.715    98935260.0584   24160998.540 4  24160997.08741  24161000.86941
     -1355.035       -1055.866  
 126024316.214    98200767.8314   23981627.076 5  23981627.04443  23981630.19643
      2889.518        2251.582  
 08 11 15  1  0 30.0000000  0  9G 6G 3G16G19G23G13G25G21G 7         
 107405732.004    83692784.3364   20438629.458 8  20438629.14745  20438631.84845
      -964.708        -751.721  
 105000500.292    81818574.8864   19980929.350 8  19980928.99046  19980931.45846
        64.886          50.563  
 113283626.733    88272957.8654   21557154.244 7  21557153.74145  21557156.15645
     -1971.793       -1536.464  
 113337615.457    88315027.2574   21567428.359 7  21567427.24245  21567428.13645
      2022.867        1576.256  
 116172614.264    90524119.1024   22106912.736 7  22106913.00545  22106912.37745
     -2283.081       -1779.017  
 116994406.938    91164468.6684   22263292.791 6  22263292.32443  22263293.11943
      -661.666        -515.571  
 118556432.856    92381641.8114   22560536.886 7  22560536.15544  22560538.26844
      2108.925        1643.325  
 127007561.239    98966926.4174   24168729.913 4  24168731.20341  24168731.91541
     -1354.343       -1055.323  
 125937427.418    98133062.2804   23965093.253 6  23965093.07743  23965095.21343
      2902.904        2262.008  
 08 11 15  1  1  0.0000000  0  9G 6G 3G16G19G23G13G25G21G 7         
 107434642.672    83715312.1284   20444131.426 8  20444131.11445  20444133.43745
      -962.945        -750.354  
 104998559.592    81817062.6454   19980559.988 8  19980559.71246  19980562.49246
        64.214          50.036  
 113342602.299    88318912.8154   21568377.421 7  21568376.80745  21568378.32145
     -1960.187       -1527.418  
 113276875.289    88267697.2624   21555869.422 7  21555868.34145  21555869.30945
      2026.197        1578.856  
 116241092.205    90577478.5114   22119943.741 7  22119943.52144  22119943.24645
     -2282.384       -1778.482  
 117014308.068    91179976.0414   22267080.340 6  22267080.35644  22267080.32244
      -665.356        -518.458  
 118493032.306    92332238.7814   22548471.904 7  22548471.51744  22548473.15744
      2117.468        1649.972  
 127048171.004    98998570.3604   24176459.271 4  24176460.26541  24176461.64641
     -1353.227       -1054.425  
 125850133.164    98065040.7844   23948482.610 6  23948481.76243  23948483.46643
      2916.452        2272.544  
 08 11 15  1  1 30.0000000  0  9G 6G 3G16G19G23G13G25G21G 7         
 107463517.718    83737812.1564   20449625.913 7  20449625.51845  20449628.04545
      -962.211        -749.778  
 104996658.053    81815580.9214   19980197.997 8  19980197.22846  19980200.34246
        62.404          48.626  
 113401248.200    88364610.9114   21579537.479 7  21579536.96845  21579537.91845
     -1949.697       -1519.246  
 113216055.120    88220304.9314   21544295.901 7  21544294.64545  21544296.02645
      2028.320        1580.511  
 116309566.905    90630835.3994   22132973.769 7  22132973.04044  22132972.78544
     -2282.751       -1778.758  
 117034338.361    91195584.0764   22270892.676 7  22270893.64444  22270891.98544
      -670.167        -522.208  
 118429395.909    92282651.9764   22536362.573 7  22536362.13644  22536363.44744
      2124.784        1655.679  
 127088769.415    99030205.4744   24184186.457 4  24184183.43641  24184184.03041
     -1353.423       -1054.590  
 125762452.785    97996718.4234   23931797.402 6  23931795.83243  23931797.64943
      2928.727        2282.117  
 08 11 15  1  2  0.0000000  0  9G 6G 3G16G19G23G13G25G21G 7         
 107492383.802    83760305.1944   20455118.913 7  20455118.72345  20455121.22645
      -962.506        -749.996  
 104994822.865    81814150.8974   19979848.950 8  19979848.41446  19979850.98546
        59.595          46.440  
 113459591.943    88410073.5614   21590639.592 7  21590639.25545  21590640.27645
     -1940.208       -1511.850  
 113155184.250    88172873.1054   21532712.922 7  21532712.10846  21532712.39645
      2029.394        1581.343  
 116378063.699    90684209.5054   22146008.243 7  22146008.16944  22146006.85144
     -2284.012       -1779.750  
 117054524.948    91211313.8714   22274734.094 7  22274734.66044  22274733.46144
      -675.956        -526.710  
 118365553.733    92232904.8354   22524213.967 7  22524213.30544  22524214.61144
      2131.013        1660.525  
 127129383.420    99061852.7704   24191912.203 4  24191914.91541  24191914.80741
     -1354.591       -1055.548  
 125674417.054    97928119.1694   23915043.892 5  23915042.36143  23915044.72343
      2939.934        2290.860  
 08 11 15  1  2 30.0000000  0  9G 6G 3G16G19G23G13G25G21G 7         
 107521256.429    83782803.3384   20460612.994 8  20460612.75945  20460615.69045
      -962.177        -749.753  
 104993070.843    81812785.6774   19979515.575 8  19979515.10346  19979517.23546
        57.381          44.710  
 113517650.256    88455313.8084   21601687.616 7  21601686.83245  21601688.80245
     -1930.160       -1504.020  
 113094280.855    88125415.9254   21521123.586 8  21521122.94146  21521123.32246
      2031.003        1582.598  
 116446596.982    90737612.0314   22159050.081 7  22159049.86844  22159048.90644
     -2284.668       -1780.254  
 117074884.159    91227178.1774   22278607.873 7  22278608.96244  22278606.92044
      -681.146        -530.766  
 118301525.017    92183012.3284   22512029.444 7  22512029.15844  22512030.84744
      2137.738        1665.765  
 127170029.942    99093525.3814   24199646.165 5  24199645.03441  24199650.28841
     -1355.088       -1055.908  
 125586044.730    97859257.6414   23898226.777 6  23898225.94543  23898227.99343
      2951.698        2300.025  
 08 11 15  1  3  0.0000000  0  9G 6G 3G16G19G23G13G25G21G 7         
 107550135.272    83805306.3304   20466108.592 7  20466108.13345  20466110.80645
      -962.978        -750.375  
 104991402.400    81811485.5864   19979197.599 8  19979197.17546  19979200.05046
        53.949          42.036  
 113575423.844    88500332.1654   21612681.611 7  21612680.86245  21612683.14745
     -1921.320       -1497.126  
 113033347.233    88077935.1814   21509527.790 7  21509526.48246  21509527.95246
      2031.332        1582.855  
 116515165.241    90791041.8174   22172097.679 7  22172097.30544  22172097.33844
     -2286.419       -1781.624  
 117095416.352    91243177.2614   22282514.533 7  22282515.58544  22282513.97744
      -687.546        -535.745  
 118237312.888    92132976.8994   22499810.148 7  22499809.66544  22499812.34944
      2143.163        1669.996  
 127210709.181    99125223.4634   24207387.241 5  24207387.68041  24207388.85641
     -1356.831       -1057.284  
 125497338.546    97790135.9324   23881345.963 6  23881346.75644  23881348.16544
      2962.124        2308.153  
 08 11 15  1  3 30.0000000  0  9G 6G 3G16G19G23G13G25G21G 7         
 107579035.142    83827825.7014   20471608.004 8  20471607.76445  20471610.53245
      -963.991        -751.159  
 104989833.221    81810262.8444   19978899.037 8  19978898.38546  19978901.55946
        50.314          39.207  
 113632928.454    88545140.9404   21623624.697 7  21623624.04345  21623625.82045
     -1912.677       -1490.401  
 112972400.734    88030444.4224   21497930.103 7  21497929.00345  21497929.86345
      2031.407        1582.913  
 116583781.449    90844508.9754   22185154.897 7  22185154.31445  22185154.52445
     -2288.312       -1783.100  
 117116136.661    91259322.9524   22286456.595 7  22286457.33644  22286456.77144
      -694.158        -540.903  
 118172935.820    92082812.9584   22487559.534 7  22487558.84444  22487561.36344
      2148.289        1673.984  
 127251437.055    99156959.5544   24215141.832 5  24215138.69441  24215141.60641
     -1358.753       -1058.792  
 125408317.120    97720768.6024   23864406.732 6  23864407.37744  23864409.03144
      2972.277        2316.063  
 08 11 15  1  4  0.0000000  0  9G 6G 3G16G19G23G13G25G21G 7         
 107607977.869    83850378.4714   20477115.889 8  20477115.87646  20477118.61146
      -965.492        -752.331  
 104988385.953    81809135.0934   19978624.073 8  19978623.60946  19978626.34046
        46.205          36.008  
 113690187.226    88589758.1424   21634520.876 8  21634520.50245  21634522.28945
     -1904.552       -1484.059  
 112911465.897    87982962.7304   21486334.957 7  21486334.20646  21486334.35745
      2030.916        1582.530  
 116652466.536    90898029.7894   22198225.412 7  22198225.13245  22198225.01545
     -2290.635       -1784.908  
 117137067.617    91275632.7654   22290439.138 7  22290439.19444  22290440.11544
      -701.223        -546.400  
 118108419.182    92032540.2574   22475282.622 7  22475282.10244  22475284.01544
      2152.841        1677.542  
 127292235.740    99188750.7254   24222902.825 5  24222903.37041  24222904.88141
     -1361.093       -1060.623  
 125319006.107    97651175.6214   23847411.546 7  23847412.38144  23847414.38644
      2981.825        2323.497  
 08 11 15  1  4 30.0000000  0  9G 6G 3G16G19G23G13G25G21G 7         
 107636962.577    83872963.9534   20482631.720 8  20482631.50746  20482634.52146
      -966.797        -753.350  
 104987060.089    81808101.9534   19978371.934 8  19978371.57546  19978374.21146
        42.237          32.909  
 113747200.271    88634183.8774   21645369.884 7  21645369.54845  21645371.45745
     -1896.278       -1477.615  
 112850544.630    87935491.6294   21474741.944 7  21474740.46745  21474741.25145
      2030.532        1582.234  
 116721218.143    90951602.4194   22211308.732 7  22211308.38745  22211308.16045
     -2292.719       -1786.531  
 117158208.395    91292106.0944   22294462.553 7  22294462.71944  22294462.35444
      -708.112        -551.772  
 118043765.710    91982160.9304   22462979.902 7  22462979.44344  22462980.87744
      2157.453        1681.133  
 127333104.410    99220596.3974   24230679.687 4  24230681.19041  24230684.35341
     -1363.378       -1062.406  
 125229407.837    97581358.7894   23830361.431 7  23830362.73944  23830364.61144
      2991.444        2331.001  
 08 11 15  1  5  0.0000000  0  9G 6G 3G16G19G23G13G25G21G 7         
 106090593.515    82668001.0474   20188367.263 8  20188366.98346  20188369.90946
      -969.912        -755.779  
 103410460.075    80579582.4634   19678354.825 8  19678354.37146  19678356.84746
        36.406          28.370  
 112228573.874    87450838.6204   21356385.180 8  21356385.21045  21356386.05045
     -1889.856       -1472.617  
 111214240.548    86660449.5034   21163362.733 7  21163361.69445  21163362.87545
      2028.262        1580.467  
 115214640.463    89777645.7564   21924616.856 7  21924616.27045  21924616.06245
     -2296.594       -1789.553  
 115604163.934    90081162.3394   21998738.118 7  21998738.09944  21998737.95444
      -716.876        -558.605  
 116403580.132    90704094.2404   22150863.067 7  22150863.46945  22150864.03445
      2160.091        1683.189  
 125798649.267    98024917.0324   23938682.940 5  23938682.84441  23938684.10441
     -1367.514       -1065.618  
 123564126.288    96283736.8384   23513469.334 7  23513470.02544  23513471.68844
      2999.096        2336.963  
 08 11 15  1  5 30.0000000  0  9G 6G 3G16G19G23G13G25G21G 7         
 106119722.061    82690698.6114   20193910.403 8  20193910.36046  20193912.49546
      -971.776        -757.226  
 103409440.621    80578788.0894   19678160.865 8  19678160.58646  19678163.36646
        31.786          24.767  
 112285159.117    87494931.0004   21367153.323 7  21367152.68345  21367154.07045
     -1882.255       -1466.692  
 111153413.887    86613052.1284   21151788.463 8  21151787.57345  21151788.09845
      2027.083        1579.539  
 115283581.273    89831365.8614   21937735.510 7  21937734.78945  21937734.97945
     -2299.209       -1791.593  
 115625786.847    90098011.3424   22002852.824 7  22002853.29444  22002852.92044
      -724.421        -564.481  
 116338724.004    90653556.9944   22138521.071 7  22138520.97045  22138523.06045
      2163.876        1686.140  
 125839721.498    98056921.2884   23946498.310 5  23946499.99941  23946500.51941
     -1370.424       -1067.861  
 123474024.904    96213527.9834   23496323.961 6  23496323.61444  23496325.11444
      3007.860        2343.786  
 08 11 15  1  6  0.0000000  0  9G 6G 3G16G19G23G13G25G21G 7         
 106148927.973    82713456.4594   20199468.026 8  20199467.85545  20199469.80745
      -975.232        -759.916  
 103408580.311    80578117.7154   19677996.557 8  19677996.03146  19677999.13846
        25.593          19.950  
 112341537.146    87538861.9074   21377881.202 7  21377881.18145  21377882.51445
     -1876.265       -1462.027  
 111092643.700    86565698.7644   21140224.316 7  21140223.46645  21140224.03745
      2024.275        1577.354  
 115352620.097    89885162.3094   21950873.135 7  21950872.82345  21950872.16045
     -2303.338       -1794.803  
 115647656.425    90115052.5234   22007014.829 7  22007015.06844  22007014.42844
      -733.538        -571.584  
 116273777.266    90602949.1404   22126161.804 7  22126160.89245  22126164.29145
      2165.936        1687.745  
 125880902.162    98089010.0854   23954335.902 5  23954335.71541  23954335.67141
     -1374.932       -1071.346  
 123383682.522    96143131.3274   23479131.830 6  23479130.93144  23479133.04944
      3014.959        2349.320  
 08 11 15  1  6 30.0000000  0  9G 6G 3G16G19G23G13G25G21G 7         
 106178231.075    82736290.0524   20205044.048 8  20205044.15745  20205045.94145
      -978.493        -762.466  
 103407900.107    80577587.6874   19677867.116 8  19677866.79146  19677869.70546
        19.542          15.227  
 112397729.644    87582648.2464   21388574.285 7  21388573.55345  21388575.93545
     -1870.115       -1457.229  
 111031952.556    86518406.9674   21128675.339 7  21128674.13245  21128675.27745
      2021.573        1575.261  
 115421775.354    89939049.4744   21964033.343 7  21964032.98645  21964032.30345
     -2307.217       -1797.830  
 115669793.203    90132301.9334   22011227.568 7  22011228.16644  22011226.74244
      -742.468        -578.548  
 116208763.424    90552289.0124   22113789.910 7  22113789.37545  22113792.73145
      2168.074        1689.407  
 125922212.117    98121199.6634   23962197.020 5  23962197.23041  23962197.82241
     -1379.264       -1074.779  
 123293123.044    96072565.5164   23461898.596 6  23461898.47144  23461900.13644
      3022.118        2354.896  
 08 11 15  1  7  0.0000000  0  9G 6G 3G16G19G23G13G25G21G 7         
 106207648.370    82759212.6174   20210642.351 8  20210642.26045  20210643.88746
      -982.452        -765.541  
 103407417.771    80577211.8464   19677775.375 8  19677774.63646  19677777.83146
        12.814           9.987  
 112453754.583    87626304.0234   21399235.264 7  21399234.91345  21399236.84145
     -1864.671       -1452.993  
 110971360.336    86471192.2684   21117144.862 7  21117143.47246  21117144.73746
      2018.099        1572.551  
 115491062.714    89993039.5994   21977217.748 7  21977217.30144  21977217.83844
     -2311.729       -1801.341  
 115692214.946    90149773.3874   22015494.054 7  22015495.04644  22015494.23944
      -752.102        -586.047  
 116143703.637    90501593.0814   22101410.033 7  22101409.71045  22101411.99345
      2169.447        1690.477  
 125963667.935    98153502.8574   23970085.494 5  23970085.51341  23970086.84041
     -1384.226       -1078.605  
 123202367.180    96001846.6864   23444628.423 6  23444627.87943  23444630.29643
      3028.494        2359.854  
 08 11 15  1  7 30.0000000  0  9G 6G 3G16G19G23G13G25G21G 7         
 106237180.275    82782224.5024   20216261.890 8  20216261.68546  20216264.05046
      -986.229        -768.495  
 103407134.694    80576991.2624   19677721.246 8  19677720.72546  19677724.06546
         6.188           4.821  
 112509613.392    87669830.3474   21409864.889 7  21409864.26945  21409866.30145
     -1859.124       -1448.663  
 110910869.926    86424056.8954   21105633.941 8  21105633.17545  21105633.31245
      2014.709        1569.901  
 115560481.217    90047131.9354   21990428.206 7  21990427.81545  21990428.26645
     -2316.031       -1804.701  
 115714922.468    90167467.5584   22019815.076 7  22019816.62944  22019816.29644
      -761.599        -593.458  
 116078601.595    90450864.2164   22089021.244 7  22089021.35145  22089023.34345
      2170.826        1691.551  
 126005271.358    98185921.1004   23978003.891 5  23978003.93441  23978004.41141
     -1389.183       -1082.490  
 123111419.020    95930978.0034   23427320.735 5  23427320.88043  23427322.93343
      3034.851        2364.827  
 08 11 15  1  8  0.0000000  0  9G 6G 3G16G19G23G13G25G21G 7         
 106266835.229    82805332.2554   20221905.245 8  20221904.66046  20221907.11246
      -990.709        -771.976  
 103407059.909    80576932.9904   19677706.818 8  19677706.09346  19677709.38346
        -1.145          -0.892  
 112565316.029    87713234.9754   21420464.672 7  21420464.05445  21420466.85345
     -1854.319       -1444.928  
 110850492.212    86377009.3404   21094144.596 8  21094143.65945  21094143.54045
      2010.534        1566.649  
 115630038.447    90101332.3644   22003665.005 7  22003664.29245  22003664.67445
     -2321.002       -1808.578  
 115737924.483    90185391.1894   22024191.815 7  22024192.87044  22024193.28844
      -771.808        -601.412  
 116013469.627    90400112.0404   22076627.224 7  22076626.73845  22076628.74645
      2171.372        1691.971  
 126047031.694    98218461.6494   23985950.336 5  23985948.49641  23985951.94441
     -1394.828       -1086.867  
 123020290.673    95859968.9454   23409980.423 5  23409979.88343  23409982.30543
      3040.403        2369.149  
 08 11 15  1  8 30.0000000  0  9G 6G 3G16G19G23G13G25G21G 7         
 106296637.811    82828555.0424   20227575.953 8  20227575.54645  20227578.24346
      -995.484        -775.698  
 103407218.627    80577056.6704   19677737.192 8  19677736.69146  19677739.31146
        -8.797          -6.855  
 112620888.392    87756538.0944   21431040.153 8  21431039.65945  21431041.88845
     -1849.863       -1441.446  
 110790254.403    86330070.8054   21082681.389 7  21082680.17145  21082680.64845
      2005.967        1563.091  
 115699757.020    90155658.4874   22016930.993 7  22016930.66244  22016931.21444
     -2326.245       -1812.652  
 115761245.742    90203563.5744   22028629.008 7  22028629.47744  22028630.35044
      -782.302        -609.585  
 115948335.900    90349358.4814   22064232.647 7  22064232.45445  22064234.25045
      2171.504        1692.081  
 126088974.338    98251144.2054   23993931.673 4  23993928.37141  23993932.14841
     -1400.629       -1091.426  
 122929010.396    95788841.4724   23392610.584 5  23392610.35643  23392612.13643
      3045.573        2373.162  
 08 11 15  1  9  0.0000000  0  9G 6G 3G16G19G23G13G25G21G 7         
 106326585.749    82851891.0854   20233275.025 8  20233274.49346  20233277.71746
     -1000.262        -779.420  
 103407609.496    80577361.2534   19677811.650 8  19677811.27546  19677813.52346
       -16.479         -12.841  
 112676328.888    87799738.4544   21441590.118 7  21441589.47745  21441591.49645
     -1845.384       -1437.959  
 110730156.570    86283241.3374   21071245.043 8  21071244.13546  21071244.55245
      2001.341        1559.482  
 115769633.310    90210107.5214   22030228.154 7  22030227.72745  22030228.23944
     -2331.383       -1816.664  
 115784884.522    90221983.3674   22033126.669 6  22033125.94844  22033129.46343
      -792.810        -617.775  
 115883201.904    90298604.7204   22051838.434 7  22051838.67945  22051840.06645
      2171.522        1692.093  
 126131096.810    98283966.9234   24001945.449 4  24001944.58541  24001945.20441
     -1406.689       -1096.147  
 122837579.751    95717596.8534   23375211.434 5  23375211.75343  23375213.50143
      3050.596        2377.091  
 08 11 15  1  9 30.0000000  0  9G 6G 3G16G19G23G13G25G21G 7         
 106356683.247    82875343.6664   20239002.298 8  20239002.54046  20239005.20746
     -1006.300        -784.125  
 103408237.968    80577850.9774   19677931.632 8  19677931.27046  19677933.39646
       -25.468         -19.849  
 112731643.658    87842840.8504   21452116.592 7  21452116.08945  21452117.58945
     -1842.307       -1435.561  
 110670205.830    86236526.4854   21059836.927 7  21059835.88445  21059836.78046
      1995.320        1554.791  
 115839670.466    90264681.9234   22043556.477 7  22043555.85945  22043555.49345
     -2337.795       -1821.653  
 115808845.363    90240654.1334   22037686.531 6  22037685.90144  22037689.22843
      -804.645        -627.001  
 115818075.674    90247857.0134   22039445.535 7  22039445.62845  22039447.40345
      2170.137        1691.021  
 126173404.780    98316934.1324   24009997.355 5  24009997.67941  24009990.81641
     -1413.915       -1101.786  
 122746006.707    95646241.2444   23357785.968 5  23357785.79443  23357787.33143
      3054.156        2379.867  
 08 11 15  1 10  0.0000000  0  9G 6G 3G16G19G23G13G25G21G 7         
 106386959.262    82898935.3624   20244764.076 8  20244763.70246  20244766.40346
     -1012.656        -789.083  
 103409133.281    80578548.6184   19678102.141 8  19678101.79046  19678104.16846
       -34.796         -27.112  
 112786863.074    87885868.9524   21462624.641 8  21462624.61445  21462625.02945
     -1839.549       -1433.411  
 110610433.872    86189950.9494   21048462.896 7  21048461.81146  21048462.77646
      1988.903        1549.792  
 115909896.027    90319403.1394   22056919.957 7  22056919.57445  22056918.88045
     -2344.467       -1826.857  
 115833157.601    90259598.7144   22042313.054 7  22042312.23544  22042316.00844
      -816.750        -636.431  
 115752989.901    90197140.8304   22027059.827 7  22027059.87145  22027062.06345
      2168.325        1689.609  
 126215927.596    98350068.7744   24018090.230 4  24018089.80341  24018087.39641
     -1421.464       -1107.718  
 122654324.124    95574800.2814   23340339.423 6  23340339.87843  23340340.37243
      3057.367        2382.370  
 08 11 15  1 10 30.0000000  0  9G 6G 3G16G19G23G13G25G21G 7         
 106417424.882    82922674.8014   20250561.378 8  20250561.32446  20250563.92345
     -1018.816        -793.882  
 103410306.936    80579463.1514   19678325.088 8  19678324.87246  19678327.64746
       -43.901         -34.213  
 112841998.838    87928831.8674   21473116.669 8  21473116.24045  21473116.96845
     -1836.598       -1431.120  
 110550854.106    86143525.1594   21037125.733 8  21037124.91546  21037125.32846
      1982.647        1544.915  
 115980319.734    90374278.7474   22070320.224 7  22070319.46544  22070320.49844
     -2350.865       -1831.845  
 115857832.172    90278825.6324   22047009.128 7  22047008.39744  22047010.57744
      -828.631        -645.688  
 115687959.307    90146467.6434   22014684.553 7  22014684.32745  22014687.22045
      2166.592        1688.256  
 126258677.330    98383380.2304   24026224.432 4  24026226.85641  24026226.60741
     -1428.995       -1113.510  
 122562546.841    95503285.5234   23322874.814 6  23322876.01743  23322876.23043
      3060.656        2384.934  
 08 11 15  1 11  0.0000000  0  8G 6G 3G16G19G23G13G25G 7            
 106448086.972    82946567.3364   20256395.540 8  20256395.35645  20256398.49945
     -1025.409        -799.024  
 103411766.799    80580600.7024   19678602.802 8  19678602.28246  19678605.51346
       -53.528         -41.713  
 112897059.510    87971736.2614   21483593.733 7  21483593.36745  21483594.27845
     -1834.213       -1429.250  
 110491476.104    86097256.5894   21025825.901 8  21025825.09846  21025825.52946
      1975.783        1539.569  
 116050947.028    90429312.9864   22083759.948 7  22083759.16144  22083760.43644
     -2357.719       -1837.185  
 115882876.661    90298340.8084   22051774.886 7  22051775.06644  22051776.43244
      -841.089        -655.387  
 115622994.630    90095845.8304   22002321.429 7  22002321.20545  22002324.22245
      2164.268        1686.441  
 122470685.472    95431705.2194   23305394.128 6  23305394.45143  23305395.89043
      3063.308        2386.995  
 08 11 15  1 11 30.0000000  0  9G 6G 3G16G19G23G13G25G21G 7         
 106478944.853    82970612.4354   20262267.877 7  20262267.49845  20262270.61645
     -1032.139        -804.268  
 103413512.745    80581961.1784   19678934.959 8  19678934.54246  19678937.43646
       -63.283         -49.312  
 112952045.827    88014582.7204   21494056.990 7  21494056.18345  21494058.20345
     -1831.945       -1427.492  
 110432301.866    86051146.8044   21014565.121 7  21014564.11845  21014564.64945
      1968.723        1534.071  
 116121776.137    90484504.4734   22097238.663 7  22097238.55744  22097239.02944
     -2364.599       -1842.549  
 115908290.946    90318144.1264   22056611.630 7  22056611.09344  22056612.58944
      -853.596        -665.142  
 115558098.960    90045277.7764   21989973.086 7  21989973.02045  21989974.28345
      2161.694        1684.437  
 126345128.079                    24042665.187 4                                
         0.000                  
 122378743.606    95360062.2074   23287898.076 6  23287897.38643  23287901.27543
      3065.732        2388.888  
 08 11 15  1 12  0.0000000  0  8G 6G 3G16G19G23G13G25G 7            
 106510006.450    82994816.2704   20268179.231 7  20268178.61545  20268180.84746
     -1038.478        -809.203  
 103415554.062    80583551.8004   19679323.610 8  19679323.14246  19679326.29846
       -72.638         -56.597  
 113006966.647    88057378.1484   21504508.096 7  21504507.61345  21504509.68045
     -1829.306       -1425.434  
 110373341.578    86005203.7324   21003345.313 8  21003344.75346  21003345.04246
      1962.063        1528.881  
 116192813.119    90539857.9304   22110756.923 7  22110756.36944  22110756.25644
     -2371.048       -1847.566  
 115934083.150    90338241.9224   22061519.655 7  22061519.51444  22061520.75644
      -865.727        -674.594  
 115493284.091    89994772.6814   21977639.375 7  21977639.10745  21977640.91145
      2159.420        1682.668  
 122286732.748    95288365.4204   23270388.419 6  23270387.94443  23270392.74843
      3068.452        2391.003  
 08 11 15  1 12 30.0000000  0  8G 6G 3G16G19G23G13G25G 7            
 106541289.065    83019192.3164   20274131.763 8  20274131.71945  20274134.01545
     -1046.642        -815.557  
 103417908.249    80585386.2214   19679771.805 8  19679771.28846  19679774.42046
       -83.918         -65.382  
 113061841.205    88100137.5134   21514951.249 8  21514951.08645  21514952.07945
     -1828.592       -1424.871  
 110314615.199    85959442.9244   20992170.604 7  20992169.22846  20992169.60846
      1953.389        1522.130  
 116264074.130    90595385.9754   22124316.917 7  22124316.15744  22124316.98644
     -2379.281       -1853.990  
 115960270.605    90358647.7294   22066503.868 7  22066504.07844  22066503.30544
      -879.703        -685.478  
 115428570.992    89944346.8874   21965324.735 7  21965324.47545  21965326.69845
      2155.172        1679.358  
 122194674.092    95216631.4144   23252870.398 6  23252870.63543  23252873.93343
      3069.149        2391.549  
 08 11 15  1 13  0.0000000  0  9G 6G 3G16G19G23G13G25G21G 7         
 106572800.926    83043747.0154   20280128.881 8  20280128.22845  20280130.78546
     -1054.460        -821.659  
 103420584.245    80587471.4074   19680280.932 8  19680280.22846  19680283.44946
       -94.830         -73.892  
 113116678.559    88142867.8974   21525386.245 7  21525386.02745  21525387.33645
     -1827.568       -1424.076  
 110256133.455    85913872.7274   20981042.180 8  20981040.81146  20981041.54146
      1945.025        1515.604  
 116335565.852    90651093.7754   22137921.605 7  22137921.13244  22137921.23544
     -2387.139       -1860.107  
 115986861.765    90379368.0924   22071563.272 7  22071563.08744  22071563.86944
      -893.362        -696.118  
 115363971.662    89894009.7474   21953031.858 7  21953031.51845  21953033.71345
      2151.113        1676.189  
 126476037.547                    24067589.207 4                                
     -1471.157                  
 122102579.786    95144869.6314   23235346.654 6  23235346.45343  23235348.47043
      3070.120        2392.297  
 08 11 15  1 13 30.0000000  0  8G 6G 3G16G19G23G13G25G 7            
 106604547.303    83068484.4474   20286169.624 7  20286169.03545  20286171.81145
     -1062.511        -827.933  
 103423588.224    80589812.1614   19680852.803 8  19680852.50846  19680854.77746
      -106.003         -82.611  
 113171485.659    88185574.7064   21535815.633 7  21535815.01645  21535817.26445
     -1826.807       -1423.491  
 110197904.238    85868499.3154   20969960.816 7  20969960.01646  20969960.72345
      1936.327        1508.821  
 116407292.499    90706984.6334   22151570.856 7  22151570.53544  22151570.51444
     -2395.183       -1866.377  
 116013862.164    90400407.3424   22076701.371 7  22076701.74344  22076701.41844
      -907.233        -706.930  
 115299495.220    89843768.3714   21940762.488 7  21940762.27845  21940764.19345
      2146.717        1672.762  
 122010458.947    95073087.2064   23217815.785 6  23217816.21143  23217817.82943
      3070.691        2392.744  
 08 11 15  1 14  0.0000000  0  9G 6G 3G16G19G23G13G25G21G 7         
 106636529.752    83093405.8324   20292255.758 7  20292255.54845  20292257.45845
     -1070.249        -833.951  
 103426922.281    80592410.1194   19681487.162 8  19681486.26846  19681489.31446
      -116.866         -91.057  
 113226265.407    88228260.2084   21546239.476 7  21546238.73445  21546240.99545
     -1825.769       -1422.670  
 110139931.700    85823325.9164   20958929.516 8  20958928.62646  20958928.81946
      1927.902        1502.267  
 116479253.901    90763058.4214   22165264.572 7  22165264.56445  22165264.03845
     -2402.825       -1872.327  
 116041273.400    90421766.7104   22081917.441 6  22081918.05644  22081917.76044
      -920.796        -717.501  
 115235146.980    89793626.8824   21928517.316 7  21928517.65245  21928518.84545
      2142.543        1669.519  
 126564909.277                    24084499.769 5                                
         0.000                  
 121918317.232    95001288.5114   23200281.937 6  23200281.12743  23200282.51043
      3071.489        2393.365  
 08 11 15  1 14 30.0000000  0  9G 6G 3G16G19G23G13G25G21G 7         
 106668752.381    83118514.3864   20298387.396 7  20298386.88545  20298388.79545
     -1077.660        -839.741  
 103430591.536    80595269.2864   19682185.415 8  19682184.98046  19682187.82246
      -127.460         -99.318  
 113281023.307    88270928.7004   21556659.395 7  21556658.64345  21556661.07345
     -1824.504       -1421.694  
 110082222.482    85778357.7124   20947947.780 8  20947946.76745  20947947.71445
      1919.641        1495.823  
 116551452.667    90819317.1754   22179003.721 7  22179002.57945  22179003.84545
     -2410.158       -1878.045  
 116069099.863    90443449.6614   22087212.698 7  22087213.39944  22087212.65244
      -934.050        -727.823  
 115170935.052    89743591.6204   21916297.934 7  21916297.45345  21916299.17945
      2138.521        1666.379  
 126609688.995                    24093020.720 4                                
     -1498.373                  
 121826162.444    94929479.6124   23182744.955 6  23182743.52743  23182746.04343
      3072.423        2394.096  
 08 11 15  1 15  0.0000000  0 10G 6G 3G16G19G23G13G25G21G 7G27      
 106701225.271    83143817.9344   20304566.897 8  20304566.68845  20304568.93446
     -1086.800        -846.851  
 103434606.138    80598397.5434   19682949.226 8  19682948.54446  19682951.62346
      -139.783        -108.915  
 113335771.028    88313589.2324   21567077.964 7  21567077.12545  21567079.06545
     -1824.948       -1422.036  
 110024789.036    85733604.3784   20937018.253 7  20937017.35745  20937017.83545
      1909.623        1488.018  
 116623897.861    90875767.9584   22192789.562 7  22192788.90745  22192789.81345
     -2419.126       -1885.037  
 116097351.782    90465464.1474   22092589.275 7  22092590.10144  22092589.58644
      -949.011        -739.490  
 115106873.347    89693673.4124   21904107.160 7  21904106.45545  21904108.53245
      2132.635        1661.794  
 126654806.181                    24101605.434 4                                
     -1509.060                  
 121734008.864    94857671.6434   23165208.748 6  23165208.04543  23165209.87143
      3071.514        2393.408  
 129537588.781                    24650179.751 4                                
      2991.640                  
 08 11 15  1 15 30.0000000  0 10G 6G 3G16G19G23G13G25G21G 7G27      
 106733955.079    83169321.6854   20310795.126 8  20310795.11645  20310797.31346
     -1095.371        -853.534  
 103438973.505    80601800.6844   19683780.450 8  19683779.84646  19683782.75046
      -151.583        -118.113  
 113390516.425    88356247.9694   21577495.782 7  21577495.28045  21577497.11945
     -1824.935       -1422.030  
 109967640.475    85689073.0354   20926143.429 7  20926142.22045  20926142.67045
      1900.066        1480.571  
 116696594.654    90932414.7844   22206623.953 7  22206623.55445  22206622.56045
     -2427.527       -1891.578  
 116126035.894    90487815.3954   22098047.062 6  22098047.66944  22098048.00444
      -963.468        -750.750  
 115042972.109    89643880.2324   21891947.390 7  21891947.25745  21891948.92545
      2127.199        1657.557  
 126700224.489                    24110247.969 4                                
     -1519.083                  
 121641867.158    94785872.9074   23147674.309 7  23147675.61943  23147676.51443
      3071.028        2393.008  
 129447782.771                    24633093.140 3                                
      2995.164                  
 08 11 15  1 16  0.0000000  0 10G 6G 3G16G19G23G13G25G21G 7G27      
 106766944.633    83195027.8394   20317072.863 7  20317072.49445  20317075.18545
     -1103.983        -860.249  
 103443697.378    80605481.6214   19684679.331 8  19684678.79446  19684681.83146
      -163.407        -127.330  
 113445264.053    88398908.4314   21587914.040 7  21587913.60445  21587915.48245
     -1824.967       -1422.051  
 109910782.153    85644767.8604   20915323.669 7  20915322.74145  20915322.08545
      1890.418        1473.047  
 116769544.617    90989258.8794   22220504.817 7  22220504.48644  22220504.06544
     -2435.858       -1898.074  
 116155155.256    90510505.7894   22103587.377 6  22103586.30943  22103590.30343
      -977.903        -761.993  
 114979238.312    89594217.5264   21879819.739 7  21879818.88145  21879821.29445
      2121.626        1653.214  
 126745946.004                    24118946.853 4                                
     -1529.119                  
 121549744.289    94714088.8474   23130144.811 7  23130146.61444  23130146.40744
      3070.401        2392.514  
 129357882.131                    24615985.962 2                                
      2997.249                  
 08 11 15  1 16 30.0000000  0  9G 6G 3G16G19G23G13G25G21G 7         
 106800198.508    83220939.9424   20323400.705 8  20323400.36945  20323402.51145
     -1112.697        -867.034  
 103448783.207    80609444.6004   19685647.117 8  19685646.61946  19685649.39746
      -175.367        -136.650  
 113500019.937    88441575.3234   21598333.266 7  21598332.52845  21598335.08845
     -1825.164       -1422.204  
 109854221.604    85600694.6974   20904560.316 8  20904559.33045  20904559.39445
      1880.554        1465.364  
 116842750.567    91046302.4354   22234435.621 7  22234435.35244  22234434.67744
     -2444.253       -1904.615  
 116184714.898    90533539.2534   22109211.134 5  22109209.05243  22109214.39243
      -992.480        -773.349  
 114915680.298    89544691.7934   21867724.895 7  21867724.69645  21867726.34345
      2115.808        1648.683  
 126791976.043                    24127707.644 4                                
     -1539.286                  
 121457648.686    94642326.0404   23112620.278 7  23112621.22844  23112620.75844
      3069.531        2391.839  
 08 11 15  1 17  0.0000000  0  9G 6G 3G16G19G23G13G25G21G 7         
 106833723.730    83247063.4894   20329780.527 8  20329780.22046  20329782.65545
     -1122.259        -874.489  
 103454238.157    80613695.2044   19686685.350 8  19686685.04246  19686686.83946
      -188.213        -146.651  
 113554792.033    88484254.8384   21608756.180 7  21608755.46745  21608757.51245
     -1826.236       -1423.039  
 109797967.865    85556860.6194   20893855.230 7  20893854.25745  20893855.38445
      1869.760        1456.959  
 116916218.145    91103549.8714   22248416.431 7  22248416.16044  22248415.52444
     -2453.473       -1911.797  
 116214721.414    90556920.9194   22114921.668 6  22114919.31343  22114924.54243
     -1007.870        -785.354  
 114852308.884    89495311.4664   21855665.476 7  21855665.61345  21855667.20345
      2109.012        1643.392  
 126838322.413                    24136528.654 4                                
     -1550.376                  
 121365591.174    94570592.9364   23095102.410 6  23095102.23043  23095102.77243
      3067.668        2390.397  
 08 11 15  1 17 30.0000000  0  9G 6G 3G16G19G23G13G25G21G 7         
 106867523.221    83273400.7584   20336212.479 8  20336211.91745  20336214.71345
     -1131.526        -881.712  
 103460066.099    80618236.4654   19687794.085 8  19687793.45446  19687796.11846
      -200.795        -156.462  
 113609585.342    88526950.9154   21619183.487 8  21619183.14445  21619184.05745
     -1827.139       -1423.748  
 109742026.475    85513269.9364   20883209.807 7  20883208.56645  20883209.58545
      1859.176        1448.709  
 116989949.445    91161002.8384   22262446.892 7  22262446.55144  22262446.43244
     -2462.385       -1918.744  
 116245178.246    90580653.5004   22120718.260 6  22120716.41944  22120721.31244
     -1023.036        -797.181  
 114789131.020    89446081.9704   21843643.440 7  21843643.17145  21843644.77445
      2102.349        1638.191  
 126884988.116                    24145408.170 5                                
     -1561.193                  
 121273579.082    94498895.2494   23077592.254 6  23077591.78144  23077592.98943
      3065.982        2389.067  
 08 11 15  1 18  0.0000000  0  9G 6G 3G16G19G23G13G25G21G 7         
 106901600.421    83299954.4144   20342696.667 8  20342696.57546  20342699.40046
     -1140.696        -888.850  
 103466271.207    80623071.6124   19688975.126 8  19688974.52646  19688976.98246
      -213.283        -166.192  
 113664404.705    88569667.2774   21629615.943 7  21629615.47945  21629615.84945
     -1827.921       -1424.349  
 109686403.221    85469927.1514   20872625.226 7  20872624.47745  20872624.91545
      1848.618        1440.484  
 117063945.775    91218662.3244   22276527.624 7  22276526.92844  22276528.15245
     -2471.115       -1925.548  
 116276088.682    90604739.5444   22126599.999 6  22126598.46744  22126604.25444
     -1038.059        -808.880  
 114726153.839    89397008.8504   21831659.209 7  21831659.22445  21831660.82445
      2095.691        1633.013  
 126931977.550                    24154345.622 6                                
     -1571.873                  
 121181619.582    94427238.5184   23060092.426 6  23060091.29244  23060094.46544
      3064.228        2387.704  
 08 11 15  1 18 30.0000000  0  8G 6G 3G16G19G23G13G25G 7            
 106935967.995    83326734.3464   20349236.941 8  20349236.76945  20349239.12145
     -1150.550        -896.534  
 103472866.018    80628210.4434   19690230.539 8  19690230.03846  19690231.75346
      -226.461        -176.464  
 113719263.964    88612414.7434   21640055.100 8  21640054.84445  21640054.91745
     -1829.452       -1425.544  
 109631113.257    85426844.0874   20862104.117 7  20862103.42846  20862104.16346
      1837.285        1431.654  
 117138218.721    91276537.3304   22290661.526 7  22290660.75544  22290661.46845
     -2480.493       -1932.852  
 116307465.126    90629188.7204   22132572.099 6  22132570.60744  22132574.47244
     -1053.775        -821.122  
 114663393.835    89348104.9604   21819716.398 7  21819715.96945  21819718.03045
      2088.223        1627.186  
 121089729.652    94355635.9914   23042606.542 6  23042605.64544  23042608.57944
      3061.666        2385.715  
 08 11 15  1 19  0.0000000  0 10G 6G 3G16G19G23G13G25G21G 7G27      
 106970628.913    83353742.8514   20355832.468 8  20355832.08845  20355834.33345
     -1160.201        -904.052  
 103479854.891    80633656.3154   19691560.482 8  19691559.83346  19691561.63346
      -239.466        -186.597  
 113774167.896    88655197.0184   21650502.031 7  21650501.01745  21650503.27745
     -1830.827       -1426.617  
 109576162.139    85384025.0274   20851647.487 7  20851646.46345  20851647.04245
      1826.111        1422.939  
 117212769.796    91334629.0374   22304848.642 7  22304847.92544  22304848.25745
     -2489.579       -1939.934  
 116339310.960    90654003.6274   22138631.946 7  22138632.02444  22138635.25844
     -1069.282        -833.202  
 114600858.074    89299375.8014   21807816.075 7  21807816.13445  21807817.86345
      2080.818        1621.416  
 127027213.713                    24172474.235 4                                
         0.000                  
 120997916.448    94284093.2324   23025135.115 7  23025135.22644  23025137.51944
      3059.200        2383.789  
 128816871.109                    24513032.015 4                                
      3010.973                  
 08 11 15  1 19 30.0000000  0 10G 6G 3G16G19G23G13G25G21G 7G27      
 107005582.166    83380979.1654   20362483.689 7  20362483.16345  20362485.70545
     -1170.207        -911.851  
 103487237.073    80639408.6744   19692964.485 8  19692963.77645  19692967.04345
      -252.855        -197.030  
 113829117.076    88698014.5424   21660958.140 7  21660957.26845  21660959.84445
     -1832.636       -1428.035  
 109521551.456    85341471.2504   20841255.632 7  20841254.66145  20841254.97646
      1814.430        1413.840  
 117287596.452    91392935.4794   22319088.188 7  22319087.81544  22319086.20844
     -2499.027       -1947.295  
 116371624.982    90679183.3594   22144781.978 7  22144782.47244  22144783.62044
     -1085.175        -845.595  
 114538549.269    89250823.4844   21795959.418 7  21795959.52445  21795960.91145
      2072.898        1615.239  
 127075166.917                    24181588.362 4                                
         0.000                  
 120906182.778    94212612.4194   23007678.708 7  23007679.23644  23007681.27444
      3056.178        2381.432  
 128726524.612                    24495839.941 4                                
      3011.940                  
 08 11 15  1 20  0.0000000  0  9G 6G 3G16G19G23G13G25G 7G27         
 107040833.676    83408447.8704   20369192.058 8  20369192.11245  20369194.23045
     -1179.782        -919.311  
 103495019.278    80645472.7274   19694445.509 8  19694444.94546  19694448.11446
      -265.847        -207.150  
 113884118.893    88740873.0684   21671425.486 7  21671425.00145  21671426.69045
     -1834.049       -1429.121  
 109467289.351    85299189.0944   20830929.602 7  20830929.14646  20830929.61246
      1803.126        1405.036  
 117362703.374    91451460.3044   22333379.909 7  22333379.35444  22333378.82144
     -2507.990       -1954.276  
 116404413.356    90704732.7044   22151021.604 7  22151022.73244  22151022.40744
     -1100.611        -857.617  
 114476477.294    89202455.7014   21784147.460 7  21784147.10945  21784149.19545
      2065.321        1609.344  
 120814538.721    94141201.4564   22990239.063 7  22990240.07243  22990241.95543
      3053.493        2379.351  
 128636147.034                    24478638.774 4                                
      3013.354                  
 08 11 15  1 20 30.0000000  0  9G 6G 3G16G19G23G13G25G 7G27         
 107076382.244    83436148.0574   20375956.735 8  20375956.54145  20375958.94045
     -1190.118        -927.369  
 103503200.949    80651848.0604   19696002.495 8  19696002.11746  19696004.79446
      -279.601        -217.875  
 113939173.591    88783772.8054   21681902.826 8  21681902.55345  21681903.83045
     -1836.270       -1430.859  
 109413377.150    85257179.5934   20820669.869 7  20820668.97546  20820670.72346
      1790.991        1395.581  
 117438087.729    91510201.3234   22347724.895 7  22347724.97144  22347724.45244
     -2517.642       -1961.795  
 116437674.473    90730650.4114   22157351.247 7  22157353.06844  22157351.79944
     -1116.807        -870.242  
 114414644.863    89154274.5804   21772381.351 7  21772380.85445  21772383.03945
      2056.843        1602.730  
 120722987.406    94069862.7714   22972817.691 6  22972817.55043  22972819.32043
      3049.908        2376.542  
 128545740.744                    24461435.999 4                                
      3013.862                  
 08 11 15  1 21  0.0000000  0  9G 6G 3G16G19G23G13G25G 7G27         
 107112233.005    83464083.7074   20382779.111 8  20382778.69945  20382780.89145
     -1200.335        -935.327  
 103511787.852    80658539.1504   19697636.788 8  19697636.18646  19697638.64146
      -293.253        -228.505  
 113994287.889    88826718.9734   21692390.413 8  21692389.96045  21692391.52245
     -1838.412       -1432.530  
 109359822.190    85215448.4544   20810478.712 7  20810477.24846  20810479.43046
      1778.919        1386.171  
 117513753.344    91569161.4984   22362123.307 7  22362122.87244  22362122.82444
     -2527.119       -1969.179  
 116471413.603    90756940.6164   22163771.469 7  22163773.12444  22163772.71844
     -1132.861        -882.746  
 114353060.946    89106287.1134   21760661.999 7  21760661.48245  21760663.77445
      2048.346        1596.112  
 120631538.163    93998603.6204   22955415.098 6  22955414.80044  22955417.33344
      3046.297        2373.750  
 128455314.487                    24444230.284 4                                
      3014.232                  
 08 11 15  1 21 30.0000000  0  9G 6G 3G16G19G23G13G25G 7G27         
 107148395.102    83492261.9644   20389660.006 7  20389659.67145  20389663.04545
     -1210.343        -943.123  
 103520789.235    80665553.2154   19699349.555 8  19699349.15946  19699351.44746
      -306.756        -239.033  
 114049472.340    88869719.8274   21702891.029 7  21702890.44445  21702892.17445
     -1840.450       -1434.109  
 109306636.128    85174004.7714   20800357.887 7  20800356.90245  20800358.40045
      1766.916        1376.818  
 117589707.839    91628346.7724   22376577.016 7  22376576.51844  22376576.56244
     -2536.395       -1976.410  
 116505639.733    90783610.3154   22170284.359 7  22170285.75644  22170285.64144
     -1148.760        -895.131  
 114291738.543    89058503.4324   21748992.791 7  21748992.67945  21748993.79045
      2039.899        1589.536  
 120540204.059    93927434.2074   22938035.609 7  22938035.24644  22938036.74544
      3042.760        2370.972  
 128364881.021   100024578.2434   24427019.260 4  24427016.69141  24427028.06641
      3014.770        2349.186  
 08 11 15  1 22  0.0000000  0 10G 6G 3G16G19G23G13G25G21G 7G27      
 107184852.180    83520670.0704   20396597.352 8  20396596.79045  20396600.33145
     -1220.165        -950.767  
 103530189.676    80672878.2294   19701138.520 8  19701137.84646  19701140.89046
      -320.034        -249.371  
 114104712.430    88912764.0234   21713402.730 7  21713402.02845  21713403.82945
     -1842.298       -1435.554  
 109253805.020    85132837.6764   20790304.476 7  20790303.65546  20790304.43846
      1755.068        1367.586  
 117665933.579    91687743.4114   22391082.595 7  22391082.39644  22391083.14844
     -2545.384       -1983.411  
 116540336.661    90810646.8504   22176887.620 7  22176889.50244  22176888.05044
     -1164.425        -907.343  
 114230665.356    89010913.9494   21737371.113 7  21737371.34545  21737372.05845
      2031.552        1583.026  
 127320496.579                    24228277.677 4                                
         0.000                  
 120448972.685    93856344.8334   22920674.979 7  22920674.92644  22920675.82044
      3039.263        2368.257  
 128274427.808    99954095.2434   24409806.391 4  24409804.73941  24409812.79341
      3015.438        2349.727  
 08 11 15  1 22 30.0000000  0  9G 6G 3G16G19G23G13G25G 7G27         
 107221626.859    83549325.6554   20403595.488 8  20403595.51045  20403598.48545
     -1231.484        -959.594  
 103540012.254    80680532.1834   19703007.423 8  19703006.85346  19703010.11546
      -334.805        -260.887  
 114160032.684    88955870.6804   21723929.679 7  21723929.67845  21723930.76145
     -1845.712       -1438.210  
 109201354.095    85091966.8304   20780323.642 7  20780322.36645  20780323.66345
      1741.665        1357.141  
 117742451.624    91747367.8654   22405643.380 7  22405642.81644  22405643.77344
     -2555.795       -1991.524  
 116575526.898    90838067.7824   22183583.804 7  22183585.03244  22183583.32844
     -1181.569        -920.700  
 114169867.981    88963539.3744   21725801.420 7  21725801.45145  21725802.91245
      2021.595        1575.271  
 120357871.208    93785356.7014   22903338.211 7  22903338.55944  22903339.54444
      3034.156        2364.266  
 128183981.018    99883617.2674   24392595.103 5  24392593.85741  24392599.31241
      3014.437        2348.928  
 08 11 15  1 23  0.0000000  0  9G 6G 3G16G19G23G13G25G 7G27         
 107258723.395    83578232.0404   20410655.270 7  20410654.96646  20410657.02346
     -1241.914        -967.716  
 103550261.885    80688518.9004   19704957.619 8  19704956.89546  19704959.81546
      -348.746        -271.751  
 114215438.448    88999043.9944   21734473.672 7  21734473.17345  21734474.53445
     -1848.272       -1440.212  
 109149289.633    85051397.1374   20770416.128 7  20770414.98346  20770416.12846
      1729.025        1347.293  
 117819264.749    91807222.2464   22420261.068 7  22420260.18344  22420260.70044
     -2565.311       -1998.940  
 116611214.411    90865876.1864   22190374.817 7  22190375.19944  22190374.21444
     -1197.844        -933.390  
 114109354.387    88916385.9104   21714286.575 7  21714286.39745  21714287.47445
      2012.371        1568.085  
 120266908.150    93714476.4024   22886029.065 6  22886028.33444  22886030.22744
      3029.777        2360.865  
 128093548.546    99813150.4134   24375387.106 5  24375386.60141  24375392.13641
      3014.119        2348.676  
 08 11 15  1 23 30.0000000  0 10G 6G 3G16G19G23G13G25G21G 7G27      
 107296143.397    83607390.4834   20417775.736 8  20417775.63245  20417778.13545
     -1252.988        -976.356  
 103560940.730    80696840.0834   19706990.041 8  19706989.68846  19706991.94946
      -363.387        -283.161  
 114270933.167    89042286.6124   21745034.118 8  21745033.85445  21745035.07045
     -1851.596       -1442.809  
 109097615.976    85011131.9514   20760582.973 7  20760582.02446  20760583.10346
      1715.647        1336.866  
 117896373.380    91867306.9014   22434934.242 7  22434934.54944  22434932.80844
     -2575.462       -2006.859  
 116647400.654    90894073.2184   22197259.946 7  22197260.03844  22197260.08644
     -1214.783        -946.592  
 114049130.235    88869458.0004   21702826.356 7  21702826.30945  21702827.23645
      2002.343        1560.259  
 127471950.262                    24257107.852 4                                
     -1701.934                  
 120176089.194    93643708.3984   22868745.755 6  22868745.75443  22868747.82543
      3024.568        2356.810  
 128003135.803    99742698.9424   24358181.529 5  24358181.45441  24358187.96542
      3013.116        2347.871  
 08 11 15  1 24  0.0000000  0  9G 6G 3G16G19G23G13G25G 7G27         
 107333877.778    83636793.8944   20424956.475 8  20424955.92045  20424959.09445
     -1263.228        -984.325  
 103572039.920    80705488.7984   19709102.705 8  19709102.24646  19709104.05746
      -377.151        -293.882  
 114326509.405    89085592.7524   21755610.036 7  21755609.75045  21755610.97145
     -1854.084       -1444.733  
 109046326.220    84971165.9024   20750822.594 7  20750821.39946  20750822.59846
      1703.062        1327.065  
 117973766.908    91927613.5184   22449661.489 6  22449660.64644  22449660.32444
     -2584.670       -2014.023  
 116684076.604    90922651.8574   22204238.478 6  22204238.34644  22204239.63144
     -1230.840        -959.097  
 113989190.202    88822751.4774   21691420.038 8  21691419.99145  21691421.09445
      1993.056        1553.035  
 120085409.383    93573048.8084   22851490.741 7  22851490.90844  22851492.10944
      3020.139        2353.352  
 127912737.460    99672258.6824   24340981.336 6  24340980.54942  24340984.88242
      3012.833        2347.684  
 08 11 15  1 24 30.0000000  0  9G 6G 3G16G19G23G13G25G 7G27         
 107371937.742    83666451.0114   20432199.221 8  20432199.23845  20432201.38746
     -1273.817        -992.591  
 103583571.267    80714474.2584   19711296.917 8  19711296.97846  19711298.72246
      -391.348        -304.950  
 114382179.740    89128972.2204   21766203.179 7  21766202.58545  21766204.79145
     -1857.013       -1447.029  
 108995433.897    84931509.5524   20741137.592 7  20741136.32045  20741138.23345
      1690.020        1316.896  
 118051454.915    91988149.6034   22464444.520 7  22464444.73244  22464444.50744
     -2594.242       -2021.478  
 116721253.032    90951620.4724   22211312.788 6  22211312.68944  22211314.97244
     -1247.298        -971.931  
 113929549.528    88776278.2344   21680070.667 7  21680070.49145  21680071.57645
      1983.242        1545.375  
 119994884.144    93502509.6534   22834264.350 7  22834265.33844  22834265.81244
      3015.127        2349.446  
 127822368.296    99601841.1864   24323784.135 6  24323784.43542  24323788.07942
      3012.029        2347.021  
 08 11 15  1 25  0.0000000  0  9G 6G 3G16G19G23G13G25G 7G27         
 107410321.570    83696360.4804   20439503.481 8  20439503.65245  20439505.46845
     -1284.887       -1001.205  
 103595533.967    80723795.8254   19713573.312 8  19713572.92446  19713575.46246
      -405.963        -316.330  
 114437944.363    89172425.1594   21776814.393 7  21776813.90545  21776816.03045
     -1860.422       -1449.667  
 108944939.528    84892163.3034   20731529.510 7  20731528.50246  20731528.68146
      1676.459        1306.340  
 118129434.410    92048912.8074   22479284.521 6  22479283.85044  22479283.03944
     -2604.162       -2029.216  
 116758928.255    90980977.7584   22218481.468 7  22218480.76144  22218483.71044
     -1264.155        -985.043  
 113870210.485    88730040.0104   21668778.510 7  21668778.18145  21668780.10245
      1972.888        1537.324  
 119904515.926    93432092.8684   22817068.071 7  22817069.22544  22817068.74244
      3009.599        2345.148  
 127732030.507    99531448.1134   24306593.996 6  24306594.08442  24306596.55642
      3010.680        2345.990  
 08 11 15  1 25 30.0000000  0 10G 6G 3G16G19G23G13G25G21G 7G27      
 107449035.525    83726527.1904   20446870.108 8  20446869.88645  20446872.49445
     -1296.339       -1010.135  
 103607934.355    80733458.4554   19715932.737 8  19715932.27046  19715935.17346
      -421.014        -328.061  
 114493810.982    89215957.5654   21787445.688 7  21787444.91645  21787446.87645
     -1864.309       -1452.711  
 108894851.829    84853133.9404   20721997.710 7  20721996.58845  20721997.40345
      1662.439        1295.403  
 118207709.794    92109906.5574   22494179.636 7  22494179.49444  22494178.34144
     -2614.444       -2037.222  
 116797108.007    91010728.1934   22225747.550 6  22225746.88544  22225748.97844
     -1281.425        -998.511  
 113811182.940    88684044.5114   21657546.068 7  21657545.60945  21657547.65945
      1962.007        1528.828  
 127679252.637                    24296556.046                                  
         0.000                  
 119814315.508    93361806.8534   22799903.863 7  22799904.03744  22799904.15344
      3003.476        2340.373  
 127641734.212    99461087.3704   24289411.261 6  24289411.38842  24289413.01942
      3008.792        2344.515  
 08 11 15  1 26  0.0000000  0  9G 6G 3G16G19G23G13G25G 7G27         
 107488090.920    83756959.9574   20454302.022 7  20454301.54145  20454304.42945
     -1307.485       -1018.818  
 103620784.611    80743471.6314   19718377.875 8  19718377.24346  19718380.31346
      -435.755        -339.543  
 114549792.710    89259579.6784   21798099.093 7  21798098.24945  21798100.14345
     -1867.925       -1455.522  
 108845184.712    84814432.3104   20712546.348 7  20712545.33146  20712546.31146
      1648.620        1284.639  
 118286291.181    92171138.7574   22509132.587 7  22509132.27844  22509131.38744
     -2624.405       -2044.988  
 116835803.740    91040880.6914   22233111.251 6  22233110.23144  22233113.46244
     -1298.376       -1011.727  
 113752482.536    88638303.9264   21646375.587 7  21646375.34645  21646378.17545
      1951.268        1520.471  
 119724298.446    93291663.7164   22782773.866 7  22782773.60044  22782774.99644
      2997.533        2335.739  
 127551494.373    99390770.6574   24272238.211 6  24272238.51643  24272240.09543
      3007.092        2343.191  
 08 11 15  1 26 30.0000000  0  9G 6G 3G16G19G23G13G25G 7G27         
 107527499.813    83787668.1804   20461801.298 8  20461800.72645  20461803.77445
     -1319.722       -1028.355  
 103634096.740    80753844.7154   19720911.400 8  19720910.95846  19720913.23646
      -451.643        -351.926  
 114605903.211    89303302.1314   21808776.767 8  21808776.66645  21808777.93645
     -1872.712       -1459.243  
 108795952.215    84776069.3244   20703177.948 7  20703176.60446  20703177.65645
      1633.627        1272.960  
 118365189.465    92232617.9004   22524146.904 7  22524146.28344  22524145.61944
     -2635.385       -2053.544  
 116875027.143    91071444.3674   22240574.945 6  22240574.09943  22240577.30543
     -1316.433       -1025.789  
 113694125.034    88592830.5584   21635270.376 7  21635269.99045  21635273.70945
      1939.309        1511.156  
 119634480.816    93221675.9454   22765681.935 7  22765681.28944  22765683.52344
      2990.363        2330.158  
 127461326.776    99320510.2044   24255079.512 6  24255079.17743  24255081.66743
      3004.148        2340.902  
 08 11 15  1 27  0.0000000  0  9G 6G 3G16G19G23G13G25G 7G27         
 107567266.981    83818655.5844   20469368.841 7  20469368.36646  20469371.79045
     -1331.252       -1037.339  
 103647876.362    80764582.0834   19723533.532 8  19723532.92346  19723534.74846
      -466.846        -363.775  
 114662148.946    89347129.9694   21819480.046 7  21819479.52145  21819481.17545
     -1876.839       -1462.466  
 108747161.237    84738050.3934   20693893.837 7  20693892.89646  20693893.43946
      1619.275        1261.771  
 118444407.678    92294346.3304   22539221.759 7  22539221.29244  22539221.00344
     -2645.619       -2061.524  
 116914782.680    91102422.7014   22248141.534 7  22248141.27644  22248142.59244
     -1333.754       -1039.309  
 113636119.092    88547631.1384   21624232.504 7  21624232.39645  21624235.19745
      1927.916        1502.272  
 119544871.696    93151850.6494   22748629.747 7  22748630.15344  22748632.29844
      2983.735        2324.992  
 127371239.914    99250312.6864   24237936.074 6  24237935.63443  24237939.35643
      3001.819        2339.076  
 08 11 15  1 27 30.0000000  0  9G 6G 3G16G19G23G13G25G 7G27         
 107607373.536    83849907.4394   20477001.076 8  20477000.79745  20477003.81545
     -1342.433       -1046.054  
 103662105.180    80775669.4644   19726241.029 8  19726240.37845  19726242.37945
      -481.682        -375.339  
 114718512.544    89391049.6324   21830205.446 7  21830205.04645  21830206.70645
     -1880.663       -1465.448  
 108698795.396    84700362.7274   20684690.025 8  20684689.21646  20684689.11846
      1605.175        1250.783  
 118523925.455    92356308.2224   22554353.800 7  22554353.65844  22554353.03045
     -2655.468       -2069.200  
 116955050.998    91133800.5874   22255803.408 6  22255802.71544  22255806.55444
     -1350.730       -1052.516  
 113578449.790    88502694.0274   21613258.348 7  21613257.83445  21613260.37545
      1916.758        1493.569  
 119455456.348    93082176.3434   22731614.679 7  22731614.82144  22731617.28444
      2977.331        2320.000  
 127281218.751    99180166.3474   24220806.014 6  24220805.02443  24220809.83443
      2999.644        2337.382  
 08 11 15  1 28  0.0000000  0  9G 6G 3G16G19G23G13G25G 7G27         
 107647820.696    83881424.6894   20484697.884 8  20484697.64246  20484700.45645
     -1354.546       -1055.494  
 103676784.764    80787108.1014   19729034.198 8  19729033.52646  19729036.45345
      -497.442        -387.620  
 114774997.190    89435063.6334   21840954.028 7  21840953.47545  21840955.36945
     -1885.463       -1469.198  
 108650858.186    84663009.0704   20675567.566 7  20675566.49446  20675566.93646
      1590.114        1239.043  
 118603742.620    92418503.3884   22569542.467 7  22569542.27944  22569541.51244
     -2666.167       -2077.524  
 116995833.337    91165579.0114   22263564.084 7  22263564.05644  22263566.23344
     -1368.595       -1066.438  
 113521122.340    88458023.2794   21602349.260 7  21602348.66645  21602351.33645
      1904.555        1484.068  
 119366240.505    93012657.5264   22714637.975 7  22714638.08044  22714639.52644
      2969.862        2314.174  
 127191268.559    99110075.3264   24203689.369 6  24203688.34943  24203692.90343
      2996.507        2334.942  
 08 11 15  1 28 30.0000000  0  9G 6G 3G16G19G23G13G25G 7G27         
 107688609.794    83913208.3834   20492459.765 8  20492459.29345  20492462.03345
     -1365.427       -1063.970  
 103691916.722    80798899.2204   19731913.845 8  19731913.29445  19731915.80246
      -512.002        -398.958  
 114831605.842    89479174.2514   21851726.335 7  21851725.84044  21851727.08144
     -1889.099       -1472.026  
 108603353.257    84625992.2354   20666527.818 8  20666526.88446  20666527.65146
      1576.197        1228.203  
 118683859.130    92480931.8104   22584787.713 7  22584787.67344  22584786.96344
     -2675.584       -2084.865  
 117037130.829    91197758.8724   22271423.197 7  22271422.96644  22271426.06644
     -1385.245       -1079.411  
 113464141.917    88413622.9374   21591506.244 7  21591505.91345  21591508.39845
      1893.459        1475.421  
 119277230.099    92943298.7944   22697700.014 7  22697700.41744  22697700.89744
      2963.483        2309.205  
 127101394.226    99040043.3824   24186586.582 6  24186586.70843  24186590.88643
      2994.438        2333.337  
 08 11 15  1 29  0.0000000  0  9G 6G 3G16G19G23G13G25G 7G27         
 107729756.680    83945270.8844   20500289.860 8  20500289.52445  20500292.17745
     -1377.578       -1073.436  
 103707517.798    80811055.8934   19734882.780 8  19734882.07645  19734885.16245
      -527.911        -411.357  
 114888356.007    89523395.1384   21862525.680 7  21862525.10645  21862526.43845
     -1894.077       -1475.904  
 108556298.463    84589326.1714   20657573.746 7  20657572.50746  20657573.49346
      1560.914        1216.298  
 118764289.233    92543604.5754   22600093.026 7  22600092.81044  22600092.84544
     -2686.254       -2093.184  
 117078958.940    91230352.1794   22279382.933 7  22279383.09044  22279385.98044
     -1403.145       -1093.356  
 113407528.490    88369508.5644   21580732.798 7  21580732.84745  21580735.28445
      1880.893        1465.640  
 119188444.989    92874115.6154   22680805.021 7  22680804.68744  22680804.99744
      2955.645        2303.104  
 127011615.517    98970085.9594   24169502.629 6  24169502.17843  24169506.57943
      2990.930        2330.601  
 08 11 15  1 29 30.0000000  0  9G 6G 3G16G19G23G13G25G 7G27         
 107771265.302    83977615.2564   20508188.823 8  20508188.51445  20508190.94445
     -1390.251       -1083.314  
 103723592.053    80823581.2764   19737941.684 8  19737941.45546  19737943.62346
      -544.315        -424.145  
 114945253.320    89567730.6864   21873352.704 7  21873352.29645  21873354.36745
     -1899.657       -1480.256  
 108509700.268    84553015.8984   20648706.324 7  20648705.28746  20648706.13446
      1545.033        1203.921  
 118845035.467    92606523.6874   22615459.227 7  22615458.56244  22615459.10744
     -2697.405       -2101.876  
 117121320.949    91263361.5204   22287444.615 7  22287444.84744  22287445.32844
     -1421.583       -1107.720  
 113351289.619    88325686.0644   21570031.448 7  21570031.25745  21570033.51645
      1867.717        1455.365  
 119099893.136    92805114.1814   22663953.636 7  22663953.11444  22663953.74744
      2947.177        2296.499  
 126921940.184    98900209.1014   24152437.867 6  24152437.86743  24152440.65543
      2986.814        2327.391  
 08 11 15  1 30  0.0000000  0  9G 6G 3G16G19G23G13G25G 7G27         
 107813129.473    84010236.6774   20516155.597 8  20516155.34245  20516158.05646
     -1401.185       -1091.831  
 103740133.874    80836470.9944   19741089.540 8  19741089.00545  19741090.89045
      -559.006        -435.586  
 115002293.215    89612177.3514   21884207.010 7  21884206.35645  21884208.49245
     -1903.521       -1483.262  
 108463554.535    84517058.1854   20639924.971 8  20639924.13146  20639924.82346
      1530.830        1192.854  
 118926090.214    92669683.1974   22630882.517 7  22630881.92044  22630882.94544
     -2706.765       -2109.162  
 117164210.605    91296781.9954   22295605.604 7  22295605.91844  22295606.54544
     -1438.239       -1120.697  
 113295423.196    88282153.7834   21559400.202 7  21559399.52045  21559401.75945
      1856.166        1446.366  
 119011573.007    92736293.3124   22647146.740 7  22647146.14244  22647148.39644
      2940.296        2291.135  
 126832365.831    98830410.9224   24135392.645 6  24135392.06243  24135394.44243
      2984.290        2325.424  
 08 11 15  1 30 30.0000000  0  9G 6G 3G16G19G23G13G25G 7G27         
 107855343.823    84043130.9714   20524188.584 7  20524188.34445  20524191.05445
     -1412.733       -1100.831  
 103757138.477    80849721.3264   19744325.592 8  19744325.10345  19744327.08346
      -574.265        -447.474  
 115059472.400    89656732.5474   21895088.065 7  21895086.96545  21895089.33845
     -1908.049       -1486.785  
 108417858.420    84481450.8224   20631229.456 7  20631228.38246  20631229.68646
      1515.955        1181.267  
 119007446.691    92733077.8334   22646364.380 7  22646363.97244  22646364.71144
     -2716.632       -2116.852  
 117207622.021    91330609.0474   22303866.073 7  22303865.62144  22303867.73244
     -1455.487       -1134.136  
 113239927.838    88238910.6424   21548839.974 7  21548839.44345  21548840.95945
      1843.888        1436.794  
 118923483.495    92667652.1524   22630383.455 7  22630383.39844  22630385.72044
      2932.689        2285.218  
 126742891.096    98760690.3734   24118365.472 6  24118364.88143  24118367.14143
      2981.046        2322.885  
 08 11 15  1 31  0.0000000  0  9G 6G 3G16G19G23G13G25G 7G27         
 107897904.334    84076294.9994   20532287.639 8  20532287.54045  20532289.69845
     -1424.431       -1109.944  
 103774601.538    80863328.9034   19747648.630 8  19747648.00046  19747650.15546
      -589.738        -459.536  
 115116788.215    89701394.2044   21905994.274 7  21905993.62145  21905996.44745
     -1912.826       -1490.507  
 108372609.742    84446192.1164   20622619.049 8  20622618.12346  20622618.85046
      1500.808        1169.463  
 119089099.144    92796703.0964   22661902.803 7  22661902.88144  22661902.34044
     -2726.661       -2124.663  
 117251550.796    91364839.2324   22312225.322 7  22312224.89844  22312226.90244
     -1472.902       -1147.715  
 113184803.355    88195956.4844   21538350.081 7  21538349.35745  21538351.29645
      1831.280        1426.970  
 118835624.921    92599190.9404   22613664.850 7  22613665.02144  22613666.30444
      2924.728        2279.003  
 126653515.655    98691047.1864   24101357.948 6  24101356.58543  24101359.39543
      2977.477        2320.122  
 08 11 15  1 31 30.0000000  0  9G 6G 3G16G19G23G13G25G 7G27         
 107940805.930    84109724.8034   20540451.200 8  20540451.08845  20540452.93745
     -1435.913       -1118.895  
 103792518.967    80877290.5254   19751058.232 8  19751057.83646  19751059.94946
      -605.013        -471.440  
 115174237.527    89746159.8824   21916926.922 7  21916926.09845  21916928.67045
     -1917.403       -1494.084  
 108327805.587    84411279.7954   20614092.898 7  20614091.73146  20614092.35646
      1485.862        1157.809  
 119171041.377    92860554.1614   22677495.738 7  22677495.74743  22677494.18143
     -2736.394       -2132.264  
 117295991.380    91399468.2384   22320682.540 7  22320682.44644  22320683.89844
     -1490.064       -1161.081  
 113130048.546    88153290.4064   21527930.408 7  21527929.92945  21527931.87345
      1818.753        1417.200  
 118747996.749    92530909.2694   22596989.736 7  22596989.28444  22596990.28944
      2916.875        2272.882  
 126564238.388    98621480.5084   24084368.805 6  24084368.45143  24084371.00143
      2974.063        2317.449  
 08 11 15  1 32  0.0000000  0  9G 6G 3G16G19G23G13G25G 7G27         
 107984064.532    84143432.8034   20548683.155 8  20548682.67645  20548684.62145
     -1447.811       -1128.167  
 103810907.339    80891619.1174   19754557.310 8  19754556.87746  19754559.44246
      -620.681        -483.652  
 115231838.019    89791043.3564   21927888.268 8  21927887.88345  21927889.57145
     -1922.462       -1498.017  
 108283464.412    84376728.2264   20605655.039 8  20605653.95746  20605654.09446
      1470.386        1145.753  
 119253287.672    92924642.1554   22693146.787 7  22693147.18043  22693145.95043
     -2746.488       -2140.108  
 117340959.329    91434508.1484   22329239.899 7  22329239.43844  22329240.31644
     -1507.626       -1174.766  
 113075683.361    88110927.9164   21517585.056 7  21517584.36245  21517587.21145
      1805.725        1407.063  
 118660619.054    92462822.7704   22580361.974 7  22580361.62344  22580362.34244
      2908.459        2266.332  
 126475079.263    98552005.8994   24067403.046 6  24067402.89043  24067405.51843
      2970.065        2314.330  
 08 11 15  1 32 30.0000000  0  9G 6G 3G16G19G23G13G25G 7G27         
 108027681.738    84177420.2294   20556983.104 8  20556983.05145  20556985.35445
     -1459.754       -1137.476  
 103829768.160    80906315.8504   19758146.085 8  19758145.56846  19758148.91446
      -636.440        -495.923  
 115289592.768    89836047.0224   21938878.630 7  21938877.99045  21938879.97145
     -1927.600       -1502.023  
 108239589.549    84342540.0224   20597305.994 7  20597304.66346  20597305.60946
      1454.823        1133.626  
 119335837.848    92988966.9744   22708856.026 6  22708856.35343  22708854.54543
     -2756.577       -2147.974  
 117386455.731    91469959.8784   22337897.542 6  22337897.50144  22337897.78244
     -1525.213       -1188.486  
 113021713.164    88068873.2204   21507314.130 7  21507313.49145  21507316.90745
      1792.539        1396.776  
 118573497.851    92394936.1254   22563783.203 7  22563783.20444  22563783.91544
      2899.845        2259.620  
 126386043.619    98482627.4904   24050460.491 6  24050460.40543  24050463.42643
      2965.895        2311.085  
 08 11 15  1 33  0.0000000  0  9G 6G 3G16G19G23G13G25G 7G27         
 108071658.417    84211687.7644   20565351.944 8  20565351.62445  20565354.44745
     -1471.710       -1146.788  
 103849102.942    80921381.9124   19761825.722 8  19761825.15446  19761828.13546
      -652.229        -508.225  
 115347504.474    89881172.9944   21949899.259 7  21949898.63445  21949899.96845
     -1932.851       -1506.111  
 108196184.411    84308717.8364   20589046.453 8  20589045.35046  20589046.01046
      1439.175        1121.434  
 119418691.716    93053528.3984   22724624.656 6  22724625.65643  22724621.42943
     -2766.635       -2155.803  
 117432481.331    91505823.9454   22346656.071 7  22346655.57043  22346655.90043
     -1542.812       -1202.187  
 112968142.823    88027130.1004   21497119.716 7  21497119.08145  21497122.78945
      1779.158        1386.347  
 118486638.348    92327253.3864   22547254.959 7  22547254.76444  22547256.33444
      2891.091        2252.804  
 126297136.447    98413349.2014   24033542.011 6  24033541.92643  24033546.10643
      2961.568        2307.714  
 08 11 15  1 33 30.0000000  0  9G 6G 3G16G19G23G13G25G 7G27         
 108115983.203    84246226.5534   20573786.719 8  20573786.75145  20573789.10245
     -1483.154       -1155.703  
 103868900.665    80936808.7054   19765592.854 8  19765592.35946  19765595.09546
      -667.477        -520.114  
 115405563.663    89926413.8974   21960947.165 7  21960946.34545  21960948.35445
     -1937.630       -1509.849  
 108153239.584    84275254.3494   20580874.308 8  20580873.12346  20580873.81546
      1423.948        1109.566  
 119501836.201    93118316.2534   22740445.451 6  22740445.57142  22740442.62642
     -2776.156       -2163.232  
 117479023.953    91542090.8914   22355511.878 6  22355511.20043  22355513.07743
     -1559.874       -1215.497  
 112914964.820    87985692.6874   21487000.679 7  21487000.62145  21487003.32445
      1766.178        1376.249  
 118400033.660    92259769.1934   22530774.658 7  22530774.65644  22530776.75844
      2882.688        2246.238  
 126208350.302    98344165.2114   24016647.141 6  24016646.90443  24016650.27344
      2957.627        2304.645  
 08 11 15  1 34  0.0000000  0  9G 6G 3G16G19G23G13G25G 7G27         
 108160644.149    84281027.2794   20582285.112 8  20582284.95245  20582287.00045
     -1494.476       -1164.525  
 103889149.422    80952586.9574   19769446.135 8  19769445.55646  19769448.43246
      -682.673        -531.955  
 115463760.250    89971761.8584   21972021.509 8  21972020.77345  21972022.78345
     -1942.384       -1513.544  
 108110745.208    84242141.8504   20572787.579 8  20572786.29046  20572786.69545
      1408.766        1097.735  
 119585258.072    93183320.2414   22756320.803 5  22756321.05941  22756317.62542
     -2785.540       -2170.555  
 117526071.145    91578751.0214   22364464.505 6  22364463.64143  22364466.75143
     -1576.836       -1228.709  
 112862171.186    87944554.7944   21476954.549 7  21476954.00445  21476957.23545
      1753.147        1366.092  
 118313676.007    92192477.5004   22514341.233 7  22514341.93644  22514342.94444
      2874.226        2239.661  
 126119676.945    98275069.1084   23999772.952 7  23999772.84043  23999776.65243
      2953.667        2301.545  
 08 11 15  1 34 30.0000000  0  9G 6G 3G16G19G23G13G25G 7G27         
 108205658.496    84316103.3894   20590851.062 7  20590850.77045  20590852.67745
     -1506.339       -1173.764  
 103909867.347    80968730.8044   19773388.852 8  19773388.19946  19773391.08446
      -698.391        -544.201  
 115522113.219    90017231.6784   21983125.831 8  21983125.68545  21983127.11945
     -1947.691       -1517.678  
 108068720.520    84209395.3354   20564790.328 8  20564789.46946  20564789.93546
      1392.993        1085.453  
 119668973.034    93248552.6404   22772248.669 5  22772249.18141  22772250.14641
     -2795.319       -2178.158  
 117573639.498    91615817.2534   22373516.787 6  22373516.03943  22373519.93843
     -1594.275       -1242.279  
 112809782.950    87903732.7974   21466984.980 7  21466984.50145  21466987.75545
      1739.520        1355.473  
 118227587.104    92125395.2504   22497958.850 7  22497960.01744  22497960.27144
      2865.131        2232.576  
 126031137.565    98206077.4024   23982924.554 6  23982923.46143  23982927.07944
      2949.078        2297.990  
 08 11 15  1 35  0.0000000  0  9G 6G 3G16G19G23G13G25G 7G27         
 108251022.938    84351452.3084   20599483.880 8  20599483.75545  20599484.99545
     -1518.342       -1183.116  
 103931051.489    80985237.9394   19777419.849 8  19777419.58946  19777422.23446
      -714.247        -556.558  
 115580621.128    90062822.2234   21994260.368 7  21994259.90645  21994261.11145
     -1953.200       -1521.974  
 108027164.671    84177014.1564   20556882.693 8  20556881.47046  20556882.05746
      1377.011        1072.999  
 119752976.263    93314009.7004   22788229.717 4  22788229.83641  22788234.76541
     -2805.160       -2185.821  
 117621725.657    91653286.9594   22382666.986 6  22382664.85143  22382670.35943
     -1611.830       -1255.975  
 112757800.805    87863227.2284   21457093.466 7  21457092.75945  21457095.82545
      1725.595        1344.619  
 118141768.538    92058523.6504   22481628.938 7  22481630.10544  22481629.28644
      2855.721        2225.241  
 125942732.703    98137190.5294   23966101.203 7  23966099.44343  23966102.87243
      2944.197        2294.175  
 08 11 15  1 35 30.0000000  0  9G 6G 3G16G19G23G13G25G 7G27         
 108296734.292    84387071.5554   20608182.150 8  20608181.98145  20608183.50845
     -1529.263       -1191.639  
 103952698.666    81002105.8674   19781539.383 8  19781538.74346  19781541.42546
      -729.055        -568.096  
 115639282.221    90108532.1354   22005423.113 7  22005422.87445  22005424.11745
     -1957.701       -1525.483  
 107986076.341    84144997.2814   20549064.101 8  20549062.86246  20549063.27246
      1362.027        1061.323  
 119837263.189    93379687.8154   22804271.814 5  22804271.99341  22804275.67341
     -2814.071       -2192.765  
 117670325.585    91691157.0104   22391915.940 6  22391915.24043  22391919.00643
     -1628.310       -1268.812  
 112706225.412    87823038.6094   21447279.177 7  21447278.75345  21447281.25445
      1712.592        1334.485  
 118056221.046    91991863.2984   22465349.813 7  22465351.67144  22465350.37044
      2847.249        2218.634  
 125854463.507    98068409.3534   23949303.905 7  23949303.12043  23949304.99443
      2940.238        2291.088  
 08 11 15  1 36  0.0000000  0  9G 6G 3G16G19G23G13G25G 7G27         
 108342790.261    84422959.3314   20616946.623 8  20616946.12945  20616947.74345
     -1540.871       -1200.678  
 103974807.495    81019333.5234   19785746.563 8  19785746.05546  19785749.34246
      -744.557        -580.174  
 115698096.138    90154361.1154   22016614.668 7  22016614.05545  22016616.01545
     -1962.934       -1529.551  
 107945455.264    84113344.4984   20541334.158 8  20541333.00846  20541333.55846
      1346.319        1049.077  
 119921829.916    93445584.0034   22820365.129 5  22820364.01841  22820367.14041
     -2823.443       -2200.081  
 117719436.328    91729425.1024   22401261.881 6  22401262.00543  22401264.47143
     -1645.440       -1282.153  
 112655058.309    87783168.1384   21437542.769 8  21437542.25045  21437544.77345
      1698.818        1323.763  
 117970946.693    91925415.7934   22449122.811 7  22449124.17645  22449123.79545
      2837.985        2211.411  
 125766331.445    97999735.0204   23932533.224 7  23932532.59743  23932534.17943
      2935.507        2287.414  
 08 11 15  1 36 30.0000000  0  9G 6G 3G16G19G23G13G25G 7G27         
 108389192.910    84459117.2444   20625776.317 7  20625776.02645  20625778.10445
     -1552.629       -1209.849  
 103997380.103    81036922.5684   19790041.975 8  19790041.47446  19790044.19646
      -760.238        -592.393  
 115757066.746    90200312.2034   22027836.036 7  22027835.54345  22027837.35145
     -1968.400       -1533.818  
 107905305.302    84082058.8184   20533693.445 8  20533692.31246  20533693.20546
      1330.364        1036.644  
 120006676.812    93511698.4074   22836513.428 6  22836513.66941  22836511.93641
     -2832.956       -2207.499  
 117769059.517    91768092.4934   22410704.920 7  22410705.67943  22410706.86043
     -1662.735       -1295.640  
 112604305.467    87743620.4754   21427884.824 8  21427884.84645  21427886.98045
      1684.726        1312.774  
 117885952.092    91859186.2434   22432948.701 7  22432949.00045  22432949.89045
      2828.358        2203.913  
 125678342.664    97931172.3454   23915789.277 7  23915789.14743  23915790.68344
      2930.441        2283.455  
 08 11 15  1 37  0.0000000  0  9G 6G 3G16G19G23G13G25G 7G27         
 108435945.470    84495547.8134   20634673.111 7  20634672.96845  20634675.01545
     -1564.028       -1218.728  
 104020419.758    81054875.5404   19794426.180 8  19794425.74746  19794428.54146
      -775.574        -604.347  
 115816199.229    90246389.4344   22039088.555 7  22039088.34645  22039089.78945
     -1973.577       -1537.856  
 107865632.223    84051144.7374   20526144.117 8  20526142.85146  20526144.08646
      1314.690        1024.429  
 120091806.095    93578032.8934   22852714.187 5  22852713.00041  22852715.84041
     -2842.116       -2214.645  
 117819197.825    91807161.2804   22420245.633 6  22420246.49143  22420247.67243
     -1679.628       -1308.804  
 112553974.152    87704401.2604   21418307.465 8  21418307.43945  21418309.46545
      1670.864        1301.978  
 117801244.893    91793180.6504   22416828.667 7  22416828.93745  22416830.63245
      2818.950        2196.586  
 125590504.369    97862726.9154   23899074.153 7  23899073.46443  23899076.14144
      2925.607        2279.671  
 08 11 15  1 37 30.0000000  0  9G 6G 3G16G19G23G13G25G 7G27         
 108483040.017    84532244.8484   20643634.765 8  20643634.75845  20643637.01645
     -1575.777       -1227.878  
 104043919.038    81073186.6734   19798897.917 8  19798897.36046  19798900.58146
      -791.219        -616.533  
 115875487.401    90292587.9764   22050371.137 7  22050370.36145  22050371.93245
     -1979.117       -1542.171  
 107826429.867    84020597.4614   20518684.412 8  20518683.23046  20518684.06346
      1298.625        1011.910  
 120177208.208    93644579.9774   22868963.916 5  22868963.65941  22868962.16441
     -2851.569       -2221.981  
 117869842.681    91846624.7524   22429883.800 6  22429883.87743  22429885.64843
     -1696.822       -1322.194  
 112504060.096    87665507.1834   21408809.066 7  21408808.51445  21408810.81245
      1656.559        1290.820  
 117716821.330    91727396.0704   22400764.128 7  22400763.20545  22400765.52645
      2809.036        2188.857  
 125502812.434    97794395.5374   23882386.745 6  23882385.78643  23882389.30043
      2920.325        2275.583  
 08 11 15  1 38  0.0000000  0  9G 6G 3G16G19G23G13G25G 7G27         
 108530474.700    84569206.9224   20652661.711 8  20652661.42045  20652663.51245
     -1586.602       -1236.311  
 104067876.187    81091854.5744   19803456.909 8  19803456.56346  19803459.23946
      -805.959        -628.020  
 115934931.381    90338907.9214   22061682.617 7  22061682.57745  22061683.53145
     -1983.874       -1545.873  
 107787698.550    83990417.2064   20511313.853 8  20511312.63346  20511313.65846
      1283.420        1000.066  
 120262879.690    93711336.9964   22885267.479 4  22885269.8394   22885270.99241
     -2860.183       -2228.649  
 117920991.544    91886480.9534   22439616.608 6  22439616.68843  22439618.45643
     -1713.116       -1334.886  
 112454565.302    87626939.7984   21399390.494 8  21399390.43545  21399391.72945
      1643.043        1280.292  
 117632684.365    91661834.8124   22384753.333 7  22384752.86645  22384754.42445
      2799.975        2181.800  
 125415269.096    97726179.9454   23865727.727 7  23865728.05043  23865730.73443
      2915.840        2272.088  
 08 11 15  1 38 30.0000000  0  9G 6G 3G16G19G23G13G25G 7G27         
 108578257.587    84606440.3414   20661754.532 7  20661754.06345  20661756.04445
     -1598.938       -1245.927  
 104092299.401    81110885.6544   19808104.499 8  19808103.95946  19808106.32146
      -822.288        -640.743  
 115994541.044    90385356.9894   22073025.721 7  22073024.90644  22073027.01844
     -1990.153       -1550.770  
 107749448.352    83960611.8564   20504034.973 8  20504033.97746  20504035.09246
      1266.574         986.942  
 120348827.323                    22901629.357 5                                
     -2869.886                  
 117972652.015    91926735.8294   22449447.797 6  22449447.33044  22449449.69044
     -1730.915       -1348.760  
 112405501.836    87588708.5254   21390054.131 7  21390053.83245  21390055.59945
      1627.837        1268.436  
 117548846.499    91596506.6174   22368799.093 7  22368799.15545  22368800.46844
      2789.172        2173.378  
 125327886.477    97658089.6094   23849099.526 6  23849099.30743  23849102.28143
      2909.657        2267.263  
 08 11 15  1 39  0.0000000  0  8G 6G 3G16G19G13G25G 7G27            
 108626380.603    84643938.7804   20670912.105 8  20670911.73845  20670913.44645
     -1609.909       -1254.467  
 104117181.703    81130274.4554   19812839.520 8  19812838.72146  19812841.91846
      -837.179        -652.351  
 116054309.534    90431929.8144   22084398.767 7  22084397.99344  22084401.33944
     -1995.100       -1554.617  
 107711672.986    83931176.5184   20496846.594 8  20496845.45846  20496846.67646
      1251.106         974.889  
 118024815.142    91967382.3984   22459373.304 6  22459372.86843  22459376.23143
     -1747.275       -1361.521  
 112356865.302    87550809.9114   21380799.013 8  21380798.72045  21380801.23645
      1613.928        1257.605  
 117465303.809    91531408.4194   22352901.127 7  22352900.99444  22352903.08544
      2779.672        2165.981  
 125240660.408    97590121.2644   23832500.699 6  23832500.67443  23832504.07443
      2904.756        2263.451  
 08 11 15  1 39 30.0000000  0  9G 6G 3G16G19G23G13G25G 7G27         
 108674851.417    84681708.2294   20680135.293 8  20680135.21445  20680137.66145
     -1621.219       -1263.288  
 104142530.646    81150026.8674   19817662.966 8  19817662.78046  19817665.27545
      -852.461        -664.257  
 116114246.818    90478634.1584   22095804.592 7  22095803.77544  22095807.63544
     -2000.486       -1558.820  
 107674382.240    83902118.7974   20489750.880 8  20489749.85246  20489749.57946
      1235.185         962.479  
 120521559.316                    22934488.842 4                                
     -2887.023                  
 118077487.997    92008426.1384   22469395.410 5  22469395.23443  22469399.34643
     -1763.958       -1374.525  
 112308667.366    87513253.0584   21371626.878 8  21371626.55845  21371628.94445
      1599.511        1246.371  
 117382068.624    91466549.8314   22337062.067 7  22337061.88944  22337064.72444
      2769.591        2158.125  
 125153602.832    97522284.2084   23815934.854 6  23815934.91443  23815938.17943
      2899.338        2259.227  
 08 11 15  1 40  0.0000000  0  8G 6G 3G16G19G13G25G 7G27            
 108723660.709    84719741.4444   20689423.707 8  20689423.19445  20689425.50645
     -1632.766       -1272.290  
 104168337.006    81170135.7074   19822573.548 8  19822572.96245  19822575.97145
      -867.994        -676.360  
 116174345.404    90525464.2064   22107241.428 7  22107240.95144  22107244.05844
     -2006.132       -1563.219  
 107637568.812    83873433.0004   20482745.076 8  20482743.92345  20482744.39045
      1219.009         949.875  
 118130660.388    92049859.1224   22479515.162 7  22479516.90843  22479516.96943
     -1780.881       -1387.684  
 112260902.540    87476033.7184   21362537.606 8  21362537.34845  21362538.95045
      1584.765        1234.879  
 117299135.845    91401926.9044   22321280.734 7  22321280.38844  22321283.27644
      2759.204        2150.022  
 125066708.308    97454574.2104   23799398.947 6  23799398.72343  23799402.84643
      2893.592        2254.748  
 08 11 15  1 40 30.0000000  0  8G 6G 3G16G19G13G25G 7G27            
 108772815.393    84758043.7814   20698777.593 8  20698777.33445  20698779.46745
     -1644.243       -1281.228  
 104194608.629    81190607.0874   19827572.646 8  19827571.88046  19827575.35946
      -883.485        -688.430  
 116234613.912    90572426.6654   22118710.223 7  22118709.37244  22118711.99144
     -2011.811       -1567.644  
 107601241.357    83845125.8884   20475832.016 7  20475830.84346  20475831.62546
      1202.789         937.235  
 118184338.818    92091686.4324   22489731.096 7  22489731.55044  22489732.41844
     -1797.722       -1400.813  
 112213581.512    87439160.2004   21353533.066 8  21353532.96045  21353534.06945
      1569.920        1223.315  
 117216517.061    91337548.6624   22305558.720 6  22305557.25944  22305560.81644
      2748.650        2141.801  
 124979987.913    97386999.8864   23782896.244 6  23782894.44343  23782900.67243
      2887.725        2250.153  
 08 11 15  1 41  0.0000000  0  8G 6G 3G16G19G13G25G 7G27            
 108822306.182    84796608.0194   20708195.289 8  20708195.36545  20708196.97145
     -1654.796       -1289.450  
 104221335.758    81211433.4034   19832658.719 8  19832658.22045  19832661.45145
      -898.006        -699.735  
 116295044.902    90619515.7244   22130210.297 7  22130209.49244  22130211.31944
     -2016.605       -1571.377  
 107565392.427    83817191.6554   20469010.268 7  20469009.20446  20469010.03346
      1187.458         925.298  
 118238513.100    92133900.1074   22500039.450 7  22500039.50344  22500040.61444
     -1813.587       -1413.175  
 112166698.672    87402628.1174   21344611.479 8  21344611.56645  21344612.89545
      1555.893        1212.385  
 117134207.404    91273411.2754   22289895.365 6  22289893.66844  22289897.32244
      2738.925        2134.229  
 124893436.246    97319557.0204   23766425.637 6  23766424.19843  23766431.07743
      2882.699        2246.260  
 08 11 15  1 41 30.0000000  0  8G 6G 3G16G19G13G25G 7G27            
 108872123.932    84835427.0314   20717675.236 8  20717675.07345  20717677.13345
     -1666.458       -1298.540  
 104248509.767    81232607.9414   19837830.116 8  19837829.59946  19837832.33646
      -913.648        -711.931  
 116355631.059    90666725.7104   22141739.354 7  22141738.93144  22141740.59644
     -2022.537       -1576.014  
 107530015.010    83789624.8434   20462278.304 8  20462277.20746  20462277.24346
      1170.955         912.436  
 118293173.436    92176492.5274   22510439.987 6  22510440.40144  22510442.56044
     -1830.472       -1426.339  
 112120248.867    87366433.4624   21335772.422 8  21335772.26545  21335774.02546
      1540.679        1200.535  
 117052202.298    91209511.2074   22274290.119 6  22274289.36844  22274291.92044
      2727.987        2125.713  
 124807048.273    97252241.6994   23749986.516 6  23749986.33043  23749992.78643
      2876.436        2241.383  
 08 11 15  1 42  0.0000000  0  9G 6G 3G16G19G23G13G25G 7G27         
 108922277.336    84874507.5854   20727218.902 7  20727218.60345  20727221.42745
     -1677.097       -1306.821  
 104276139.480    81254137.5704   19843088.342 8  19843088.19145  19843090.36446
      -928.312        -723.357  
 116416382.964    90714064.8344   22153300.212 7  22153299.34344  22153301.26544
     -2027.575       -1579.931  
 107495119.604    83762433.6374   20455637.365 7  20455636.20545  20455637.02645
      1155.394         900.312  
 120957873.908                    23017517.733 5                                
     -2929.619                  
 118348327.751    92219469.8914   22520935.821 6  22520935.71443  22520937.07943
     -1846.445       -1438.779  
 112074244.527    87330585.9114   21327017.922 8  21327017.45845  21327019.76345
      1526.284        1189.320  
 116970514.683    91145858.5394   22258745.299 7  22258746.01044  22258746.73744
      2717.865        2117.813  
 124720836.660    97185063.8004   23733581.650 7  23733582.36543  23733586.65843
      2870.997        2237.148  
 08 11 15  1 42 30.0000000  0  9G 6G 3G16G19G23G13G25G 7G27         
 108972756.796    84913842.2174   20736825.006 8  20736824.57445  20736827.72245
     -1688.358       -1315.599  
 104304215.822    81276015.2254   19848431.080 8  19848430.57446  19848432.74246
      -943.604        -735.273  
 116477292.920    90761527.1104   22164891.165 7  22164890.15544  22164892.06644
     -2033.245       -1584.337  
 107460698.573    83735612.0664   20449088.114 8  20449087.13946  20449087.60846
      1139.146         887.654  
 121045886.730                    23034265.603 5                                
     -2938.072                  
 118403965.708    92262824.1264   22531523.381 6  22531522.70143  22531525.51144
     -1862.918       -1451.633  
 112028679.953    87295081.0474   21318347.331 8  21318347.32545  21318348.86145
      1511.184        1177.548  
 116889139.396    91082449.2254   22243260.851 7  22243261.02444  22243262.78944
      2706.967        2109.323  
 124634795.808    97118018.9644   23717209.233 7  23717210.05743  23717211.50543
      2864.865        2232.372  
 08 11 15  1 43  0.0000000  0  9G 6G 3G16G19G23G13G25G 7G27         
 109023566.103    84953433.8724   20746494.057 8  20746494.02745  20746496.33045
     -1699.333       -1324.152  
 104332742.787    81298244.0114   19853859.447 8  19853859.03345  19853861.11445
      -958.588        -746.952  
 116538366.378    90809116.7844   22176513.047 7  22176512.52744  22176514.34644
     -2038.713       -1588.596  
 107426757.524    83709164.4914   20442629.327 8  20442628.45546  20442629.44546
      1123.168         875.203  
 121134144.464                    23051060.102 4                                
     -2946.162                  
 118460090.031    92306557.3234   22542204.550 7  22542203.55744  22542206.58944
     -1879.098       -1464.230  
 111983562.562    87259924.6364   21309761.858 8  21309762.15845  21309763.40545
      1496.247        1165.913  
 116808084.862    91019289.8354   22227836.684 7  22227837.31944  22227838.88344
      2696.231        2100.959  
 124548933.717    97051113.4634   23700870.539 7  23700870.72043  23700872.17943
      2858.878        2227.697  
 08 11 15  1 43 30.0000000  0  9G 6G 3G16G19G23G13G25G 7G27         
 109074695.641    84993275.0644   20756223.669 7  20756223.19945  20756225.76745
     -1709.670       -1332.204  
 104361710.801    81320816.4844   19859371.643 8  19859370.90845  19859373.88545
      -972.956        -758.144  
 116599595.702    90856827.9164   22188164.257 7  22188163.61844  22188166.13044
     -2043.584       -1592.397  
 107393288.782    83683084.9554   20436260.344 8  20436259.19146  20436260.34146
      1107.731         863.170  
 121222635.160                    23067902.845 4                                
     -2953.602                  
 118516690.510    92350661.5534   22552975.508 7  22552975.58844  22552976.48144
     -1894.630       -1476.334  
 111938886.570    87225112.1794   21301260.382 8  21301260.00845  21301261.75045
      1481.796        1154.651  
 116727345.683    90956376.2054   22212472.968 7  22212472.38945  22212474.72345
      2686.001        2092.992  
 124463244.863    96984342.9274   23684564.062 7  23684563.35643  23684565.61243
      2853.356        2223.397  
 08 11 15  1 44  0.0000000  0  9G 6G 3G16G19G23G13G25G 7G27         
 109126143.934    85033364.6384   20766014.089 8  20766013.78945  20766015.45245
     -1720.049       -1340.295  
 104391118.706    81343731.7254   19864967.737 8  19864966.90545  19864969.97545
      -987.389        -769.388  
 116660981.421    90904660.9184   22199845.948 7  22199845.33644  22199847.11944
     -2048.619       -1596.327  
 107360292.448    83657373.5244   20429981.377 8  20429980.66646  20429981.38046
      1092.178         851.046  
 121311355.498                    23084788.127 3                                
     -2960.907                  
 118573765.038    92395135.1814   22563836.425 7  22563836.55744  22563837.33044
     -1910.172       -1488.444  
 111894654.273    87190645.4614   21292842.739 8  21292841.97445  21292844.32445
      1467.176        1143.257  
 116646924.875    90893710.6314   22197168.976 7  22197168.89045  22197170.81945
      2675.541        2084.834  
 124377731.868    96917709.4364   23668290.937 7  23668290.71643  23668293.41443
      2847.657        2218.946  
 08 11 15  1 44 30.0000000  0  9G 6G 3G16G19G23G13G25G 7G27         
 109177912.046    85073703.4254   20775865.229 8  20775864.84145  20775866.73745
     -1731.009       -1348.836  
 104420967.412    81366990.4454   19870648.090 8  19870647.64846  19870649.92246
     -1002.388        -781.072  
 116722526.257    90952617.9074   22211557.571 7  22211557.17644  22211558.47244
     -2054.235       -1600.705  
 107327771.812    83632032.7804   20423792.474 7  20423791.49446  20423792.94646
      1076.012         838.451  
 121400305.583                    23101718.253 4                                
     -2968.892                  
 118631313.667    92439978.2524   22574786.167 7  22574786.03044  22574789.03944
     -1926.244       -1500.973  
 111850870.484    87156528.2214   21284511.116 8  21284510.69645  21284513.28445
      1451.876        1131.334  
 116566828.310    90831297.7064   22181927.353 7  22181926.99445  22181928.76445
      2664.384        2076.143  
 124292399.855    96851216.9744   23652051.762 6  23652050.55343  23652055.45143
      2841.289        2213.996  
 08 11 15  1 45  0.0000000  0  8G 6G 3G16G19G13G25G 7G27            
 109230011.111    85114300.0894   20785779.238 7  20785779.07245  20785781.30445
     -1742.006       -1357.404  
 104451268.866    81390601.9534   19876414.207 8  19876413.65546  19876416.63245
     -1017.462        -792.824  
 116784243.197    91000709.0014   22223301.790 7  22223300.86344  22223303.27844
     -2059.982       -1605.179  
 107295739.529    83607072.5654   20417696.764 7  20417695.59846  20417696.59546
      1059.723         825.765  
 118689346.547    92485198.6664   22585829.480 6  22585829.37944  22585832.45643
     -1942.357       -1513.525  
 111807550.037    87122772.0284   21276267.732 7  21276267.67045  21276269.44245
      1436.390        1119.261  
 116487071.058    90769149.2084   22166750.026 6  22166749.78945  22166751.39445
      2652.995        2067.272  
 124207263.919    96784877.2914   23635850.777 6  23635849.74243  23635854.41843
      2834.670        2208.844  
 08 11 15  1 45 30.0000000  0  8G 6G 3G16G19G13G25G 7G27            
 109282422.561    85155140.1734   20795752.563 8  20795752.32245  20795755.35045
     -1752.028       -1365.228  
 104482004.513    81414551.7944   19882262.877 8  19882262.45946  19882265.63146
     -1031.532        -803.794  
 116846115.643    91048921.2844   22235075.573 7  22235075.16544  22235077.38744
     -2064.809       -1608.941  
 107264178.795    83582479.7774   20411691.394 8  20411690.53446  20411690.94146
      1044.364         813.791  
 118747844.535    92530781.4984   22596962.028 6  22596961.85144  22596963.90144
     -1957.465       -1525.304  
 111764678.188    87089365.3844   21268109.519 8  21268109.42245  21268110.54045
      1421.755        1107.857  
 116407639.407    90707254.4174   22151633.914 7  22151634.20345  22151636.37945
      2642.455        2059.051  
 124122309.840    96718679.3134   23619685.239 7  23619684.97643  23619688.11443
      2828.947        2204.373  
 08 11 15  1 46  0.0000000  0  8G 6G 3G16G19G13G25G 7G27            
 109335141.340    85196219.7234   20805784.675 7  20805784.27245  20805787.08146
     -1762.808       -1373.611  
 104513169.354    81438836.0714   19888193.347 8  19888192.79245  19888195.87646
     -1046.392        -815.364  
 116908140.121    91097252.0204   22246878.332 7  22246877.56044  22246880.18344
     -2070.395       -1613.298  
 107233086.349    83558251.8994   20405774.895 8  20405774.08946  20405774.22846
      1028.194         801.195  
 118806801.297    92576721.7924   22608181.091 7  22608180.88344  22608183.57344
     -1973.268       -1537.613  
 111722253.515    87056307.1904   21260036.208 7  21260036.13945  21260037.52745
      1406.278        1095.805  
 116328532.664    90645612.7964   22136580.637 7  22136581.02045  22136582.90145
      2631.026        2050.152  
 124037536.272    96652621.9914   23603553.328 7  23603553.97643  23603556.15243
      2822.361        2199.238  
 08 11 15  1 46 30.0000000  0  8G 6G 3G16G19G13G25G 7G27            
 109388176.563    85237545.8564   20815876.645 8  20815876.51245  20815879.53345
     -1772.997       -1381.556  
 104544772.915    81463462.2194   19894207.238 8  19894206.81645  19894209.54445
     -1060.627        -826.464  
 116970327.823    91145709.9554   22258712.009 7  22258711.31944  22258713.54244
     -2075.534       -1617.299  
 107202473.079    83534397.4104   20399948.690 7  20399947.59746  20399948.75946
      1012.562         789.009  
 118866225.341    92623026.1934   22619489.151 7  22619489.12044  22619491.02244
     -1988.471       -1549.449  
 111680288.913    87023607.5034   21252050.601 7  21252050.26245  21252051.73245
      1391.234        1084.082  
 116249764.501    90584235.0094   22121592.134 7  22121592.40945  22121593.64545
      2620.011        2041.573  
 123952956.541    96586715.7134   23587459.082 7  23587458.77843  23587461.07043
      2816.167        2194.421  
 08 11 15  1 47  0.0000000  0  8G 6G 3G16G19G13G25G 7G27            
 109441507.349    85279102.2994   20826025.572 8  20826025.34645  20826027.88145
     -1782.703       -1389.114  
 104576794.461    81488414.0654   19900300.541 8  19900299.82045  19900303.10345
     -1074.438        -837.216  
 117032659.776    91194280.2854   22270573.936 7  22270573.31344  22270575.21244
     -2080.260       -1620.982  
 107172319.870    83510901.4034   20394210.732 8  20394209.64446  20394210.82546
       997.343         777.150  
 118926094.650    92669677.5974   22630881.435 7  22630881.20844  22630883.79744
     -2003.155       -1560.891  
 111638767.209    86991252.9324   21244149.533 7  21244148.84845  21244150.79245
      1376.523        1072.618  
 116171318.338    90523108.1214   22106664.170 7  22106665.02845  22106665.34645
      2609.365        2033.276  
 123868553.965    96520947.4724   23571397.905 7  23571398.06444  23571399.33244
      2810.337        2189.881  
 08 11 15  1 47 30.0000000  0  9G 6G 3G16G19G23G13G25G 7G27         
 109495138.916    85320893.1194   20836231.061 7  20836231.01345  20836233.48845
     -1792.452       -1396.711  
 104609239.081    81513695.5864   19906474.480 8  19906473.82145  19906476.57345
     -1088.285        -848.012  
 117095142.876    91242968.3834   22282464.697 7  22282464.34545  22282465.57245
     -2085.040       -1624.697  
 107142633.353    83487769.0544   20388561.998 7  20388560.75446  20388561.50546
       981.998         765.195  
 121938689.795                    23204161.238 4                                
         0.000                  
 118986413.711    92716679.4384   22642359.667 6  22642359.24044  22642362.12444
     -2017.866       -1572.358  
 111597697.273    86959250.3754   21236333.895 8  21236333.78545  21236335.33745
      1361.682        1061.058  
 116093203.617    90462239.5144   22091799.103 7  22091798.97745  22091800.04945
      2598.505        2024.814  
 123784337.683    96455324.4214   23555372.249 7  23555371.67044  23555373.95744
      2804.301        2185.170  
 08 11 15  1 48  0.0000000  0  8G 6G 3G16G19G13G25G 7G27            
 109549068.387    85362916.0804   20846493.557 7  20846492.83945  20846495.52645
     -1802.935       -1404.880  
 104642104.428    81539304.9544   19912728.700 8  19912728.59745  19912730.29745
     -1102.834        -859.353  
 117157776.316    91291773.6234   22294383.655 7  22294383.50945  22294384.20445
     -2090.619       -1629.053  
 107113412.856    83464999.8374   20383001.502 7  20383000.21346  20383001.51646
       965.937         752.681  
 119047178.956    92764028.9494   22653923.072 7  22653922.70744  22653925.91244
     -2033.283       -1584.366  
 111557080.066    86927600.5994   21228604.626 8  21228604.35745  21228606.48445
      1346.006        1048.835  
 116015422.387    90401630.7644   22076998.057 7  22076996.98145  22076998.55745
      2586.781        2015.674  
 123700309.193    96389847.6874   23539381.832 7  23539381.32044  23539384.46844
      2797.463        2179.847  
 08 11 15  1 48 30.0000000  0  8G 6G 3G16G19G13G25G 7G27            
 109603303.305    85405177.0544   20856814.459 8  20856814.41345  20856816.20445
     -1812.943       -1412.686  
 104675397.946    81565247.9684   19919064.519 8  19919063.94945  19919066.42346
     -1116.949        -870.351  
 117220569.106    91340703.0474   22306332.011 7  22306331.68544  22306333.38045
     -2095.792       -1633.083  
 107084667.493    83442600.8624   20377531.286 8  20377530.13046  20377531.40346
       950.231         740.441  
 119108396.377    92811730.8074   22665572.529 7  22665571.59944  22665574.95344
     -2048.150       -1595.953  
 111516926.516    86896312.1124   21220963.706 8  21220963.07345  21220965.94045
      1330.666        1036.888  
 115937986.476    90341291.1014   22062262.264 7  22062262.20345  22062263.16645
      2575.363        2006.778  
 123616480.005    96324526.2494   23523429.026 7  23523428.72644  23523433.10144
      2790.920        2174.750  
 08 11 15  1 49  0.0000000  0  8G 6G 3G16G19G13G25G 7G27            
 109657837.357    85447671.1144   20867192.038 8  20867191.97645  20867193.20745
     -1823.232       -1420.707  
 104709113.873    81591520.1184   19925480.424 8  19925480.03645  19925482.37445
     -1131.344        -881.565  
 117283516.999    91389753.3334   22318310.279 7  22318309.84344  22318311.85444
     -2101.335       -1637.402  
 107056392.538    83420568.4314   20372150.464 7  20372149.14246  20372150.13746
       934.187         727.934  
 119170059.007    92859779.5944   22677306.625 7  22677306.07244  22677309.19944
     -2063.274       -1607.754  
 111477234.098    86865382.9524   21213410.890 8  21213410.47945  21213412.72945
      1314.903        1024.600  
 115860893.941    90281219.0164   22047592.607 7  22047592.63545  22047593.08045
      2563.531        1997.548  
 123532847.828    96259358.3274   23507514.567 7  23507513.37943  23507518.45443
      2783.950        2169.318  
 08 11 15  1 49 30.0000000  0  8G 6G 3G16G19G13G25G 7G27            
 109712678.902    85490404.7654   20877627.675 7  20877627.53345  20877629.85445
     -1833.005       -1428.317  
 104743260.583    81618127.9354   19931978.402 8  19931977.88346  19931980.80946
     -1145.227        -892.385  
 117346630.788    91438932.8764   22330320.477 7  22330320.53544  22330321.29944
     -2106.381       -1641.336  
 107028598.045    83398910.3844   20366861.610 7  20366860.43146  20366861.27946
       918.641         715.828  
 119232174.250    92908181.0414   22689127.033 7  22689127.40344  22689129.90744
     -2077.861       -1619.114  
 111438014.918    86834822.5454   21205947.567 8  21205947.60045  21205949.06045
      1299.575        1012.655  
 115784157.628    90221424.4634   22032989.946 7  22032990.15745  22032990.84845
      2552.067        1988.624  
 123449425.347    96194353.8094   23491639.540 6  23491638.54343  23491641.92743
      2777.405        2164.208  
 08 11 15  1 50  0.0000000  0  8G 6G 3G16G19G13G25G 7G27            
 109767820.140    85533371.9514   20888120.618 8  20888120.21645  20888123.37545
     -1843.217       -1436.272  
 104777830.064    81645065.1904   19938556.510 8  19938555.82145  19938558.89545
     -1159.598        -903.580  
 117409903.674    91488236.3784   22342360.950 7  22342360.41444  22342361.93744
     -2111.996       -1645.712  
 107001277.720    83377621.8224   20361663.127 8  20361662.47446  20361662.65046
       902.532         703.275  
 119294733.484    92956928.4544   22701032.059 7  22701031.91844  22701033.92544
     -2092.926       -1630.841  
 111399264.750    86804627.6044   21198573.627 8  21198573.40745  21198575.14345
      1283.609        1000.213  
 115707774.261    90161904.9554   22018454.558 7  22018455.13145  22018456.13245
      2539.969        1979.197  
 123366208.740    96129509.7044   23475804.084 7  23475803.60743  23475806.47943
      2770.186        2158.596  
 08 11 15  1 50 30.0000000  0  8G 6G 3G16G19G13G25G 7G27            
 109823255.174    85576568.0724   20898669.661 7  20898669.27845  20898671.97845
     -1853.072       -1443.957  
 104812816.654    81672327.4674   19945214.163 8  19945213.91645  19945216.57645
     -1173.507        -914.424  
 117473331.895    91537660.9394   22354431.683 7  22354430.94145  22354432.86645
     -2117.198       -1649.766  
 106974427.478    83356699.5444   20356553.819 8  20356552.65746  20356552.93946
       886.839         691.044  
 119357729.533    93006016.2554   22713018.908 7  22713017.79344  22713021.38444
     -2107.456       -1642.175  
 111360981.376    86774796.3954   21191288.343 8  21191287.93645  21191290.03145
      1267.981         988.030  
 115631742.528    90102659.4514   22003986.311 7  22003986.11345  22003988.06745
      2528.170        1969.998  
 123283196.255    96064824.6574   23460007.912 7  23460007.74443  23460010.06643
      2763.317        2153.238  
 08 11 15  1 51  0.0000000  0  8G 6G 3G16G19G13G25G 7G27            
 109878983.148    85619992.4534   20909274.871 8  20909274.57145  20909276.76445
     -1862.627       -1451.397  
 104848219.736    81699914.2854   19951950.967 8  19951950.57245  19951953.83345
     -1187.187        -925.085  
 117536916.555    91587207.4114   22366531.582 7  22366531.07245  22366533.05445
     -2122.263       -1653.709  
 106948047.691    83336143.8594   20351533.773 7  20351532.90646  20351533.23746
       871.319         678.953  
 119421160.523    93055442.9874   22725089.561 7  22725088.97744  22725092.36644
     -2121.733       -1653.303  
 111323167.316    86745330.8884   21184092.940 7  21184093.01145  21184094.44745
      1252.464         975.955  
 115556065.784    90043690.5494   21989585.597 7  21989584.70645  21989587.36545
      2516.450        1960.872  
 123200391.235    96000301.2694   23444250.686 7  23444251.57844  23444251.97044
      2756.534        2147.943  
 08 11 15  1 51 30.0000000  0  9G 6G 3G16G19G23G13G25G 7G27         
 109935003.870    85663644.9614   20919934.894 8  20919934.79745  20919936.23345
     -1872.400       -1459.012  
 104884039.010    81727825.4054   19958767.536 8  19958766.85745  19958770.19045
     -1201.052        -935.880  
 117600659.181    91636876.9754   22378660.864 7  22378660.44645  22378662.76745
     -2127.550       -1657.824  
 106922140.007    83315956.0614   20346603.561 8  20346602.57446  20346602.54546
       855.552         666.664  
 122667673.296                    23342880.351 5                                
     -3062.661                  
 119485024.977    93105207.4694   22737243.208 7  22737243.21344  22737244.81744
     -2136.169       -1664.550  
 111285825.921    86716233.6894   21176987.468 8  21176987.67045  21176988.49245
      1236.650         963.630  
 115480748.279    89985001.5954   21975252.633 7  21975252.34745  21975254.34145
      2504.415        1951.493  
 123117797.477    95935942.5024   23428533.666 7  23428533.89444  23428534.27244
      2749.423        2142.408  
 08 11 15  1 52  0.0000000  0  9G 6G 3G16G19G23G13G25G 7G27         
 109991318.828    85707526.7414   20930650.945 8  20930650.84845  20930652.64845
     -1881.621       -1466.197  
 104920276.240    81756062.2044   19965662.904 8  19965662.44646  19965666.07746
     -1214.493        -946.351  
 117664563.317    91686672.3804   22390821.347 7  22390820.71144  22390823.68144
     -2132.423       -1661.626  
 106896707.793    83296138.7634   20341763.916 8  20341763.41446  20341763.79246
       840.218         654.719  
 122759640.313                    23360377.039 3                                
     -3068.119                  
 119549323.630    93155310.2584   22749478.609 7  22749478.64344  22749480.31844
     -2150.099       -1675.397  
 111248962.602    86687509.0224   21169972.390 8  21169972.11345  21169973.47145
      1221.189         951.581  
 115405796.047    89926597.2724   21960989.608 7  21960989.74445  21960990.75445
      2492.695        1942.365  
 123035420.869    95871752.9584   23412857.856 6  23412856.68343  23412859.20143
      2742.639        2137.116  
 08 11 15  1 52 30.0000000  0  9G 6G 3G16G19G23G13G25G 7G27         
 110047920.394    85751631.8494   20941422.279 8  20941421.86045  20941423.79945
     -1891.794       -1474.119  
 104956924.098    81784618.9684   19972636.997 8  19972636.82446  19972640.01946
     -1228.761        -957.469  
 117728623.282    91736589.1944   22403011.217 7  22403010.77444  22403013.44644
     -2138.256       -1666.165  
 106871744.515    83276686.8654   20337013.970 8  20337013.01346  20337013.71746
       823.966         642.058  
 122851780.181                    23377911.233 3                                
     -3074.505                  
 119614047.931    93205744.7414   22761794.767 7  22761794.24443  22761797.89644
     -2164.873       -1686.909  
 111212573.113    86659153.5864   21163046.474 7  21163045.71845  21163048.69145
      1204.731         938.758  
 115331205.946    89868475.1264   21946795.567 7  21946795.67545  21946797.38045
      2479.939        1932.429  
 122953257.783    95807729.7834   23397221.854 6  23397220.89343  23397224.68243
      2734.856        2131.073  
 08 11 15  1 53  0.0000000  0  9G 6G 3G16G19G23G13G25G 7G27         
 110104805.346    85795957.7684   20952247.121 7  20952246.97745  20952248.99945
     -1900.921       -1481.227  
 104993979.039    81813492.9394   19979688.458 8  19979687.90446  19979690.84046
     -1241.985        -967.773  
 117792837.595    91786626.2944   22415230.973 7  22415230.48744  22415232.50744
     -2143.097       -1669.941  
 106847248.776    83257599.2744   20332352.294 8  20332351.61446  20332352.16546
       808.676         630.145  
 122944088.063                    23395479.545 3                                
     -3079.780                  
 119679193.308    93256507.3834   22774191.499 7  22774191.55744  22774194.74344
     -2178.539       -1697.567  
 111176657.869    86631167.6894   21156212.007 7  21156211.57345  21156214.02145
      1189.204         926.656  
 115256979.239    89810636.1324   21932670.469 7  21932670.72845  21932673.50445
      2468.101        1923.192  
 122871309.012    95743873.6144   23381628.164 7  23381627.39643  23381630.69843
      2727.979        2125.694  
 08 11 15  1 53 30.0000000  0  9G 6G 3G16G19G23G13G25G 7G27         
 110161973.797    85840504.6044   20963125.522 7  20963125.44345  20963128.36245
     -1910.618       -1488.786  
 105031441.894    81842684.7714   19986817.292 8  19986816.80245  19986819.46645
     -1255.805        -978.551  
 117857208.366    91836785.3194   22427480.617 7  22427480.16745  22427482.53744
     -2148.571       -1674.218  
 106823222.430    83238877.4414   20327780.460 8  20327779.71546  20327780.10846
       792.784         617.756  
 123036562.249                    23413078.723 4                                
     -3085.476                  
 119744758.927    93307597.4674   22786668.526 7  22786668.49844  22786670.75744
     -2192.765       -1708.646  
 111141220.394    86603554.0774   21149469.091 7  21149468.37445  21149470.32145
      1172.996         914.027  
 115183120.145    89753083.5834   21918615.996 7  21918616.02645  21918618.89245
      2455.537        1913.409  
 122789578.888    95680187.7824   23366075.475 7  23366074.95844  23366078.83744
      2720.388        2119.781  
 08 11 15  1 54  0.0000000  0  9G 6G 3G16G19G23G13G25G 7G27         
 110219418.582    85885266.7614   20974057.110 7  20974056.79745  20974060.00945
     -1919.690       -1495.862  
 105069305.316    81872188.7374   19994022.582 8  19994022.28645  19994024.50645
     -1269.017        -988.841  
 117921729.865    91887061.7884   22439758.531 7  22439758.10944  22439760.53844
     -2153.491       -1678.039  
 106799659.297    83220516.5614   20323296.586 7  20323295.71246  20323296.35946
       777.461         605.809  
 123129194.694                    23430709.733 3                                
     -3090.540                  
 119810736.589    93359008.5934   22799223.828 7  22799223.53944  22799225.99544
     -2206.350       -1719.242  
 111106257.114    86576309.9544   21142816.267 7  21142815.99145  21142817.27145
      1157.268         901.767  
 115109626.128    89695815.5154   21904630.596 7  21904631.18145  21904633.00345
      2443.429        1903.969  
 122708064.392    95616669.9894   23350563.762 7  23350563.40344  23350566.42544
      2713.275        2114.242  
 08 11 15  1 54 30.0000000  0  8G 6G 3G16G19G13G25G 7G27            
 110277147.349    85930250.1994   20985042.321 7  20985042.12945  20985045.29045
     -1928.463       -1502.699  
 105107576.956    81902010.7894   20001305.563 8  20001305.36446  20001307.93546
     -1281.948        -998.916  
 117986411.816    91937463.2984   22452067.010 7  22452066.26144  22452068.64644
     -2158.184       -1681.704  
 106776568.741    83202523.9184   20318902.554 8  20318901.55946  20318901.92046
       762.362         594.046  
 119877132.453    93410745.5714   22811857.667 6  22811856.41744  22811861.87844
     -2219.577       -1729.535  
 111071779.291    86549444.1184   21136255.160 7  21136254.78245  21136256.23045
      1141.719         889.653  
 115036509.613    89638841.6194   21890717.272 7  21890717.22945  21890718.63345
      2431.457        1894.636  
 122626777.144    95553329.2834   23335095.333 7  23335095.32244  23335097.93244
      2706.331        2108.827  
 08 11 15  1 55  0.0000000  0  8G 6G 3G16G19G13G25G 7G27            
 110335139.821    85975439.1264   20996077.870 7  20996077.61945  20996080.37745
     -1937.866       -1510.018  
 105146236.129    81932134.8054   20008662.044 8  20008661.65446  20008664.43946
     -1295.518       -1009.496  
 118051235.853    91987975.5044   22464402.609 7  22464401.61044  22464404.45044
     -2163.598       -1685.916  
 106753931.853    83184884.7944   20314594.889 8  20314593.95546  20314594.46246
       746.579         581.749  
 119943925.138    93462791.7854   22824568.779 7  22824567.88744  22824571.40444
     -2233.433       -1740.329  
 111037769.958    86522943.3244   21129783.427 8  21129783.16645  21129784.83245
      1125.393         876.927  
 114963754.116    89582149.0324   21876872.269 7  21876873.08845  21876873.46545
      2418.712        1884.709  
 122545701.004    95490153.0644   23319667.059 7  23319666.37044  23319669.55444
      2698.562        2102.770  
 08 11 15  1 55 30.0000000  0  8G 6G 3G16G19G13G25G 7G27            
 110393406.169    86020841.4634   21007165.401 7  21007165.17945  21007167.85145
     -1946.490       -1516.738  
 105185293.888    81962569.4154   20016094.701 8  20016094.03145  20016097.12245
     -1308.278       -1019.442  
 118116214.071    92038607.8434   22476767.404 7  22476766.78144  22476769.56844
     -2168.252       -1689.554  
 106731760.440    83167608.3674   20310375.526 8  20310374.54546  20310374.76246
       731.558         570.052  
 120011123.859    93515154.3954   22837357.099 7  22837357.51344  22837358.98244
     -2246.426       -1750.460  
 111004242.773    86496818.2354   21123403.215 7  21123402.92645  21123405.40845
      1109.787         864.767  
 114891374.624    89525749.4344   21863098.661 7  21863098.36245  21863100.11645
      2406.619        1875.286  
 122464850.596    95427152.7564   23304281.698 7  23304281.16244  23304283.91344
      2691.489        2097.270  
 08 11 15  1 56  0.0000000  0  8G 6G 3G16G19G13G25G 7G27            
 110451934.083    86066447.6184   21018303.414 7  21018302.81445  21018305.35345
     -1955.189       -1523.529  
 105224737.504    81993304.6884   20023600.320 8  20023599.72746  20023602.90345
     -1321.159       -1029.482  
 118181335.843    92089352.0464   22489159.425 7  22489159.15144  22489161.15344
     -2173.072       -1693.309  
 106710043.589    83150686.1434   20306242.580 7  20306241.30246  20306242.48946
       716.372         558.211  
 120078715.203    93567822.9344   22850218.977 7  22850219.13444  22850221.19244
     -2259.509       -1760.656  
 110971188.867    86471061.9374   21117113.379 8  21117113.17745  21117115.04345
      1093.946         852.424  
 114819362.950    89469636.4444   21849394.854 7  21849394.59245  21849396.95045
      2394.285        1865.675  
 122384217.542    95364321.7994   23288937.265 7  23288937.18744  23288938.82944
      2684.171        2091.573  
 08 11 15  1 56 30.0000000  0  9G 6G 3G16G19G23G13G25G 7G27         
 110510723.329    86112257.3994   21029491.033 8  21029490.91745  21029492.55145
     -1963.544       -1530.034  
 105264567.030    82024340.6624   20031179.798 8  20031179.38046  20031181.85646
     -1333.626       -1039.190  
 118246603.155    92140209.6604   22501579.946 7  22501579.42044  22501580.90244
     -2177.542       -1696.777  
 106688782.505    83134119.0614   20302197.197 8  20302196.18046  20302196.42246
       701.548         546.659  
 123594635.613                    23519269.790 5                                
     -3113.847                  
 120146697.779    93620796.3264   22863155.161 7  22863154.68943  22863157.33644
     -2272.149       -1770.496  
 110938611.540    86445677.0114   21110913.794 8  21110913.54845  21110915.66645
      1078.388         840.304  
 114747723.485    89413813.4974   21835762.864 7  21835762.34245  21835764.51545
      2382.194        1856.256  
 122303805.704    95301663.2294   23273635.597 7  23273635.25644  23273637.70744
      2677.119        2086.054  
 08 11 15  1 57  0.0000000  0  8G 6G 3G16G19G13G25G 7G27            
 110569766.190    86158264.8114   21040726.345 8  21040726.09245  21040728.13545
     -1972.573       -1537.072  
 105304774.621    82055671.2374   20038830.797 8  20038830.13946  20038833.46645
     -1346.808       -1049.460  
 118312009.704    92191175.7714   22514026.171 7  22514025.26244  22514026.99044
     -2182.811       -1700.895  
 106667971.008    83117902.3084   20298237.149 8  20298236.17246  20298236.27946
       685.953         534.506  
 120215062.554    93674067.5374   22876164.520 7  22876163.77643  22876166.90943
     -2285.444       -1780.862  
 110906506.544    86420660.1374   21104804.467 8  21104803.88845  21104806.31645
      1062.011         827.539  
 114676452.954    89358278.0314   21822200.751 7  21822200.52445  21822201.99445
      2369.231        1846.153  
 122223611.675    95239174.3924   23258375.061 7  23258374.74144  23258377.66044
      2669.221        2079.905  
 08 11 15  1 57 30.0000000  0  8G 6G 3G16G19G13G25G 7G27            
 110629068.903    86204474.7014   21052011.257 7  21052010.86145  21052012.85345
     -1980.629       -1543.350  
 105345366.486    82087301.2514   20046555.049 8  20046554.82445  20046557.99345
     -1359.017       -1058.968  
 118377563.414    92242256.5554   22526500.115 7  22526499.24744  22526501.92344
     -2187.135       -1704.263  
 106647616.423    83102041.5954   20294363.719 8  20294362.99346  20294362.88546
       671.306         523.093  
 120283814.571    93727640.5254   22889248.245 7  22889248.26944  22889249.83244
     -2297.722       -1790.429  
 110874883.361    86396018.6934   21098786.721 8  21098786.38545  21098788.55445
      1046.492         815.447  
 114605562.041    89303038.3604   21808710.605 7  21808709.75645  21808712.49645
      2357.121        1836.718  
 122143645.582    95176863.1654   23243158.115 7  23243158.08544  23243160.27444
      2662.165        2074.412  
 08 11 15  1 58  0.0000000  0  9G 6G 3G16G19G23G13G25G 7G27         
 110688617.573    86250876.2464   21063343.174 7  21063342.60345  21063344.57945
     -1989.722       -1550.425  
 105386329.028    82119220.1074   20054350.387 8  20054350.19746  20054352.81246
     -1372.261       -1069.293  
 118443252.819    92293443.0664   22539000.294 6  22538999.43844  22539002.89944
     -2192.584       -1708.506  
 106627706.349    83086527.2534   20290574.966 8  20290574.00146  20290574.45146
       655.581         510.845  
 123875746.463                    23572760.858 4                                
         0.000                  
 120352938.638    93781503.4174   22902401.472 7  22902401.51443  22902403.37043
     -2310.989       -1800.773  
 110843731.682    86371744.6504   21092858.844 8  21092858.10345  21092861.05345
      1029.841         802.468  
 114535040.976    89248086.8714   21795290.667 7  21795290.04245  21795293.42945
      2343.821        1826.358  
 122063897.817    95114722.0614   23227982.964 7  23227981.88344  23227983.92444
      2653.942        2068.007  
 08 11 15  1 58 30.0000000  0  8G 6G 3G16G19G13G25G 7G27            
 110748425.744    86297480.0014   21074723.917 7  21074723.84945  21074726.26945
     -1997.951       -1556.844  
 105427675.675    82151438.2724   20062218.623 8  20062217.92946  20062220.74546
     -1384.630       -1078.932  
 118509093.088    92344747.1444   22551529.684 6  22551528.54444  22551532.26044
     -2197.212       -1712.110  
 106608255.510    83071370.7664   20286873.329 8  20286872.38346  20286873.29846
       640.669         499.221  
 120422447.186    93835665.9184   22915626.850 6  22915625.75642  22915631.44042
     -2323.364       -1810.415  
 110813068.301    86347851.1014   21087023.611 8  21087023.15045  21087025.78645
      1013.930         790.077  
 114464907.840    89193437.6754   21781944.943 7  21781944.12645  21781947.19745
      2331.250        1816.563  
 121984386.008    95052764.8294   23212851.511 7  23212851.00044  23212853.05644
      2646.398        2062.131  
 08 11 15  1 59  0.0000000  0  8G 6G 3G16G19G13G25G 7G27            
 110808493.918    86344286.3454   21086154.277 7  21086153.85545  21086157.11445
     -2006.544       -1563.547  
 105469406.876    82183956.0834   20070159.828 8  20070159.24946  20070162.20046
     -1397.359       -1088.855  
 118575086.650    92396170.6624   22564088.261 6  22564087.50644  22564090.44444
     -2202.294       -1716.067  
 106589265.970    83056573.7224   20283259.922 8  20283259.25646  20283259.27546
       625.352         487.286  
 120492339.454    93890127.4074   22928928.292 6  22928927.86643  22928931.55243
     -2336.082       -1820.336  
 110782897.049    86324341.0314   21081282.237 7  21081282.04345  21081284.06845
       997.569         777.326  
 114395167.345    89139094.4414   21768673.858 7  21768674.22645  21768675.33745
      2318.153        1806.349  
 121905114.912    94990995.1504   23197766.765 7  23197765.95244  23197768.72444
      2638.392        2055.887  
 08 11 15  1 59 30.0000000  0  8G 6G 3G16G19G13G25G 7G27            
 110868816.243    86391290.7424   21097633.401 7  21097633.29545  21097636.03945
     -2014.822       -1569.983  
 105511516.906    82216769.0744   20078172.952 8  20078172.54646  20078175.52046
     -1409.847       -1098.580  
 118641229.274    92447710.3434   22576675.158 7  22576674.95044  22576677.87244
     -2207.123       -1719.838  
 106570732.898    83042132.3644   20279733.289 8  20279732.40646  20279732.74246
       610.277         475.540  
 120562608.263    93944882.2944   22942300.584 6  22942300.29943  22942303.36543
     -2348.422       -1829.930  
 110753215.504    86301212.5444   21075634.052 7  21075633.88445  21075635.87845
       981.346         764.690  
 114325818.076    89085056.0564   21755477.546 7  21755478.04945  21755478.43845
      2305.214        1796.276  
 121826082.648    94929411.5614   23182727.416 7  23182727.42544  23182729.46244
      2630.529        2049.755  
 08 11 15  2  0  0.0000000  0  8G 6G 3G16G19G13G25G 7G27            
 110929382.040    86438484.8684   21109158.678 7  21109158.41945  21109161.39045
     -2023.262       -1576.566  
 105553995.451    82249869.2314   20086256.795 8  20086256.38646  20086258.76846
     -1422.431       -1108.390  
 118707512.111    92499359.2884   22589288.584 7  22589288.69544  22589290.64144
     -2212.120       -1723.735  
 106552647.583    83028039.9184   20276291.738 8  20276290.74146  20276291.31246
       595.028         463.658  
 120633241.853    93999921.4514   22955742.467 7  22955742.27243  22955744.92443
     -2360.850       -1839.619  
 110724016.208    86278459.8504   21070077.993 8  21070077.69045  21070079.43945
       964.897         751.869  
 114256853.752    89031317.6544   21742354.097 7  21742354.58445  21742355.03845
      2291.994        1785.967  
 121747282.682    94868008.9814   23167732.843 7  23167732.82744  23167735.09344
      2622.407        2043.437  
 08 11 15  2  0 30.0000000  0  8G 6G 3G16G19G13G25G 7G27            
 110990196.571    86485872.8064   21120731.240 7  21120731.21045  21120734.47145
     -2031.125       -1582.699  
 105596847.191    82283260.1914   20094410.735 8  20094410.26345  20094412.59845
     -1434.474       -1117.775  
 118773942.357    92551123.0934   22601929.686 7  22601929.14344  22601931.12244
     -2216.666       -1727.269  
 106535016.180    83014301.1654   20272936.117 8  20272934.83346  20272935.36546
       580.292         452.170  
 120704243.813    94055247.6234   22969253.000 6  22969252.81643  22969256.28243
     -2372.711       -1848.867  
 110695307.801    86256089.6654   21064614.867 8  21064614.38645  21064616.64145
       948.875         739.384  
 114188284.014    88977886.7004   21729305.076 7  21729305.32145  21729306.92245
      2279.177        1775.978  
 121668724.541    94806794.8454   23152783.734 7  23152783.08044  23152786.32444
      2614.687        2037.413  
 08 11 15  2  1  0.0000000  0  9G 6G 3G16G19G23G13G25G 7G27         
 111051237.753    86533437.3344   21132346.486 7  21132346.05645  21132350.62045
     -2038.642       -1588.552  
 105640050.260    82316924.9084   20102632.066 8  20102631.19945  20102633.69045
     -1446.098       -1126.828  
 118840499.705    92602985.9464   22614594.192 7  22614593.65344  22614596.88344
     -2220.865       -1730.542  
 106517817.766    83000899.7904   20269663.295 8  20269662.51646  20269662.36946
       565.909         440.969  
 124440413.701                    23680219.836 5                                
         0.000                  
 120775591.253    94110842.9764   22982829.633 6  22982828.91942  22982832.21642
     -2384.140       -1857.775  
 110667071.465    86234087.3164   21059241.686 8  21059241.52346  21059244.02045
       933.157         727.137  
 114120091.134    88924749.3964   21716328.653 7  21716329.05145  21716330.11745
      2266.626        1766.204  
 121590390.325    94745755.1934   23137876.796 6  23137876.33444  23137879.65444
      2607.224        2031.605  
 08 11 15  2  1 30.0000000  0  8G 6G 3G16G19G13G25G 7G27            
 111112523.772    86581192.6384   21144009.080 7  21144008.96445  21144012.13245
     -2046.767       -1594.883  
 105683622.566    82350877.3414   20110923.911 8  20110923.58746  20110925.70246
     -1458.389       -1136.407  
 118907204.197    92654963.4504   22627287.825 7  22627287.33844  22627290.09444
     -2225.777       -1734.373  
 106501071.576    82987850.8154   20266477.112 8  20266476.37046  20266476.14146
       550.828         429.211  
 120847300.827    94166720.5064   22996474.260 5  22996472.28141  22996476.97342
     -2396.168       -1867.113  
 110639328.603    86212469.4904   21053962.357 7  21053961.70745  21053964.66545
       916.676         714.290  
 114052297.477    88871923.1784   21703427.978 7  21703428.40945  21703428.88845
      2253.259        1755.783  
 121512302.178    94684907.2984   23123016.924 7  23123016.06544  23123020.00844
      2598.981        2025.175  
 08 11 15  2  2  0.0000000  0  8G 6G 3G16G19G13G25G 7G27            
 111174054.006    86629138.2664   21155718.536 7  21155718.26945  21155720.28945
     -2055.052       -1601.337  
 105727563.926    82385117.3494   20119285.586 8  20119285.10446  20119287.86446
     -1470.842       -1146.107  
 118974056.949    92707056.4614   22640009.521 7  22640008.84444  22640011.00544
     -2230.907       -1738.371  
 106484778.842    82975155.1834   20263376.791 8  20263376.06046  20263375.90546
       535.533         417.298  
 120919370.498    94222878.7194   23010189.917 5  23010188.27941  23010193.26641
     -2408.326       -1876.609  
 110612081.928    86191238.3044   21048777.360 8  21048776.84345  21048779.15945
       899.930         701.244  
 113984906.808    88819410.9744   21690604.034 7  21690604.44745  21690605.59145
      2239.609        1745.146  
 121434463.535    94624253.8334   23108204.812 6  23108203.75444  23108208.00744
      2590.442        2018.510  
 08 11 15  2  2 30.0000000  0  8G 6G 3G16G19G13G25G 7G27            
 111235825.285    86677271.7064   21167473.586 8  21167473.77945  21167474.98045
     -2062.748       -1607.340  
 105771871.133    82419642.4274   20127717.057 8  20127716.55946  20127719.72946
     -1482.670       -1155.329  
 119041057.222    92759264.4244   22652759.827 7  22652759.45544  22652761.14044
     -2235.478       -1741.934  
 106468937.503    82962811.2864   20260362.218 8  20260360.87446  20260361.76346
       520.834         405.844  
 120991796.133    94279314.2734   23023973.170 6  23023973.93742  23023973.92342
     -2419.800       -1885.542  
 110585331.677    86170393.9414   21043686.968 7  21043686.42645  21043688.84845
       883.687         688.583  
 113917920.560    88767213.9094   21677857.157 7  21677857.57345  21677857.97545
      2226.412        1734.863  
 121356875.874    94563795.9404   23093440.039 6  23093439.54244  23093443.70144
      2582.377        2012.244  
 08 11 15  2  3  0.0000000  0  8G 6G 3G16G19G13G25G 7G27            
 111297827.072    86725584.7664   21179272.370 7  21179271.91545  21179273.79645
     -2070.437       -1613.324  
 105816533.538    82454444.2934   20136215.712 8  20136214.80746  20136218.36646
     -1494.558       -1164.588  
 119108195.543    92811579.9704   22665535.577 7  22665534.98344  22665537.52744
     -2240.149       -1745.567  
 106453537.852    82950811.5424   20257431.561 8  20257430.69146  20257431.65646
       506.080         394.350  
 121064565.340    94336017.4944   23037820.753 6  23037820.03041  23037820.88541
     -2431.212       -1894.461  
 110559070.117    86149930.3804   21038689.377 7  21038689.14545  21038691.85645
       867.347         675.849  
 113851332.031    88715326.7534   21665185.576 8  21665186.04545  21665186.39245
      2213.062        1724.465  
 121279532.218    94503528.1804   23078722.473 6  23078722.18444  23078725.62344
      2574.139        2005.821  
 08 11 15  2  3 30.0000000  0  8G 6G 3G16G19G13G25G 7G27            
 111360050.954    86774070.8864   21191112.740 7  21191112.78945  21191115.08145
     -2078.272       -1619.435  
 105861542.651    82489516.3244   20144780.629 8  20144780.13745  20144782.87845
     -1506.511       -1173.904  
 119175465.448    92863998.0254   22678337.394 7  22678336.73344  22678337.98344
     -2245.005       -1749.349  
 106438572.429    82939150.1604   20254583.547 8  20254582.40446  20254584.03046
       491.127         382.699  
 121137668.500    94392980.9554   23051730.771 6  23051730.71841  23051732.94841
     -2442.778       -1903.397  
 110533292.093    86129843.6034   21033784.141 7  21033783.60145  21033786.36845
       850.733         662.909  
 113785137.178    88663746.3484   21652588.724 7  21652589.33445  21652590.60945
      2199.425        1713.843  
 121202428.218    94443447.1434   23064050.634 7  23064051.17244  23064052.93844
      2565.631        1999.200  
 08 11 15  2  4  0.0000000  0  8G 6G 3G16G19G13G25G 7G27            
 111422509.254    86822739.6704   21202998.268 7  21202997.94545  21203001.00545
     -2085.496       -1625.059  
 105906910.470    82524867.8684   20153413.799 8  20153413.06145  20153416.54645
     -1517.892       -1182.777  
 119242881.332    92916529.8574   22691166.412 7  22691165.86744  22691166.85444
     -2249.295       -1752.699  
 106424055.376    82927838.1674   20251820.943 8  20251820.18546  20251821.46746
       476.783         371.517  
 121211116.759    94450213.3434   23065707.990 6  23065708.53541  23065710.69241
     -2453.648       -1911.927  
 110508013.408    86110145.9204   21028973.639 8  21028972.97345  21028975.66645
       834.625         650.356  
 113719353.083    88612486.0194   21640070.538 7  21640070.66645  21640071.94845
      2186.277        1703.590  
 121125580.578    94383565.8764   23049426.845 6  23049427.17344  23049429.72744
      2557.622        1992.953  
 08 11 15  2  4 30.0000000  0  8G 6G 3G16G19G13G25G 7G27            
 111485196.448    86871586.8174   21214926.931 7  21214926.62545  21214930.02945
     -2092.797       -1630.750  
 105952631.709    82560494.8034   20162114.501 8  20162114.01045  20162116.10745
     -1529.347       -1191.698  
 119310439.217    92969172.3264   22704021.972 7  22704021.28344  22704023.44044
     -2253.728       -1756.155  
 106409982.027    82916871.9154   20249143.007 8  20249142.02746  20249142.86546
       462.291         360.231  
 121284903.134    94507709.2114   23079749.593 6  23079749.43742  23079751.07542
     -2464.577       -1920.435  
 110483231.513    86090835.3414   21024257.838 8  21024257.59645  21024260.19345
       818.337         637.668  
 113653977.731    88561544.1904   21627629.819 7  21627630.35045  21627631.06645
      2172.896        1693.166  
 121048987.841    94323883.2464   23034851.750 6  23034851.47244  23034854.21044
      2549.377        1986.534  
 08 11 15  2  5  0.0000000  0  8G 6G 3G16G19G13G25G 7G27            
 111548108.167    86920608.9114   21226898.487 7  21226898.33845  21226901.90945
     -2101.345       -1637.415  
 105998702.017    82596393.7384   20170881.081 8  20170880.58345  20170883.14045
     -1542.058       -1201.598  
 119378136.881    93021923.7354   22716904.070 7  22716903.75244  22716906.14944
     -2259.480       -1760.632  
 106396348.953    82906248.7324   20246549.151 8  20246548.02446  20246548.57046
       446.513         347.936  
 121359021.826    94565464.0224   23093853.017 6  23093853.80941  23093854.79941
     -2476.700       -1929.891  
 110458945.167    86071910.9074   21019636.695 8  21019636.37945  21019638.48346
       800.692         623.914  
 113589011.737    88510921.3394   21615266.885 7  21615267.54045  21615268.89745
      2158.094        1681.632  
 120972649.806    94264399.0874   23020324.745 6  23020323.65844  23020327.57744
      2539.767        1979.030  
 08 11 15  2  5 30.0000000  0  8G 6G 3G16G19G13G25G 7G27            
 111611242.957    86969804.8394   21238913.137 7  21238912.37445  21238916.03445
     -2108.087       -1642.664  
 106045119.546    82632563.2314   20179714.046 8  20179713.59445  20179716.36545
     -1552.949       -1210.083  
 119445974.315    93074784.0554   22729813.090 7  22729812.32644  22729815.45644
     -2263.521       -1763.773  
 106383156.368    82895968.7984   20244038.585 8  20244037.55146  20244037.94346
       432.493         337.009  
 121433469.883    94623475.4184   23108020.281 6  23108019.52641  23108021.13241
     -2486.979       -1937.901  
 110435155.978    86053373.8834   21015109.813 8  21015109.70445  21015111.11345
       784.748         611.490  
 113524457.780    88460619.5464   21602982.705 7  21602983.89545  21602985.10545
      2144.987        1671.419  
 120896568.909    94205115.2714   23005846.861 6  23005845.88744  23005849.65944
      2531.791        1972.831  
 08 11 15  2  6  0.0000000  0  8G 6G 3G16G19G13G25G 7G27            
 111674605.160    87019177.9664   21250970.639 7  21250970.39945  21250973.10645
     -2116.080       -1648.898  
 106091888.852    82669006.8364   20188614.118 8  20188613.77345  20188615.76245
     -1565.075       -1219.542  
 119513957.826    93127758.1894   22742749.515 7  22742749.46944  22742751.83944
     -2268.794       -1767.887  
 106370409.397    82886036.0934   20241612.955 8  20241612.09446  20241612.05146
       417.226         325.113  
 121508250.623    94681746.0744   23122250.120 5  23122248.74441  23122253.03541
     -2498.437       -1946.853  
 110411871.445    86035230.0874   21010678.963 8  21010678.62845  21010680.22745
       767.483         598.036  
 113460324.170    88410645.2994   21590778.760 7  21590779.25245  21590781.17945
      2130.502        1660.134  
 120820753.755    94146038.5394   22991419.213 6  22991419.28444  22991422.15844
      2522.481        1965.555  
 08 11 15  2  6 30.0000000  0  8G 6G 3G16G19G13G25G 7G27            
 111738182.720    87068718.9164   21263068.712 7  21263068.77345  21263071.16745
     -2123.116       -1654.372  
 106138997.832    82705715.1204   20197578.414 8  20197577.92245  20197580.53845
     -1576.224       -1228.220  
 119582077.142    93180838.1384   22755712.035 7  22755712.16544  22755714.54544
     -2273.186       -1771.307  
 106358096.977    82876442.0114   20239270.016 8  20239269.14346  20239269.12246
       402.890         313.943  
 121583350.167    94740265.1674   23136541.300 5  23136540.22641  23136542.53641
     -2508.895       -1954.987  
 110389082.526    86017472.4834   21006341.797 8  21006341.35345  21006343.67945
       751.068         585.252  
 113396603.317    88360992.6824   21578653.107 7  21578653.41145  21578655.00245
      2116.833        1649.481  
 120745196.345    94087162.6534   22977041.863 6  22977041.56344  22977044.21444
      2513.970        1958.936  
 08 11 15  2  7  0.0000000  0  8G 6G 3G16G19G13G25G 7G27            
 111801969.480    87118422.8744   21275206.899 7  21275206.61545  21275209.22945
     -2129.256       -1659.164  
 106186440.139    82742683.1444   20206606.652 8  20206605.83745  20206608.24845
     -1586.517       -1236.243  
 119650327.763    93234020.4164   22768699.609 6  22768698.63043  22768702.63743
     -2276.778       -1774.110  
 106346214.024    82867182.5714   20237008.911 8  20237007.90046  20237007.68046
       389.381         303.417  
 121658761.025    94799026.8704   23150892.765 6  23150892.22341  23150892.36641
     -2518.419       -1962.398  
 110366786.159    86000098.6864   21002099.399 8  21002099.02445  21002101.10845
       735.427         573.060  
 113333293.142    88311660.0734   21566605.746 7  21566605.92345  21566607.11945
      2103.897        1639.396  
 120669894.496    94028485.8964   22962712.034 6  22962711.93443  22962714.59043
      2506.195        1952.888  
 08 11 15  2  7 30.0000000  0  8G 6G 3G16G19G13G25G 7G27            
 111865965.914    87168290.2134   21287384.766 7  21287384.27845  21287387.08645
     -2136.742       -1664.988  
 106234216.236    82779911.2694   20215697.780 7  20215697.34745  20215699.94345
     -1598.124       -1245.291  
 119718712.014    93287306.8054   22781713.467 6  22781712.20044  22781715.89144
     -2281.768       -1778.000  
 106334762.186    82858259.0714   20234829.591 8  20234828.51646  20234828.71046
       374.497         291.811  
 121734482.294    94858030.3714   23165302.014 6  23165301.51441  23165303.05541
     -2529.217       -1970.844  
 110344985.670    85983111.2834   20997950.749 8  20997950.44545  20997952.71345
       718.349         559.749  
 113270398.219    88262651.0344   21554636.877 7  21554636.89345  21554638.44245
      2089.493        1628.176  
 120594852.725    93970011.8314   22948432.045 6  22948431.80443  22948434.80043
      2496.972        1945.676  
 08 11 15  2  8  0.0000000  0  8G 6G 3G16G19G13G25G 7G27            
 111930178.251    87218325.7824   21299604.224 7  21299603.56145  21299606.46645
     -2143.748       -1670.453  
 106282332.290    82817404.2974   20224854.134 8  20224853.43945  20224856.35645
     -1609.298       -1253.997  
 119787238.213    93340703.8024   22794754.142 7  22794753.49244  22794755.80844
     -2286.324       -1781.553  
 106323748.688    82849677.1194   20232733.877 8  20232732.89046  20232733.12546
       360.042         280.552  
 121810518.611    94917279.3494   23179771.313 5  23179770.70341  23179773.24441
     -2539.567       -1978.887  
 110323690.523    85966517.6544   20993898.217 8  20993898.05245  20993900.61545
       701.619         546.718  
 113207929.207    88213973.8864   21542749.514 7  21542749.89545  21542750.99845
      2075.381        1617.179  
 120520081.549    93911748.5904   22934203.775 6  22934202.73344  22934207.03044
      2488.038        1938.735  
 08 11 15  2  8 30.0000000  0  8G 6G 3G16G19G13G25G 7G27            
 111994592.929    87268519.0224   21311861.582 7  21311861.48045  21311864.38645
     -2150.591       -1675.784  
 106330774.813    82855151.7084   20234072.435 8  20234071.81645  20234074.65445
     -1620.252       -1262.530  
 119855894.011    93394201.7954   22807818.758 7  22807818.01944  22807820.21044
     -2290.763       -1785.012  
 106313160.896    82841426.8914   20230719.034 8  20230717.90846  20230718.36746
       345.750         269.415  
 121886855.219    94976762.4014   23194297.545 5  23194296.71141  23194298.08641
     -2549.585       -1986.693  
 110302890.165    85950309.5864   20989940.215 8  20989940.09745  20989942.52745
       685.000         533.768  
 113145876.714    88165621.3044   21530942.012 7  21530942.01945  21530942.75745
      2061.364        1606.256  
 120445571.713    93853688.9724   22920025.354 6  22920024.98244  22920028.49544
      2479.200        1931.835  
 08 11 15  2  9  0.0000000  0  8G 6G 3G16G19G13G25G 7G27            
 112059211.201    87318870.9014   21324158.297 7  21324158.05245  21324161.06445
     -2157.653       -1681.276  
 106379544.391    82893153.9684   20243353.032 8  20243352.24245  20243354.98945
     -1631.411       -1271.226  
 119924682.594    93447803.2574   22820908.194 6  22820907.43544  22820910.09244
     -2295.496       -1788.696  
 106303000.907    82833510.0224   20228785.516 8  20228784.61046  20228785.40246
       331.218         258.092  
 121963491.748    95036479.1524   23208880.120 5  23208882.39041  23208879.13341
     -2559.826       -1994.650  
 110282588.603    85934490.1894   20986077.219 7  20986076.72945  20986078.89645
       668.062         520.570  
 113084246.136    88117597.4764   21519213.797 7  21519213.60845  21519214.98345
      2046.968        1595.041  
 120371328.310    93795836.9704   22905897.060 6  22905896.24844  22905899.94644
      2469.994        1924.669  
 08 11 15  2  9 30.0000000  0  9G 6G 3G16G19G13G25G11G 7G27         
 112124039.085    87369386.1234   21336494.436 7  21336494.14045  21336497.55745
     -2164.212       -1686.398  
 106428647.361    82931416.0194   20252696.903 8  20252696.44545  20252698.84645
     -1642.047       -1279.524  
 119993612.025    93501514.4894   22834025.709 6  22834024.58544  22834027.57944
     -2299.769       -1792.036  
 106293276.037    82825932.2144   20226935.311 8  20226934.45946  20226934.41546
       317.138         247.118  
 122040432.600    95096433.0194   23223522.173 4  23223523.50541  23223524.77041
     -2569.508       -2002.213  
 110262794.902    85919066.5204   20982310.383 8  20982310.17245  20982312.34645
       651.536         507.684  
 126130278.036                    24001794.775 4                                
      3684.292                  
 113023047.700    88069910.3664   21507567.610 7  21507566.96245  21507569.86345
      2032.950        1584.113  
 120297361.533    93738200.5154   22891822.035 6  22891820.97144  22891824.39644
      2461.150        1917.781  
 08 11 15  2 10  0.0000000  0  9G 6G 3G16G19G13G25G11G 7G27         
 112189073.561    87420062.3354   21348869.971 7  21348869.76045  21348873.40045
     -2171.460       -1692.055  
 106478080.318    82969935.2044   20262104.056 8  20262103.66945  20262105.57345
     -1653.484       -1288.429  
 120062680.923    93555334.3754   22847168.724 7  22847168.63643  22847170.37943
     -2304.850       -1795.990  
 106283984.207    82818691.8304   20225167.060 8  20225166.44146  20225166.43846
       302.293         235.555  
 122117673.321    95156620.6304   23238221.464 4  23238220.51041  23238219.94541
     -2579.868       -2010.262  
 110243509.006    85904038.5374   20978640.315 8  20978639.77545  20978642.61945
       634.165         494.157  
 126019780.115    98197247.8714   23980768.535 5  23980768.53041  23980773.29441
      3682.220        2869.287  
 112962282.409    88022560.7844   21496004.129 7  21496003.59445  21496006.84145
      2018.029        1572.489  
 120223672.243    93680780.2764   22877799.913 7  22877799.15044  22877802.12744
      2451.419        1910.191  
 08 11 15  2 10 30.0000000  0  9G 6G 3G16G19G13G25G11G 7G27         
 112254312.817    87470898.1104   21361285.121 8  21361284.89945  21361287.96345
     -2177.720       -1696.922  
 106527841.820    83008710.3954   20271573.332 8  20271572.81345  20271574.88845
     -1663.861       -1296.516  
 120131889.048    93609262.7524   22860338.795 6  22860338.28443  22860341.07043
     -2308.941       -1799.165  
 106275124.280    82811787.9924   20223481.076 8  20223480.38546  20223480.37346
       288.445         224.765  
 122195210.567    95217039.2734   23252974.973 4  23252974.41241  23252975.67741
     -2589.113       -2017.575  
 110224731.810    85889406.9494   20975067.536 8  20975067.05545  20975069.56045
       617.724         481.346  
 125909331.400    98111184.0464   23959751.929 5  23959752.05641  23959752.84741
      3681.096        2868.388  
 112901952.516    87975550.4674   21484524.022 7  21484523.81145  21484526.03145
      2004.017        1561.575  
 120150262.564    93623577.9254   22863830.127 7  22863829.44544  22863832.62944
      2442.610        1903.333  
 08 11 15  2 11  0.0000000  0  9G 6G 3G16G19G13G25G11G 7G27         
 112319746.655    87521885.5054   21373736.786 7  21373736.31145  21373739.67545
     -2184.542       -1702.240  
 106577921.389    83047733.4364   20281102.993 8  20281102.89845  20281105.40145
     -1674.747       -1305.006  
 120201228.078    93663293.1264   22873532.836 6  22873532.58743  22873535.62743
     -2313.647       -1802.846  
 106266687.206    82805213.6484   20221875.587 8  20221874.78646  20221875.41346
       274.018         213.520  
 122273032.796    95277679.9214   23267784.414 4  23267784.91141  23267785.61841
     -2598.956       -2025.196  
 110206456.187    85875166.1994   20971589.667 8  20971589.67846  20971591.77746
       600.638         468.033  
 125798926.322    98025154.2144   23938742.267 5  23938742.74741  23938741.28841
      3679.221        2866.923  
 112842052.062    87928874.7804   21473125.511 7  21473125.53645  21473127.17345
      1989.323        1550.119  
 120077126.368    93566588.6824   22849912.469 7  22849912.32644  22849914.64344
      2433.107        1895.942  
 08 11 15  2 11 30.0000000  0  9G 6G 3G16G19G13G25G11G 7G27         
 112385375.559    87573024.9024   21386225.681 7  21386225.35245  21386227.76945
     -2191.161       -1707.400  
 106628319.160    83087004.4054   20290693.572 8  20290693.40745  20290696.21345
     -1685.528       -1313.395  
 120270700.192    93717427.2004   22886751.472 6  22886750.99743  22886755.87843
     -2318.281       -1806.455  
 106258674.090    82798969.6574   20220350.741 8  20220349.96646  20220350.05846
       259.731         202.387  
 122351138.892    95338541.7494   23282648.187 5  23282647.70141  23282646.01441
     -2608.529       -2032.535  
 110188685.407    85861318.8344   20968208.316 8  20968208.19245  20968210.20745
       583.620         454.773  
 125688569.550    97939162.0174   23917742.165 6  23917741.42241  23917741.48241
      3677.436        2865.505  
 112782585.613    87882537.2854   21461809.624 7  21461809.34645  21461811.28045
      1974.639        1538.682  
 120004268.277    93509816.1414   22836048.817 7  22836049.10644  22836050.47044
      2423.623        1888.534  
 08 11 15  2 12  0.0000000  0  9G 6G 3G16G19G13G25G11G 7G27         
 112451213.003    87624326.7884   21398753.801 7  21398753.49545  21398755.90945
     -2197.649       -1712.445  
 106679048.577    83126533.8054   20300347.132 8  20300346.66346  20300349.67246
     -1696.112       -1321.648  
 120340320.515    93771676.7654   22900001.292 5  22900000.12143  22900003.49943
     -2322.760       -1809.932  
 106251099.498    82793067.3664   20218909.112 8  20218908.27346  20218908.60546
       245.562         191.349  
 122429540.843    95399634.0814   23297568.366 6  23297570.27641  23297570.89641
     -2617.923       -2039.944  
 110171435.631    85847877.4404   20964925.657 7  20964925.41045  20964927.04845
       566.682         441.574  
 125578278.361    97853220.9234   23896754.632 6  23896755.90842  23896755.40942
      3675.617        2864.104  
 112723570.832    87836551.7454   21450579.321 8  21450579.64245  21450581.03745
      1959.977        1527.262  
 119931705.819    93453273.9644   22822240.618 7  22822240.42944  22822243.04644
      2414.179        1881.187  
 08 11 15  2 12 30.0000000  0  9G 6G 3G16G19G13G25G11G 7G27         
 112517235.608    87675772.9624   21411317.601 7  21411317.34545  21411320.44945
     -2204.006       -1717.409  
 106730086.396    83166303.5154   20310059.282 8  20310058.85945  20310061.76646
     -1706.555       -1329.784  
 120410067.679    93826025.1564   22913274.110 6  22913273.94643  22913275.93143
     -2327.193       -1813.395  
 106243940.915    82787489.2524   20217546.707 8  20217545.96446  20217546.04846
       231.514         180.395  
 122508213.649    95460937.5694   23312537.046 4  23312536.21341  23312542.38041
     -2627.102       -2047.114  
 110154686.543    85834826.1934   20961738.512 8  20961738.32245  20961739.45245
       549.773         428.391  
 125468033.992    97767316.3044   23875775.109 6  23875775.61242  23875776.37242
      3673.848        2862.738  
 112664988.558    87790903.2244   21439432.113 8  21439433.12646  21439433.27646
      1945.335        1515.839  
 119859419.998    93396947.3634   22808484.412 7  22808484.02644  22808487.82544
      2404.737        1873.815  
 08 11 15  2 13  0.0000000  0  9G 6G 3G16G19G13G25G11G 7G27         
 112583451.879    87727370.0314   21423918.651 7  21423918.58345  21423921.54045
     -2210.267       -1722.284  
 106781440.635    83206319.7904   20319831.309 8  20319830.98345  20319834.08145
     -1716.906       -1337.850  
 120479951.472    93880480.0144   22926572.229 7  22926572.18143  22926575.46143
     -2331.590       -1816.822  
 106237207.658    82782242.5534   20216265.922 8  20216265.32246  20216264.83146
       217.522         169.497  
 122587164.011    95522457.3184   23327560.667 4  23327559.70541  23327562.29241
     -2636.104       -2054.080  
 110138449.100    85822173.6264   20958648.424 7  20958648.31845  20958649.80545
       532.861         415.219  
 125357848.521    97681457.6164   23854807.413 6  23854807.14242  23854808.71042
      3672.005        2861.302  
 112606850.927    87745601.1714   21428369.082 7  21428369.50546  21428370.57345
      1930.636        1504.387  
 119787422.704    93340845.5824   22794783.833 7  22794783.11544  22794786.90644
      2395.225        1866.408  
 08 11 15  2 13 30.0000000  0  9G 6G 3G16G19G13G25G11G 7G27         
 112649857.890    87779114.9534   21436555.243 7  21436554.94445  21436557.80645
     -2216.538       -1727.169  
 106833107.535    83246579.7064   20329663.102 8  20329662.53445  20329665.82445
     -1727.248       -1345.910  
 120549970.358    93935040.1574   22939895.830 6  22939894.71943  22939899.86343
     -2336.073       -1820.326  
 106230896.694    82777324.9214   20215064.916 8  20215063.89146  20215063.93646
       203.488         158.564  
 122666387.090    95584189.4684   23342636.647 5  23342633.19641  23342638.17541
     -2645.128       -2061.125  
 110122722.539    85809919.1594   20955655.874 8  20955655.83745  20955656.96745
       515.856         401.962  
 125247722.774    97595645.4364   23833851.397 6  23833850.61043  23833852.16843
      3669.979        2859.732  
 112549158.561    87700646.0824   21417389.683 7  21417390.13345  21417391.30745
      1915.783        1492.814  
 119715714.542    93284969.0984   22781137.997 7  22781137.67844  22781141.12144
      2385.596        1858.898  
 08 11 15  2 14  0.0000000  0  9G 6G 3G16G19G13G25G11G 7G27         
 112716454.458    87831008.3564   21449227.888 7  21449227.81445  21449230.78445
     -2222.993       -1732.204  
 106885087.593    83287083.6434   20339554.719 8  20339554.35045  20339556.81145
     -1737.850       -1354.165  
 120620126.528    93989707.2744   22953247.162 6  22953246.37943  22953249.60643
     -2340.768       -1823.981  
 106225009.926    82772737.8264   20213944.395 8  20213943.25546  20213943.90646
       189.196         147.427  
 122745881.500    95646133.0514   23357762.889 4  23357757.34041  23357771.26441
     -2654.199       -2068.201  
 110107510.144    85798065.3524   20952761.164 8  20952761.18645  20952762.12245
       498.527         388.458  
 125137661.500    97509883.5214   23812906.521 6  23812905.54043  23812907.95543
      3667.640        2857.899  
 112491915.994    87656041.4904   21406496.508 7  21406496.30645  21406498.13945
      1900.592        1480.983  
 119644300.198    93229321.5644   22767548.568 7  22767547.60945  22767551.00344
      2375.585        1851.108  
 08 11 15  2 14 30.0000000  0  9G 6G 3G16G19G13G25G11G 7G27         
 112783237.459    87883047.0354   21461935.920 7  21461935.88445  21461939.20245
     -2229.084       -1736.945  
 106937376.634    83327828.3454   20349504.965 8  20349504.01845  20349507.04745
     -1747.977       -1362.058  
 120690417.192    94044479.1814   22966624.113 6  22966623.81143  22966626.08843
     -2345.133       -1827.375  
 106219543.801    82768478.5004   20212903.819 8  20212902.57546  20212903.55346
       175.316         136.609  
 122825641.966    95708284.0854   23372942.150 3  23372939.27641  23372951.96941
     -2663.022       -2075.067  
 110092810.518    85786611.0984   20949964.307 8  20949964.46146  20949965.25346
       481.551         375.235  
 125027664.950    97424172.0334   23791974.572 6  23791974.59043  23791976.30643
      3665.562        2856.292  
 112435122.789    87611787.0504   21395689.709 7  21395689.29345  21395691.13745
      1885.702        1469.377  
 119573179.678    93173902.9864   22754014.599 7  22754014.54745  22754017.56345
      2365.888        1843.549  
 08 11 15  2 15  0.0000000  0  9G 6G 3G16G19G13G25G11G 7G27         
 112850200.690    87935226.1614   21474678.872 7  21474678.77145  21474681.59245
     -2235.064       -1741.605  
 106989968.247    83368808.8004   20359512.587 8  20359511.79345  20359515.10345
     -1758.068       -1369.911  
 120760838.198    94099352.6814   22980024.182 6  22980023.75642  22980026.15043
     -2349.529       -1830.795  
 106214492.884    82764542.7194   20211942.796 8  20211941.79546  20211942.51746
       161.449         125.804  
 122905660.385    95770635.9774   23388169.376 4  23388169.74641  23388175.12141
     -2671.580       -2081.780  
 110078620.267    85775553.7554   20947263.881 8  20947263.50445  20947265.48345
       464.521         361.965  
 124917730.638    97338509.0614   23771055.073 6  23771054.93543  23771056.76843
      3663.409        2854.600  
 112378777.380    87567881.5504   21384967.132 7  21384966.50445  21384969.07145
      1870.704        1457.697  
 119502350.689    93118711.5834   22740536.551 7  22740536.84645  22740539.11045
      2356.090        1835.911  
 08 11 15  2 15 30.0000000  0  9G 6G 3G16G19G13G25G11G 7G27         
 112917336.371    87987539.6584   21487454.470 7  21487453.86045  21487456.99945
     -2240.970       -1746.206  
 107042854.491    83410018.8434   20369577.025 8  20369576.41745  20369578.79545
     -1768.009       -1377.670  
 120831383.349    94154322.9034   22993446.780 5  22993445.89842  22993450.63242
     -2353.815       -1834.142  
 106209850.009    82760924.9014   20211059.370 8  20211058.59046  20211058.14546
       147.724         115.107  
 122985927.262                    23403449.310 3                                
     -2679.990                  
 110064933.992    85764889.1114   20944659.617 8  20944659.39746  20944661.05946
       447.544         348.737  
 124807855.082    97252891.8714   23750147.118 6  23750146.62843  23750148.24243
      3661.271        2852.909  
 112322875.666    87524321.7664   21374329.155 7  21374329.26045  21374331.48145
      1855.709        1446.001  
 119431809.238    93063744.2344   22727113.004 7  22727113.05345  22727115.25345
      2346.328        1828.304  
 08 11 15  2 16  0.0000000  0  8G 6G 3G16G19G25G11G 7G27            
 112984647.567    88039989.9334   21500263.279 7  21500263.19245  21500266.28245
     -2246.721       -1750.687  
 107096038.338    83451460.7854   20379697.439 8  20379697.03645  20379699.61745
     -1777.856       -1385.345  
 120902057.558    94209393.6944   23006895.979 5  23006893.47142  23006899.06241
     -2358.055       -1837.441  
 106205619.222    82757628.1754   20210254.575 8  20210253.66546  20210253.08646
       134.056         104.458  
 110051757.642    85754621.8124   20942151.732 8  20942151.19146  20942154.17546
       430.589         335.523  
 124698045.598    97167326.1594   23729251.121 6  23729250.02743  23729252.20643
      3659.068        2851.219  
 112267425.200    87481113.6104   21363777.878 7  21363777.51645  21363779.47245
      1840.697        1434.312  
 119361562.450    93009006.4844   22713745.601 8  22713746.06845  22713748.02445
      2336.500        1820.651  
 08 11 15  2 16 30.0000000  0  8G 6G 3G16G19G25G11G 7G27            
 113052136.291    88092578.5314   21513106.072 7  21513105.81545  21513108.92145
     -2252.593       -1755.267  
 107149521.291    83493135.7914   20389874.856 8  20389874.25945  20389876.49945
     -1787.771       -1393.071  
 120972864.341    94264567.8014   23020371.493 5  23020370.12241  23020374.15141
     -2362.459       -1840.888  
 106201803.251    82754654.6824   20209528.443 8  20209527.65746  20209527.40446
       120.268          93.712  
 110039095.672    85744755.3284   20939742.252 7  20939741.94046  20939744.57146
       413.456         322.173  
 124588308.243    97081816.6434   23708367.198 5  23708366.39242  23708369.00142
      3656.625        2849.304  
 112212431.294    87438261.2164   21353312.832 7  21353312.51545  21353314.63445
      1825.465        1422.439  
 119291616.499    92954503.1534   22700434.829 7  22700434.74044  22700438.22545
      2326.469        1812.834  
 08 11 15  2 17  0.0000000  0  8G 6G 3G16G19G25G11G 7G27            
 113119805.528    88145307.7874   21525982.840 7  21525982.85345  21525985.94145
     -2258.475       -1759.847  
 107203306.606    83535046.4184   20400110.009 8  20400109.46545  20400111.47645
     -1797.689       -1400.795  
 121043808.391    94319848.8514   23033872.169 6  23033870.52641  23033873.62241
     -2366.909       -1844.331  
 106198405.554    82752007.1264   20208881.995 8  20208881.33946  20208881.16046
       106.464          82.956  
 110026953.719    85735294.0604   20937431.621 8  20937431.24946  20937433.57146
       396.243         308.759  
 124478649.974    96996368.7684   23687500.139 6  23687500.78042  23687501.96942
      3654.095        2847.339  
 112157901.014    87395770.0964   21342935.971 7  21342935.45045  21342937.44345
      1810.091        1410.462  
 119221978.305    92900239.6264   22687183.263 7  22687182.26644  22687185.76644
      2316.296        1804.909  
 08 11 15  2 17 30.0000000  0  8G 6G 3G16G19G25G11G 7G27            
 113187653.672    88198176.4574   21538894.303 7  21538894.28245  21538897.24345
     -2264.681       -1764.687  
 107257392.190    83577191.0214   20410402.351 8  20410402.08045  20410403.95545
     -1807.951       -1408.789  
 121114889.494    94375236.7074   23047398.807 6  23047397.04641  23047398.89541
     -2371.792       -1848.138  
 106195425.353    82749684.8814   20208314.717 8  20208314.10346  20208313.86246
        92.272          71.905  
 110015332.653    85726238.6794   20935220.327 8  20935220.26746  20935222.27946
       378.569         294.996  
 124369073.690    96910984.7364   23666648.850 6  23666648.67442  23666648.94542
      3651.008        2844.939  
 112103836.759    87353642.1104   21332647.410 7  21332646.93145  21332649.10745
      1794.216        1398.094  
 119152649.895    92846217.4974   22673990.410 7  22673990.17844  22673992.83544
      2305.624        1796.589  
 08 11 15  2 18  0.0000000  0  8G 6G 3G16G19G25G11G 7G27            
 113255674.036    88251179.3254   21551837.754 7  21551837.69245  21551841.18645
     -2270.580       -1769.284  
 107311771.426    83619564.4374   20420750.147 8  20420749.52845  20420751.68345
     -1817.864       -1416.512  
 121186103.209    94430727.8984   23060949.620 5  23060951.01841  23060952.46941
     -2376.337       -1851.713  
 106192856.920    82747683.4964   20207825.896 7  20207824.82746  20207825.33246
        78.407          61.099  
 110004228.574    85717586.1424   20933107.574 8  20933107.31546  20933109.05546
       361.144         281.416  
 124259576.722    96825662.5084   23645812.938 6  23645812.95043  23645812.31842
      3648.200        2842.736  
 112050235.763    87311875.1004   21322447.598 7  21322447.37945  21322449.21145
      1778.601        1385.928  
 119083628.959    92792434.9484   22660856.703 8  22660856.73244  22660857.64144
      2295.201        1788.474  
 08 11 15  2 18 30.0000000  0  8G 6G 3G16G19G25G11G 7G27            
 113323865.749    88304315.7074   21564813.938 7  21564813.58345  21564817.21745
     -2275.848       -1773.386  
 107366443.034    83662165.6854   20431153.900 8  20431153.51145  20431155.75445
     -1827.200       -1423.790  
 121257449.796    94486322.6204   23074527.549 4  23074525.87941  23074529.09241
     -2380.414       -1854.836  
 106190699.920    82746002.7214   20207415.302 8  20207414.26746  20207413.99046
        65.103          50.731  
 109993642.931    85709337.5904   20931092.832 8  20931092.18046  20931094.64246
       344.247         268.248  
 124150162.213    96740404.5154   23624992.055 6  23624992.10843  23624992.34343
      3645.792        2840.866  
 111997100.888    87270471.3054   21312336.213 7  21312336.53445  21312338.52645
      1763.411        1374.088  
 119014918.299    92738894.1564   22647781.198 7  22647781.11644  22647782.53444
      2285.201        1780.678  
 08 11 15  2 19  0.0000000  0  8G 6G 3G16G19G25G11G 7G27            
 113392223.452    88357581.4294   21577822.149 7  21577821.68045  21577825.24645
     -2281.081       -1777.461  
 107421401.861    83704990.7354   20441612.242 8  20441612.03445  20441614.18445
     -1836.437       -1430.992  
 121328925.951    94542018.3404   23088129.332 5  23088126.82741  23088129.64741
     -2384.400       -1857.978  
 106188949.372    82744638.6584   20207082.424 7  20207081.39746  20207081.41546
        51.869          40.422  
 109983572.811    85701490.7334   20929176.765 8  20929176.69546  20929178.28546
       327.361         255.089  
 124040828.943    96655209.8124   23604186.262 6  23604186.54343  23604187.94343
      3643.323        2838.965  
 111944430.955    87229429.7924   21302313.876 7  21302314.10045  21302315.87945
      1748.165        1362.210  
 118946516.657    92685594.1824   22634764.942 7  22634764.45644  22634766.39044
      2275.161        1772.856  
 08 11 15  2 19 30.0000000  0  8G 6G 3G16G19G25G11G 7G27            
 113460741.912    88410972.4304   21590860.587 7  21590859.95445  21590863.85145
     -2286.654       -1781.807  
 107476641.988    83748034.9784   20452124.423 8  20452123.98645  20452126.00245
     -1846.058       -1438.482  
 121400527.703    94597811.9334   23101754.472 5  23101751.20941  23101757.41941
     -2388.825       -1861.469  
 106187600.805    82743587.8384   20206825.722 8  20206824.78546  20206824.98646
        38.232          29.791  
 109974015.447    85694043.4314   20927358.011 8  20927357.68946  20927359.43946
       309.984         241.550  
 123931575.870    96570077.5864   23583396.372 7  23583396.32243  23583397.19343
      3640.359        2836.649  
 111892224.291    87188749.2714   21292378.940 7  21292379.09545  21292381.16045
      1732.439        1349.955  
 118878422.653    92632533.9164   22621806.777 7  22621806.49344  22621808.88844
      2264.616        1764.637  
 08 11 15  2 20  0.0000000  0  9G 6G 3G16G19G13G25G11G 7G27         
 113529415.885    88464484.5884   21603928.951 7  21603928.55945  21603931.98745
     -2292.311       -1786.213  
 107532157.982    83791294.1964   20462688.561 8  20462688.21045  20462689.93945
     -1855.723       -1446.018  
 121472251.613    94653700.7274   23115403.458 5  23115405.75041  23115406.60841
     -2393.419       -1865.051  
 106186649.615    82742846.6454   20206644.611 8  20206643.54846  20206643.94546
        24.477          19.082  
 123719409.283                    23543015.285 4                                
     -2751.396                  
 109964968.022    85686993.4824   20925635.942 8  20925635.09446  20925638.02746
       292.468         227.900  
 123822401.910    96485007.0114   23562620.597 7  23562620.49343  23562622.72943
      3637.171        2834.162  
 111840479.551    87148428.6964   21282532.810 7  21282532.26045  21282534.44445
      1716.486        1337.527  
 118810634.825    92579712.2294   22608907.829 7  22608907.40944  22608908.99844
      2253.853        1756.248  
 08 11 15  2 20 30.0000000  0  8G 6G 3G16G19G25G11G 7G27            
 113598262.979    88518131.6704   21617030.617 7  21617030.36845  21617033.56145
     -2297.066       -1789.922  
 107587967.795    83834782.3534   20473308.843 8  20473308.56645  20473310.53145
     -1864.482       -1452.844  
 121544116.870    94709699.5774   23129077.261 4  23129071.7184   23129077.2894 
     -2397.077       -1867.919  
 106186114.233    82742429.4504   20206542.889 8  20206542.00946  20206541.82146
        11.645           9.074  
 109956450.801    85680356.6774   20924015.318 7  20924014.81446  20924017.00045
       275.788         214.898  
 123713328.752    96400014.9604   23541864.686 6  23541863.20643  23541866.49243
      3634.792        2832.288  
 111789218.444    87108484.9714   21272778.215 7  21272778.10045  21272779.57445
      1701.338        1325.716  
 118743174.844    92527146.0144   22596070.177 7  22596069.79744  22596071.54345
      2243.895        1748.482  
 08 11 15  2 21  0.0000000  0  9G 6G 3G16G19G13G25G11G 7G27         
 113667261.749    88571896.9284   21630160.657 7  21630160.44145  21630163.26845
     -2302.376       -1794.054  
 107644049.411    83878482.2974   20483980.972 8  20483980.56045  20483982.48745
     -1873.798       -1460.098  
 121616103.804                    23142773.843 3                                
     -2401.373                  
 106185973.755    82742319.9764   20206515.734 8  20206514.73346  20206515.53346
        -1.781          -1.387  
 123884869.760                    23574503.391 4                                
     -2765.276                  
 109948444.325    85674117.8644   20922491.579 8  20922491.03345  20922493.36246
       258.466         201.404  
 123604338.772    96315087.7464   23521123.869 6  23521123.64243  23521126.34043
      3631.694        2829.886  
 111738422.929    87068904.0504   21263112.204 7  21263111.78045  21263113.15345
      1685.501        1313.377  
 118676025.006    92474821.4744   22583291.776 7  22583291.42044  22583293.42844
      2233.234        1740.182  
 08 11 15  2 21 30.0000000  0  9G 6G 3G16G19G13G25G11G 7G27         
 113736413.860    88625781.6854   21643319.951 7  21643319.46445  21643322.11045
     -2307.503       -1798.057  
 107700404.556    83922395.3824   20494704.600 8  20494704.00745  20494706.29945
     -1882.933       -1467.221  
 121688215.687                    23156500.165 4                                
     -2405.708                  
 106186230.183    82742519.7894   20206564.755 8  20206563.84246  20206564.23946
       -15.048         -11.726  
 123967939.216                    23590312.773 4                                
     -2772.296                  
 109940952.742    85668280.2684   20921065.562 8  20921065.18645  20921067.78245
       241.239         187.982  
 123495438.069    96230230.0874   23500401.498 6  23500401.39043  23500402.89943
      3628.588        2827.481  
 111688098.428    87029690.1584   21253535.434 7  21253535.13545  21253537.27445
      1669.698        1301.065  
 118609190.897    92422742.9484   22570573.723 7  22570573.98744  22570575.76744
      2222.621        1731.914  
 08 11 15  2 22  0.0000000  0  9G 6G 3G16G19G13G25G11G 7G27         
 113805717.894    88679784.8144   21656507.791 7  21656507.53745  21656510.57745
     -2312.152       -1801.671  
 107757031.069    83966519.9224   20505479.845 7  20505479.28445  20505481.93145
     -1891.574       -1473.951  
 121760452.499                    23170246.314 5                                
     -2409.523                  
 106186882.829    82743028.3374   20206689.287 8  20206688.13746  20206687.89046
       -27.870         -21.712  
 124051215.302                    23606161.571 5                                
     -2778.785                  
 109933977.107    85662844.7014   20919738.241 7  20919738.26345  20919740.44345
       224.379         174.846  
 123386629.329    96145444.0914   23479695.596 6  23479695.10343  23479697.09843
      3625.862        2825.368  
 111638247.661    86990845.3964   21244049.491 7  21244049.26245  21244051.17345
      1654.248        1289.022  
 118542675.081    92370912.4444   22557916.476 7  22557916.84544  22557918.75144
      2212.335        1723.892  
 08 11 15  2 22 30.0000000  0  9G 6G 3G16G19G13G25G11G 7G27         
 113875165.009    88733899.4404   21669722.704 7  21669722.86145  21669725.59245
     -2317.681       -1805.980  
 107813920.066    84010848.9994   20516305.813 8  20516305.27845  20516307.82645
     -1901.059       -1481.347  
 121832806.926                    23184011.831 4                                
     -2414.146                  
 106187923.383    82743839.1564   20206887.173 8  20206886.22146  20206886.18146
       -41.537         -32.365  
 124134687.248                    23622044.193 4                                
     -2785.966                  
 109927510.628    85657805.8784   20918508.020 7  20918507.57345  20918510.14045
       206.662         161.036  
 123277907.624    96060725.9064   23459006.139 5  23459005.21443  23459009.36543
      3622.190        2822.481  
 111588865.373    86952365.6954   21234652.511 7  21234652.71945  21234653.69945
      1637.848        1276.243  
 118476472.344    92319325.9114   22545318.708 7  22545318.71944  22545320.97444
      2201.110        1715.146  
 08 11 15  2 23  0.0000000  0  9G 6G 3G16G19G13G25G11G 7G27         
 113944761.370    88788130.3414   21682967.298 7  21682967.04744  21682969.22445
     -2322.494       -1809.735  
 107871077.680    84055387.3724   20527182.220 8  20527181.34745  20527184.70945
     -1909.878       -1488.209  
 121905286.615                    23197804.291 3                                
     -2418.237                  
 106189358.463    82744957.3984   20207160.328 8  20207159.61746  20207159.09846
       -54.556         -42.507  
 124218359.183                    23637968.451 3                                
     -2792.523                  
 109921561.877    85653170.4754   20917376.180 8  20917375.81345  20917378.32945
       189.489         147.655  
 123169283.137    95976083.4694   23438335.549 6  23438335.51143  23438338.34643
      3618.985        2819.989  
 111539961.328    86914258.6344   21225345.990 8  21225346.13945  21225347.40245
      1621.981        1263.884  
 118410593.003    92267991.3564   22532781.895 7  22532781.17244  22532783.83844
      2190.395        1706.797  
 08 11 15  2 23 30.0000000  0  9G 6G 3G16G19G13G25G11G 7G27         
 114014508.094    88842478.4254   21696239.624 7  21696239.71245  21696241.49445
     -2327.429       -1813.575  
 107928504.919    84100135.8634   20538110.281 8  20538109.80145  20538112.96745
     -1918.759       -1495.144  
 121977894.423                    23211619.713 3                                
     -2422.446                  
 106191189.560    82746384.2314   20207508.841 8  20207508.22246  20207508.25146
       -67.677         -52.735  
 124302246.522                    23653925.176 3                                
     -2799.176                  
 109916134.237    85648941.1514   20916342.989 8  20916342.37945  20916345.32245
       172.188         134.170  
 123060761.356    95891521.0714   23417684.654 6  23417685.28443  23417687.75843
      3615.591        2817.356  
 111491540.344    86876527.9964   21216131.711 8  21216131.89845  21216132.90545
      1605.910        1251.357  
 118345041.952    92216912.6284   22520307.320 7  22520306.47844  22520310.00844
      2179.500        1698.305  
 08 11 15  2 24  0.0000000  0  8G 6G 3G19G13G25G11G 7G27            
 114084402.805    88896941.8274   21709540.072 7  21709540.11445  21709542.34944
     -2332.255       -1817.348  
 107986199.129    84145092.3794   20549089.462 8  20549088.77145  20549091.82045
     -1927.549       -1501.983  
 106193415.075    82748118.3934   20207932.364 8  20207931.43546  20207931.48246
       -80.732         -62.910  
 124386314.049                    23669925.622 4                                
     -2805.635                  
 109911227.497    85645117.7184   20915409.318 8  20915408.90945  20915411.52245
       154.880         120.685  
 122952344.079    95807040.1034   23397054.106 6  23397053.99543  23397056.77043
      3612.149        2814.656  
 111443603.779    86839174.8414   21207009.927 8  21207009.76945  21207011.26745
      1589.794        1238.800  
 118279820.689    92166090.8644   22507896.912 7  22507896.58244  22507899.52045
      2168.532        1689.767  
 08 11 15  2 24 30.0000000  0  8G 6G 3G19G13G25G11G 7G27            
 114154436.918    88951513.8364   21722866.621 7  21722866.65144  21722869.99244
     -2336.850       -1820.923  
 108044151.069    84190249.7244   20560117.564 7  20560116.98345  20560120.13645
     -1936.069       -1508.620  
 106196026.512    82750153.2714   20208429.308 8  20208428.38046  20208429.09846
       -93.549         -72.898  
 124470567.340                    23685958.022 4                                
     -2811.551                  
 109906835.264    85641695.1934   20914574.192 7  20914574.16745  20914575.63045
       137.754         107.346  
 122844026.515    95722636.8344   23376441.763 6  23376441.54043  23376443.74043
      3608.820        2812.060  
 111396146.870    86802195.4314   21197979.238 8  21197979.32245  21197980.41445
      1573.810        1226.347  
 118214924.378    92115522.3114   22495547.578 7  22495547.83044  22495550.06444
      2157.700        1681.320  
 08 11 15  2 25  0.0000000  0  8G 6G 3G19G13G25G11G 7G27            
 114224615.532    89006198.4334   21736221.605 7  21736221.63344  21736224.34945
     -2341.630       -1824.631  
 108102365.802    84235611.8364   20571195.568 8  20571195.33145  20571198.04245
     -1944.784       -1515.408  
 106199029.979    82752493.6164   20209000.648 8  20208999.85446  20209000.60846
      -106.579         -83.042  
 124555010.292                    23702027.967 3                                
     -2817.827                  
 109902964.868    85638679.2834   20913837.279 8  20913837.20545  20913839.15145
       120.376          93.805  
 122735817.890    95638318.4584   23355850.103 6  23355849.44043  23355852.26143
      3605.172        2809.234  
 111349178.340    86765596.5624   21189040.966 7  21189041.43145  21189042.57645
      1557.524        1213.661  
 118150361.905    92065213.8814   22483261.955 7  22483261.74045  22483264.62345
      2146.557        1672.646  
 08 11 15  2 25 30.0000000  0  8G 6G 3G19G13G25G11G 7G27            
 114294937.389    89060994.6834   21749603.588 7  21749603.28645  21749606.23845
     -2346.709       -1828.606  
 108160841.669    84281177.4314   20582323.355 8  20582322.83945  20582325.43645
     -1953.816       -1522.453  
 106202424.478    82755138.6784   20209646.522 8  20209645.49946  20209646.28346
      -119.934         -93.451  
 124639637.850                    23718130.578 4                                
     -2824.258                  
 109899617.057    85636070.5824   20913200.512 8  20913200.33946  20913202.56645
       102.596          79.947  
 122627720.984    95554087.1764   23335280.161 6  23335279.45043  23335281.91643
      3601.086        2806.027  
 111302700.400    86729379.9884   21180197.168 7  21180197.30346  21180198.02945
      1540.775        1200.611  
 118086135.827    92015167.5874   22471039.327 7  22471038.66444  22471042.94844
      2134.969        1663.612  
 08 11 15  2 26  0.0000000  0  8G 6G 3G19G13G25G11G 7G27            
 114365389.224    89115892.1974   21763009.777 7  21763009.63145  21763012.39145
     -2349.991       -1831.154  
 108219565.572    84326936.2984   20593498.386 8  20593498.01345  20593500.57545
     -1961.035       -1528.076  
 106206197.130    82758078.4054   20210364.200 8  20210363.30646  20210363.44946
      -131.497        -102.463  
 124724439.841                    23734268.412 4                                
     -2828.832                  
 109896780.812    85633860.5104   20912660.553 8  20912660.45745  20912662.51345
        86.568          67.456  
 122519726.701    95469935.8254   23314729.443 7  23314729.56444  23314731.46044
      3598.625        2804.129  
 111256703.330    86693538.1204   21171444.471 8  21171444.98645  21171444.62845
      1525.728        1188.883  
 118022236.751    91965376.1104   22458880.026 7  22458879.19444  22458882.91344
      2125.026        1655.863  
 08 11 15  2 26 30.0000000  0  8G 6G 3G19G13G25G11G 7G27            
 114435973.975    89170893.2874   21776441.375 7  21776441.47845  21776444.68645
     -2355.328       -1835.320  
 108278540.325    84372890.6444   20604720.533 8  20604720.31945  20604722.85646
     -1970.253       -1535.260  
 106210350.986    82761315.1834   20211154.868 8  20211154.24346  20211154.06746
      -145.096        -113.063  
 124809409.579                    23750438.469 3                                
     -2835.423                  
 109894461.022    85632052.8954   20912218.709 7  20912218.63745  20912220.81845
        68.425          53.315  
 122411841.869    95385869.7524   23294199.712 7  23294200.35844  23294201.78144
      3594.037        2800.550  
 111211193.625    86658076.0194   21162783.927 7  21162783.64445  21162785.01245
      1508.568        1175.504  
 117958671.257    91915844.5854   22446783.681 7  22446783.68344  22446786.12444
      2112.996        1646.498  
 08 11 15  2 27  0.0000000  0  8G 6G 3G19G13G25G11G 7G27            
 114506693.780    89225999.6024   21789899.491 7  21789898.89745  21789902.14645
     -2359.625       -1838.670  
 108337767.610    84419041.7634   20615991.046 7  20615990.54445  20615993.08445
     -1978.495       -1541.685  
 106214888.771    82764851.1244   20212018.481 8  20212017.47546  20212017.76846
      -157.708        -122.883  
 124894551.521                    23766641.777 4                                
     -2840.972                  
 109892661.955    85630651.0144   20911876.643 8  20911876.24845  20911878.57845
        51.212          39.907  
 122304072.579    95301893.7134   23273692.013 7  23273691.61343  23273693.35143
      3590.293        2797.625  
 111166177.116    86622998.2194   21154216.938 7  21154216.23145  21154218.19145
      1492.246        1162.788  
 117895445.065    91866577.4394   22434752.409 7  22434752.25844  22434755.03144
      2101.801        1637.772  
 08 11 15  2 27 30.0000000  0  8G 6G 3G19G13G25G11G 7G27            
 114577548.960    89281211.4044   21803383.191 7  21803382.80645  21803385.01945
     -2363.708       -1841.849  
 108397247.627    84465389.8134   20627309.611 8  20627309.29045  20627311.54945
     -1986.468       -1547.894  
 106219811.303    82768686.8714   20212954.836 8  20212953.73546  20212954.88746
      -170.115        -132.557  
 124979864.112                    23782875.364 4                                
     -2846.190                  
 109891385.993    85629656.7474   20911634.253 8  20911634.04346  20911636.00446
        34.178          26.629  
 122196423.522    95218011.3694   23253206.261 6  23253205.14543  23253208.88043
      3586.644        2794.786  
 111121657.541    86588307.6464   21145745.251 7  21145745.57645  21145746.74845
      1476.049        1150.166  
 117832562.568    91817578.0954   22422786.139 7  22422785.48345  22422789.42344
      2090.701        1629.121  
 08 11 15  2 28  0.0000000  0  9G 6G 3G16G19G13G25G11G 7G27         
 114648530.235    89336521.4544   21816890.252 7  21816890.17445  21816892.17045
     -2367.925       -1845.128  
 108456970.441    84511927.0544   20638674.686 8  20638674.20245  20638676.38045
     -1994.605       -1554.239  
 122637227.726                    23337087.266 4                                
         0.000                  
 106225109.794    82772815.5644   20213963.435 8  20213962.57446  20213963.03346
      -182.671        -142.337  
 125065336.285                    23799139.632 3                                
     -2851.476                  
 109890625.740    85629064.3234   20911489.661 8  20911489.16745  20911491.27945
        16.913          13.182  
 122088889.412    95134218.5954   23232742.830 6  23232742.22443  23232745.43743
      3582.710        2791.720  
 111077629.296    86553999.9304   21137367.040 7  21137367.15545  21137368.90745
      1459.586        1137.343  
 117770018.371    91768842.3714   22410884.597 7  22410884.21245  22410887.95245
      2079.342        1620.266  
 08 11 15  2 28 30.0000000  0  8G 6G 3G16G19G25G11G 7G27            
 114719639.788    89391931.4774   21830422.085 7  21830421.97445  21830423.93945
     -2372.539       -1848.732  
 108516937.969    84558654.9884   20650086.353 8  20650085.86545  20650087.55345
     -2003.066       -1560.833  
 122711060.579                    23351131.121 4                                
     -2463.232                  
 106230786.322    82777238.8314   20215043.862 8  20215042.68446  20215043.30346
      -195.604        -152.421  
 109890385.337    85628876.9834   20911443.653 8  20911443.52446  20911445.83846
        -0.761          -0.594  
 121981476.105    95050519.9414   23212303.034 6  23212302.10643  23212304.74943
      3578.314        2788.284  
 111034098.023    86520079.4594   21129083.678 7  21129083.37445  21129085.28145
      1442.634        1124.130  
 117707818.021    91720374.5554   22399048.241 7  22399047.90445  22399051.38445
      2067.506        1611.039  
 08 11 15  2 29  0.0000000  0  9G 6G 3G16G19G25G11G 7G27G 8         
 114790878.079    89447441.8014   21843978.115 7  21843978.43445  21843980.40645
     -2376.962       -1852.185  
 108577150.686    84605573.9804   20661544.334 8  20661543.82745  20661545.79945
     -2011.380       -1567.309  
 122784751.690                    23365153.782 4                                
     -2467.543                  
 106236842.019    82781957.5594   20216196.030 8  20216194.88046  20216195.28146
      -208.378        -162.372  
 109890667.255    85629096.6594   20911497.717 8  20911497.33345  20911499.04445
       -18.327         -14.285  
 121874188.431    94966919.1874   23191886.807 6  23191886.37943  23191889.50943
      3573.932        2784.871  
 110991067.439    86486549.1274   21120894.963 7  21120894.79645  21120897.21145
      1425.763        1110.986  
 117645965.728    91672177.9524   22387277.437 7  22387276.66944  22387280.68344
      2055.708        1601.841  
 126096465.338                    23995356.963 4                                
      3466.893                  
 08 11 15  2 29 30.0000000  0  8G 6G 3G19G25G11G 7G27G 8            
 114862247.473    89503054.2964   21857559.810 7  21857560.14845  21857561.76445
     -2380.990       -1855.312  
 108637610.703    84652685.6654   20673049.483 8  20673049.37845  20673051.69045
     -2019.298       -1573.481  
 106243279.317    82786973.6404   20217420.564 8  20217419.62746  20217419.92846
      -220.784        -172.033  
 109891475.615    85629726.5454   20911651.293 8  20911651.06046  20911653.24846
       -35.577         -27.721  
 121767032.623    94883421.1914   23171496.265 6  23171495.85243  23171498.77043
      3569.757        2781.635  
 110948543.437    86453413.5444   21112802.925 7  21112803.18645  21112805.07745
      1409.154        1098.042  
 117584467.339    91624257.1424   22375574.578 6  22375573.70544  22375577.60444
      2044.161        1592.863  
 125992588.576                    23975593.471 4                                
      3459.779                  
 08 11 15  2 30  0.0000000  0  8G 6G 3G19G25G11G 7G27G 8            
 114933730.642    89558755.4594   21871162.511 7  21871162.60345  21871164.60745
     -2385.167       -1858.574  
 108698300.384    84699976.3034   20684598.435 8  20684597.80545  20684600.71945
     -2027.328       -1579.737  
 106250081.577    82792274.0984   20218714.913 8  20218713.64646  20218714.25346
      -233.330        -181.816  
 109892795.159    85630754.7464   20911902.126 8  20911901.69945  20911904.42645
       -53.038         -41.326  
 121659995.718    94800015.8204   23151128.174 7  23151128.23543  23151130.32643
      3565.377        2778.206  
 110906512.097    86420661.8604   21104804.556 7  21104804.91345  21104806.18545
      1392.295        1084.903  
 117523309.567    91576601.7514   22363936.468 6  22363935.79844  22363939.44444
      2032.360        1583.656  
 125888869.323                    23955854.352 4                                
      3454.136                  
 08 11 15  2 30 30.0000000  0  8G 6G 3G19G25G11G 7G27G 8            
 115005320.873    89614540.0354   21884785.643 7  21884785.71345  21884788.32345
     -2388.293       -1861.006  
 108759213.015    84747440.6654   20696189.312 8  20696188.87545  20696191.96245
     -2034.305       -1585.175  
 106257241.996    82797853.6494   20220077.747 8  20220076.51746  20220077.14546
      -244.825        -190.768  
 109894621.008    85632177.4704   20912249.764 8  20912249.41245  20912251.55145
       -69.497         -54.153  
 121553074.186    94716700.3484   23130782.375 7  23130782.04143  23130783.95943
      3561.893        2775.495  
 110864970.398    86388291.7074   21096899.339 7  21096899.45245  21096901.40545
      1376.358        1072.492  
 117462489.362    91529209.3914   22352363.017 6  22352362.15244  22352365.67044
      2021.502        1575.200  
 125785305.333                    23936146.004 4                                
      3449.321                  
 08 11 15  2 31  0.0000000  0  9G 6G 3G19G13G25G11G 7G27G 8         
 115077030.980    89670418.0294   21898431.242 7  21898431.06845  21898434.73445
     -2392.211       -1864.062  
 108820360.789    84795088.2714   20707825.367 7  20707824.96245  20707827.74045
     -2042.043       -1591.194  
 106264773.924    82803722.6834   20221511.338 8  20221510.29346  20221510.55246
      -257.130        -200.361  
 125581391.431                    23897340.699 3                                
     -2881.169                  
 109896967.528    85634005.9274   20912695.870 8  20912695.53745  20912697.94045
       -86.797         -67.631  
 121446285.236    94633488.1984   23110460.546 6  23110460.20743  23110462.60244
      3557.505        2772.075  
 110823934.161    86356315.4084   21089090.602 7  21089090.63745  21089092.44045
      1359.529        1059.378  
 117402023.288    91482092.9744   22340856.417 6  22340855.53044  22340859.99244
      2009.728        1566.026  
 125681913.851                    23916475.429 5                                
      3443.594                  
 08 11 15  2 31 30.0000000  0 10G 6G 3G16G19G13G25G11G 7G27G 8      
 115148852.924    89726383.1674   21912098.136 7  21912097.91745  21912101.89645
     -2396.272       -1867.215  
 108881735.348    84842912.5994   20719504.350 7  20719503.67345  20719506.71345
     -2049.946       -1597.355  
 123156527.381                    23435898.318 5                                
     -2486.690                  
 106272669.399    82809875.0044   20223013.963 8  20223012.93546  20223013.03446
      -269.583        -210.064  
 125667887.692                    23913801.430 4                                
     -2885.668                  
 109899828.806    85636235.4894   20913240.331 8  20913239.88245  20913242.57945
      -104.306         -81.268  
 121339624.913    94550376.2844   23090163.187 6  23090162.74544  23090165.62544
      3552.810        2768.426  
 110783398.784    86324729.4014   21081377.361 7  21081377.55245  21081378.84545
      1342.458        1046.075  
 117341906.947    91435249.0724   22329416.855 7  22329416.26744  22329419.79344
      1997.685        1556.633  
 125578691.043                    23896832.524 4                                
      3437.565                  
 08 11 15  2 32  0.0000000  0 10G 6G 3G16G19G13G25G11G 7G27G 8      
 115220803.528    89782448.5494   21925790.298 7  21925789.97145  21925793.41845
     -2400.272       -1870.344  
 108943352.863    84890926.2304   20731229.509 7  20731228.85145  20731232.97245
     -2057.726       -1603.425  
 123231192.701                    23450110.361 5                                
     -2490.788                  
 106280945.538    82816323.9294   20224588.633 8  20224587.58646  20224587.92446
      -281.985        -219.729  
 125754531.226                    23930287.640 3                                
     -2890.474                  
 109903223.150    85638880.4334   20913887.090 8  20913886.89446  20913889.16146
      -121.830         -94.932  
 121233114.210    94467380.9594   23069894.698 7  23069893.94544  23069897.35144
      3548.057        2764.718  
 110743384.161    86293549.1824   21073762.948 8  21073763.20445  21073763.76245
      1325.336        1032.728  
 117282160.464    91388693.3634   22318047.991 7  22318047.90845  22318051.05545
      1985.577        1547.204  
 125475657.739                    23877224.192 5                                
      3431.436                  
 08 11 15  2 32 30.0000000  0  9G 6G 3G16G19G25G11G 7G27G 8         
 115292870.884    89838604.9234   21939504.410 7  21939503.72745  21939507.13245
     -2404.502       -1873.636  
 109005201.596    84939120.0334   20742998.863 7  20742998.41445  20743001.78445
     -2065.762       -1609.680  
 123305979.064                    23464339.322 4                                
     -2495.279                  
 106289590.594    82823060.3314   20226233.692 8  20226232.38646  20226233.52746
      -294.602        -229.555  
 109907140.530    85641932.9254   20914632.634 8  20914632.32646  20914634.48146
      -139.592        -108.773  
 121126744.761    94384495.6954   23049653.751 7  23049653.12444  23049656.71444
      3542.960        2760.755  
 110703882.079    86262768.3454   21066245.648 7  21066245.86545  21066246.91545
      1307.879        1019.133  
 117222775.633    91342419.4614   22306747.389 7  22306746.79845  22306750.64945
      1973.154        1537.527  
 125372807.051                    23857650.562 4                                
      3425.003                  
 08 11 15  2 33  0.0000000  0  8G 6G 3G19G25G11G 7G27G 8            
 115365034.860    89894836.5804   21953236.358 7  21953235.67645  21953238.81745
     -2407.065       -1875.632  
 109067261.488    84987478.3694   20754808.814 7  20754808.32445  20754811.28545
     -2072.153       -1614.666  
 106298584.810    82830068.8044   20227945.243 8  20227944.27246  20227944.48946
      -305.626        -238.149  
 109911562.705    85645378.7784   20915473.879 8  20915473.74345  20915474.72045
      -155.833        -121.426  
 121020500.593    94301708.0104   23029436.250 7  23029435.67344  23029438.68044
      3539.327        2757.916  
 110664875.809    86232373.8374   21058823.078 8  21058823.39845  21058824.31545
      1291.915        1006.690  
 117163735.997    91296414.5494   22295512.738 7  22295512.27145  22295516.07745
      1962.200        1528.986  
 125270123.019                    23838111.062 5                                
      3419.987                  
 08 11 15  2 33 30.0000000  0  8G 6G 3G19G25G11G 7G27G 8            
 115437314.053    89951158.0084   21966990.617 7  21966989.89245  21966993.32344
     -2410.846       -1878.576  
 109129550.161    85036014.9844   20766662.599 7  20766662.29245  20766663.98045
     -2079.712       -1620.553  
 106307946.811    82837363.8654   20229726.783 8  20229725.79846  20229725.81546
      -317.818        -247.648  
 109916509.605    85649233.4874   20916415.048 8  20916414.84645  20916415.95845
      -173.277        -135.018  
 120914404.067    94219035.4034   23009247.166 7  23009247.16044  23009248.42044
      3534.443        2754.105  
 110626386.744    86202382.3444   21051498.747 7  21051498.94945  21051500.42445
      1274.693         993.266  
 117105063.359    91250695.6244   22284347.456 7  22284346.63745  22284350.41645
      1949.985        1519.468  
 125167628.399                    23818604.629 4                                
      3413.628                  
 08 11 15  2 34  0.0000000  0  9G 6G 3G16G19G25G11G 7G27G 8         
 115509702.123    90007564.2684   21980765.599 7  21980765.57844  21980767.96744
     -2414.563       -1881.475  
 109192061.579    85084725.1674   20778557.886 8  20778557.81145  20778559.55245
     -2087.234       -1626.415  
 123530995.254                    23507161.957 5                                
     -2506.191                  
 106317670.872    82844941.0484   20231577.074 8  20231576.08746  20231576.92046
      -329.973        -257.121  
 109921976.843    85653493.6464   20917455.879 8  20917455.92046  20917457.08946
      -190.726        -148.616  
 120808453.180    94136476.2934   22989085.385 7  22989085.45144  22989086.10644
      3529.420        2750.193  
 110588411.914    86172791.5624   21044272.125 7  21044271.98745  21044274.52745
      1257.421         979.811  
 117046755.501    91205260.9324   22273251.955 7  22273251.20945  22273254.22245
      1937.670        1509.871  
 125065321.552                    23799136.758 4                                
      3407.231                  
 08 11 15  2 34 30.0000000  0  9G 6G 3G16G19G25G11G 7G27G 8         
 115582207.954    90064062.2934   21994563.355 7  21994563.06445  21994565.43045
     -2418.343       -1884.423  
 109254804.327    85133615.6114   20790497.532 7  20790497.32145  20790499.78145
     -2094.810       -1632.318  
 123606234.187                    23521484.127 5                                
         0.000                  
 106327765.615    82852807.0854   20233498.323 8  20233497.56346  20233498.09446
      -342.219        -266.667  
 109927974.758    85658167.3354   20918597.385 8  20918597.35346  20918598.51246
      -208.328        -162.337  
 120702660.566    94054040.5134   22968954.126 7  22968954.17044  22968954.62544
      3524.199        2746.139  
 110550963.182    86143610.7384   21037145.674 7  21037146.03445  21037147.75745
      1239.929         966.175  
 116988824.823    91160120.1344   22262228.514 7  22262228.30745  22262230.13345
      1925.151        1500.121  
 124963215.382                    23779704.873 4                                
      3400.622                  
 08 11 15  2 35  0.0000000  0  9G 6G 3G16G19G25G11G 7G27G 8         
 115654815.573    90120639.6334   22008379.800 7  22008379.78244  22008382.59244
     -2422.284       -1887.490  
 109317761.862    85182673.4074   20802477.869 8  20802477.34245  20802480.29545
     -2102.472       -1638.290  
 123681603.581                    23535826.616 5                                
         0.000                  
 106338215.487    82860949.8384   20235486.621 8  20235485.57346  20235486.26346
      -354.568        -276.286  
 109934488.974    85663243.3444   20919836.834 8  20919836.56446  20919837.90746
      -226.078        -176.162  
 120597014.094    93971718.6094   22948849.676 7  22948849.23143  22948850.47443
      3518.764        2741.890  
 110514028.611    86114830.5634   21030117.563 7  21030117.79745  21030119.59645
      1222.223         952.379  
 116931259.013    91115263.6714   22251274.124 7  22251274.49945  22251275.91245
      1912.424        1490.200  
 124861298.530                    23760309.952 3                                
      3393.736                  
 08 11 15  2 35 30.0000000  0  8G 6G 3G19G25G11G 7G27G 8            
 115727534.050    90177303.3634   22022217.514 7  22022217.30944  22022220.43344
     -2426.133       -1890.500  
 109380942.708    85231905.2224   20814500.764 8  20814500.45145  20814503.40445
     -2110.059       -1644.206  
 106349029.354    82869376.2184   20237544.407 8  20237543.37946  20237543.78446
      -366.859        -285.866  
 109941530.048    85668729.8994   20921176.400 8  20921176.04345  20921177.37545
      -243.820        -189.991  
 120491526.851    93889520.7854   22928775.653 6  22928774.60643  22928776.92243
      3513.220        2737.561  
 110477619.715    86086460.0054   21023189.523 7  21023190.19245  21023190.75645
      1204.509         938.580  
 116874070.354    91070701.0854   22240391.198 7  22240391.57645  22240393.63545
      1899.648        1480.241  
 124759583.933    97215272.6734   23740957.313 5  23740954.98141  23740960.02641
      3386.700        2638.985  
 08 11 15  2 36  0.0000000  0  9G 6G 3G16G19G25G11G 7G27G 8         
 115800358.595    90234049.7454   22036075.631 7  22036075.24644  22036078.25544
     -2429.387       -1893.034  
 109444342.129    85281307.3474   20826565.054 7  20826564.53545  20826568.12945
     -2117.083       -1649.673  
 123832504.748                    23564537.235 4                                
     -2522.654                  
 106360202.795    82878082.7854   20239670.784 8  20239669.95846  20239670.32346
      -378.564        -294.982  
 109949094.880    85674624.5694   20922615.858 8  20922615.52845  20922617.09545
      -261.015        -203.387  
 120386198.007    93807446.3794   22908732.080 7  22908731.82544  22908732.86644
      3508.163        2733.628  
 110441734.863    86058497.7874   21016360.843 8  21016360.94446  21016362.15045
      1187.271         925.150  
 116817257.475    91026431.3164   22229579.986 7  22229579.53145  22229582.73245
      1887.334        1470.656  
 124658071.705    97136172.2314   23721641.911 5  23721641.78641  23721643.27941
      3380.198        2633.895  
 08 11 15  2 36 30.0000000  0  9G 6G 3G16G19G25G11G 7G27G 8         
 115873287.075    90290877.1174   22049953.413 7  22049952.92444  22049956.30544
     -2432.896       -1895.757  
 109507957.528    85330877.7664   20838670.651 8  20838670.49545  20838674.06045
     -2124.343       -1655.333  
 123908237.604                    23578946.835 3                                
     -2526.815                  
 106371733.921    82887068.0734   20241864.892 8  20241863.76046  20241864.35046
      -390.574        -304.343  
 109957182.742    85680926.7694   20924155.146 8  20924154.66845  20924156.42345
      -278.563        -217.059  
 120281029.095    93725496.6064   22888719.581 7  22888719.15244  22888720.71044
      3502.688        2729.368  
 110406374.976    86030944.6294   21009631.261 7  21009631.51045  21009633.31745
      1169.649         911.419  
 116760821.912    90982455.5474   22218840.468 7  22218839.60145  22218843.90745
      1874.641        1460.768  
 124556763.977    97057231.1354   23702363.928 5  23702364.06142  23702365.64142
      3373.237        2628.479  
 08 11 15  2 37  0.0000000  0  8G 6G 3G19G25G11G 7G27G 8            
 115946314.050    90347781.2364   22063850.346 7  22063849.60344  22063852.97344
     -2435.843       -1898.057  
 109571783.080    85380611.9484   20850816.879 8  20850816.58345  20850819.95645
     -2131.000       -1660.517  
 106383617.389    82896327.9114   20244126.247 8  20244125.19946  20244125.55246
      -401.963        -313.211  
 109965789.600    85687633.3804   20925792.956 8  20925792.41345  20925794.19745
      -295.542        -230.286  
 120176018.611    93643670.2874   22868736.488 7  22868736.50944  22868737.80344
      3497.680        2725.469  
 110371537.905    86003798.8484   21003001.967 7  21003001.42845  21003003.71745
      1152.509         898.064  
 116704761.499    90938772.1054   22208172.257 7  22208171.61345  22208175.26445
      1862.412        1451.245  
 124455659.178    96978448.2144   23683123.213 6  23683124.11042  23683125.68642
      3366.765        2623.465  
 08 11 15  2 37 30.0000000  0  8G 6G 3G19G25G11G 7G27G 8            
 116019449.390    90404769.7794   22077766.743 7  22077766.88944  22077770.44744
     -2439.579       -1900.967  
 109635828.381    85430517.3714   20863004.316 8  20863003.74945  20863007.05345
     -2138.428       -1666.303  
 106395862.766    82905869.7654   20246456.445 8  20246455.59146  20246455.78346
      -414.125        -322.694  
 109974926.904    85694753.3554   20927531.508 8  20927530.68745  20927533.32345
      -313.339        -244.163  
 120071180.463    93561978.2534   22848786.761 7  22848786.14044  22848787.73744
      3491.768        2720.855  
 110337236.455    85977070.4414   20996474.553 7  20996474.70545  20996476.40145
      1134.506         884.030  
 116649089.772    90895391.5564   22197578.645 7  22197578.14545  22197581.58745
      1849.298        1441.010  
 124354771.543    96899834.4844   23663923.629 5  23663924.01142  23663927.33042
      3359.366        2617.661  
 08 11 15  2 38  0.0000000  0  8G 6G 3G19G25G11G 7G27G 8            
 116092685.584    90461836.9064   22091703.655 7  22091703.45144  22091706.57144
     -2442.552       -1903.284  
 109700085.802    85480588.0774   20875231.611 8  20875230.88045  20875234.94345
     -2145.155       -1671.539  
 106408462.815    82915687.9824   20248854.212 8  20248853.00546  20248853.97046
      -425.629        -331.652  
 109984588.530    85702281.8914   20929369.963 8  20929369.40645  20929371.88845
      -330.494        -257.525  
 119966511.054    93480417.6864   22828868.286 7  22828867.99144  22828870.33644
      3486.421        2716.697  
 110303466.050    85950755.8414   20990048.595 8  20990048.93345  20990050.40645
      1117.092         870.464  
 116593802.711    90852310.7354   22187058.029 7  22187057.60745  22187060.27345
      1836.749        1431.241  
 124254098.192    96821387.7044   23644766.603 5  23644766.15042  23644769.30342
      3352.434        2612.293  
 08 11 15  2 38 30.0000000  0  8G 6G 3G19G25G11G 7G27G 8            
 116166018.298    90518979.2594   22105658.840 7  22105658.92344  22105661.31644
     -2446.083       -1906.035  
 109764550.559    85530820.3464   20887499.097 8  20887498.60045  20887501.84145
     -2152.352       -1677.156  
 106421413.276    82925779.2504   20251318.400 8  20251317.25646  20251318.06546
      -437.578        -340.966  
 109994771.435    85710216.6174   20931307.605 8  20931307.08645  20931309.12945
      -348.203        -271.326  
 119862009.909    93398988.2194   22808981.904 7  22808980.59044  22808984.03044
      3480.469        2712.052  
 110270225.420    85924854.0534   20983723.197 7  20983723.29945  20983724.95145
      1099.096         856.437  
 116538899.372    90809528.9124   22176610.455 8  22176610.17445  22176612.47745
      1823.626        1421.003  
 124153639.600    96743108.3164   23625649.068 5  23625648.53442  23625651.45342
      3344.949        2606.452  
 08 11 15  2 39  0.0000000  0  8G 6G 3G19G25G11G 7G27G 8            
 116239467.401    90576212.3084   22119636.303 7  22119636.22944  22119638.04844
     -2449.811       -1908.940  
 109829242.405    85581229.5604   20899809.799 7  20899809.38945  20899812.27245
     -2159.691       -1682.876  
 106434734.132    82936159.1304   20253853.732 8  20253852.88746  20253853.14946
      -449.756        -350.460  
 110005496.828    85718574.0424   20933348.350 7  20933347.72645  20933350.79345
      -366.115        -285.282  
 119757700.758    93317708.3364   22789132.088 7  22789131.36243  22789134.67943
      3474.189        2707.158  
 110237537.487    85899382.9414   20977502.784 7  20977502.93545  20977504.71945
      1080.813         842.193  
 116484402.878    90767064.0974   22166239.850 7  22166239.66145  22166242.30145
      1810.196        1410.545  
 124053419.190    96665014.4934   23606577.392 5  23606576.25842  23606579.38842
      3337.122        2600.331  
 08 11 15  2 39 30.0000000  0  9G 6G 3G16G19G25G11G 7G27G 8         
 116313010.777    90633518.8054   22133630.704 7  22133630.75645  22133633.06144
     -2453.134       -1911.539  
 109894138.560    85631797.9754   20912158.670 7  20912158.34745  20912161.35645
     -2166.735       -1688.367  
 124365199.984                    23665903.815 5                                
         0.000                  
 106448403.308    82946810.4394   20256455.059 8  20256454.09746  20256454.14046
      -461.564        -359.662  
 110016743.859    85727337.9364   20935488.344 7  20935487.97045  20935491.21645
      -383.744        -299.018  
 119653565.285    93236563.8164   22769316.800 7  22769316.50744  22769318.70044
      3468.113        2702.416  
 110205383.026    85874327.5204   20971384.412 8  20971384.34246  20971386.09946
      1062.753         828.115  
 116430294.446    90724901.6804   22155943.301 7  22155942.94644  22155945.22544
      1796.966        1400.230  
 123953419.254    96587092.4934   23587549.010 5  23587546.99242  23587550.70542
      3329.483        2594.391  
 08 11 15  2 40  0.0000000  0  9G 6G 3G16G19G25G11G 7G27G 8         
 116386653.991    90690903.1034   22147644.282 7  22147644.26744  22147647.24444
     -2456.900       -1914.473  
 109959244.603    85682529.9374   20924548.259 7  20924547.59745  20924550.54845
     -2174.125       -1694.126  
 124441777.541                    23680476.098 5                                
     -2555.587                  
 106462426.233    82957737.3884   20259123.439 8  20259122.30646  20259122.54046
      -473.773        -369.171  
 110028519.545    85736513.7874   20937729.879 7  20937729.57045  20937731.82945
      -401.781        -313.077  
 119549612.637    93155561.7584   22749535.974 7  22749536.57744  22749536.34144
      3461.565        2697.314  
 110173770.384    85849694.2964   20965368.815 8  20965369.03846  20965370.08746
      1044.246         813.702  
 116376583.247    90683048.7914   22145722.438 7  22145721.89244  22145724.71044
      1783.285        1389.568  
 123853649.688    96509349.9984   23568563.867 6  23568562.94643  23568566.05143
      3321.328        2588.041  
 08 11 15  2 40 30.0000000  0  9G 6G 3G16G19G25G11G 7G27G 8         
 116460406.710    90748372.7374   22161679.143 7  22161678.98844  22161682.02444
     -2460.426       -1917.213  
 110024569.934    85733432.7824   20936978.588 7  20936977.90245  20936981.05145
     -2181.340       -1699.748  
 124518504.068                    23695076.315 5                                
     -2559.963                  
 106476812.788    82968947.6874   20261860.960 8  20261860.02246  20261860.59446
      -485.797        -378.543  
 110040834.807    85746110.1044   20940073.969 8  20940073.97546  20940075.65346
      -419.699        -327.041  
 119445856.642    93074712.9344   22729792.234 7  22729792.01544  22729792.49444
      3455.032        2692.235  
 110142712.316    85825493.1994   20959458.252 8  20959458.83946  20959460.24346
      1025.815         799.336  
 116323282.187    90641515.5184   22135580.022 7  22135579.82445  22135582.63645
      1769.650        1378.940  
 123754124.647    96431798.0314   23549625.759 6  23549624.61943  23549627.84943
      3313.190        2581.712  
 08 11 15  2 41  0.0000000  0  9G 6G 3G16G19G25G11G 7G27G 8         
 116534271.066    90805929.3634   22175734.830 7  22175734.62144  22175737.73544
     -2464.110       -1920.083  
 110090115.893    85784507.5504   20949451.826 8  20949451.26845  20949453.72045
     -2188.634       -1705.425  
 124595369.047                    23709702.133 4                                
     -2564.481                  
 106491564.934    82980442.8654   20264668.186 8  20264667.20646  20264667.77046
      -497.940        -388.001  
 110053692.823    85756129.3404   20942520.261 7  20942520.11845  20942522.26045
      -437.768        -341.119  
 119342303.295    92994022.0094   22710086.109 7  22710086.04444  22710086.62744
      3448.268        2686.974  
 110112213.590    85801727.9604   20953654.523 7  20953655.05346  20953656.65646
      1007.179         784.819  
 116270396.727    90600306.0804   22125515.916 7  22125514.84045  22125518.94145
      1755.792        1368.161  
 123654850.617    96354441.6684   23530734.650 6  23530734.39643  23530736.71743
      3304.800        2575.175  
 08 11 15  2 41 30.0000000  0  9G 6G 3G16G19G25G11G 7G27G 8         
 116608247.558    90863573.3584   22189811.500 6  22189811.00244  22189814.74744
     -2467.336       -1922.588  
 110155883.044    85835754.6684   20961967.220 7  20961966.81145  20961969.29845
     -2195.501       -1710.784  
 124672374.190                    23724355.843 4                                
     -2568.734                  
 106506683.226    82992223.3604   20267545.166 8  20267544.30446  20267544.69946
      -509.644        -397.127  
 110067095.437    85766572.9384   20945070.344 8  20945070.02645  20945072.42645
      -455.414        -354.871  
 119238956.682    92913492.1834   22690419.724 7  22690419.68844  22690421.13044
      3441.821        2681.928  
 110082277.582    85778401.2004   20947958.118 8  20947958.84646  20947959.80646
       988.886         770.556  
 116217930.845    90559423.5974   22115531.781 7  22115531.25145  22115535.10945
      1742.250        1357.600  
 123555832.242    96277284.5164   23511891.159 6  23511890.77443  23511894.22043
      3296.722        2568.870  
 08 11 15  2 42  0.0000000  0  9G 6G 3G16G19G25G11G 7G27G 8         
 116682312.539    90921286.2874   22203905.289 7  22203905.08744  22203908.44244
     -2470.515       -1925.073  
 110221847.246    85887155.3164   20974520.022 7  20974519.91245  20974521.85645
     -2202.283       -1716.056  
 124749496.077                    23739028.646 3                                
     -2572.766                  
 106522144.071    83004270.7724   20270487.007 7  20270485.87046  20270486.41546
      -521.265        -406.176  
 110081020.167    85777423.3614   20947719.865 7  20947719.56245  20947722.35045
      -473.077        -368.630  
 119135797.024    92833108.0404   22670788.851 7  22670788.49244  22670790.66344
      3435.294        2676.864  
 110052883.623    85755496.8244   20942364.800 8  20942365.49746  20942366.02146
       970.518         756.250  
 116165864.128    90518852.1284   22105623.529 7  22105622.49844  22105626.90445
      1728.674        1347.018  
 123457050.247    96200311.5634   23493092.848 5  23493090.80442  23493095.37442
      3288.544        2562.530  
 08 11 15  2 42 30.0000000  0  8G 6G 3G19G25G11G 7G27G 8            
 116756478.254    90979077.7224   22218019.063 6  22218018.49544  22218021.38444
     -2473.559       -1927.444  
 110288020.461    85938718.8494   20987112.350 8  20987111.77845  20987114.65345
     -2208.984       -1721.286  
 106537959.421    83016594.4224   20273496.566 8  20273495.62646  20273496.28746
      -532.794        -415.173  
 110095480.259    85788690.9614   20950472.050 8  20950471.68445  20950473.90245
      -490.675        -382.345  
 119032840.364    92752882.0744   22651196.779 6  22651195.51644  22651198.70044
      3428.744        2671.747  
 110024046.592    85733026.4024   20936877.269 8  20936877.48046  20936878.80246
       952.211         741.980  
 116114211.910    90478603.6484   22095794.828 7  22095794.16444  22095796.62144
      1715.073        1336.423  
 123358521.060    96123535.6214   23474342.858 5  23474340.69642  23474345.78342
      3280.334        2556.100  
 08 11 15  2 43  0.0000000  0  8G 6G 3G19G25G11G 7G27G 8            
 116830743.855    91036946.9844   22232151.393 6  22232151.00044  22232154.11144
     -2477.345       -1930.402  
 110354401.655    85990444.4434   20999744.092 8  20999743.52745  20999746.49945
     -2216.371       -1727.044  
 106554128.387    83029193.6254   20276573.323 7  20276572.37846  20276573.14146
      -545.061        -424.722  
 110110476.148    85800376.0704   20953325.696 8  20953325.25146  20953327.81446
      -509.009        -396.632  
 118930089.668    92672816.5844   22631643.327 6  22631641.74443  22631645.74743
      3421.354        2666.000  
 109995768.281    85710991.3504   20931496.141 7  20931495.63846  20931497.43246
       933.066         727.067  
 116062976.827    90438680.2044   22086044.988 7  22086044.09544  22086046.29544
      1700.653        1325.185  
 123260248.179    96046959.3974   23455641.428 5  23455640.60842  23455645.45742
      3271.264        2549.037  
 08 11 15  2 43 30.0000000  0  8G 6G 3G19G25G11G 7G27G 8            
 116905109.286    91094894.0424   22246303.155 7  22246302.65844  22246305.41744
     -2480.596       -1932.930  
 110420990.170    86042331.5814   21012415.547 8  21012415.28945  21012418.35945
     -2223.142       -1732.318  
 106570651.015    83042068.3984   20279717.496 8  20279716.47046  20279716.87246
      -556.728        -433.810  
 110126008.693    85812479.3494   20956281.381 8  20956281.07346  20956283.90645
      -526.769        -410.470  
 118827548.804    92592914.6314   22612129.779 6  22612128.48743  22612132.58543
      3414.418        2660.590  
 109968051.265    85689393.6654   20926221.702 7  20926220.67245  20926223.18945
       914.450         712.561  
 116012161.987    90399084.2264   22076375.137 7  22076374.62344  22076377.26944
      1686.713        1314.325  
 123162235.791    95970586.1214   23436990.196 5  23436988.62442  23436994.73342
      3262.565        2542.258  
 08 11 15  2 44  0.0000000  0  9G 6G 3G16G19G25G11G 7G27G 8         
 116979582.942    91152925.4274   22260475.470 7  22260475.06144  22260478.41944
     -2484.030       -1935.599  
 110487794.065    86094386.5474   21025127.877 8  21025127.46045  21025130.42045
     -2230.142       -1737.777  
 125059271.789                    23797989.010 4                                
     -2591.020                  
 106587535.563    83055225.1944   20282930.744 8  20282929.63746  20282930.11346
      -568.636        -443.089  
 110142087.495    85825008.2894   20959341.127 8  20959340.90246  20959343.08346
      -544.861        -424.562  
 118725229.676    92513185.4634   22592660.344 7  22592659.41244  22592661.66644
      3407.121        2654.898  
 109940906.919    85668242.2424   20921055.919 7  20921055.71645  20921058.00245
       895.451         697.750  
 115961779.213    90359824.9164   22066788.189 7  22066788.00744  22066790.27144
      1672.407        1303.175  
 123064496.762    95894425.8674   23418391.859 5  23418389.69842  23418395.65142
      3253.599        2535.250  
 08 11 15  2 44 30.0000000  0  9G 6G 3G16G19G25G11G 7G27G 8         
 117054147.746    91211027.8534   22274664.909 7  22274664.92044  22274667.69944
     -2487.022       -1937.942  
 110554795.811    86146595.6794   21037877.539 7  21037877.23045  21037880.15545
     -2236.708       -1742.886  
 125137058.160                    23812792.212 5                                
     -2594.956                  
 106604764.971    83068650.7054   20286209.277 8  20286208.31446  20286209.20346
      -580.065        -452.001  
 110158696.397    85837950.2804   20962501.709 8  20962501.09945  20962502.61845
      -562.485        -438.290  
 118623118.932    92433618.6664   22573229.954 7  22573229.85844  22573230.05844
      3400.180        2649.496  
 109914320.648    85647525.6654   20915997.089 8  20915997.55945  20915998.37545
       876.870         683.283  
 115911814.628    90320891.4744   22057279.762 7  22057280.03244  22057282.69744
      1658.472        1292.316  
 122967018.011    95818468.4184   23399841.979 5  23399840.10542  23399846.52842
      3244.921        2528.493  
 08 11 15  2 45  0.0000000  0  9G 6G 3G16G19G25G11G 7G27G 8         
 117128800.656    91269198.9274   22288870.851 7  22288871.00944  22288873.60944
     -2489.529       -1939.897  
 110621992.273    86198956.5424   21050664.707 7  21050664.29045  21050667.29345
     -2242.758       -1747.605  
 125214968.920                    23827618.483 5                                
     -2598.737                  
 106622336.053    83082342.4594   20289553.217 8  20289552.22946  20289552.95446
      -591.035        -460.550  
 110175833.459    85851303.8214   20965762.757 8  20965762.79845  20965763.95745
      -579.680        -451.707  
 118521217.509    92354214.9834   22553838.248 7  22553838.17344  22553837.82344
      3393.556        2644.326  
 109888292.110    85627243.6794   20911044.178 8  20911044.89346  20911045.44346
       858.657         669.081  
 115862268.257    90282283.9014   22047851.841 7  22047852.05044  22047854.32544
      1644.914        1281.747  
 122869800.997    95742714.9134   23381342.585 6  23381340.84642  23381346.39342
      3236.533        2521.976  
 08 11 15  2 45 30.0000000  0  9G 6G 3G16G19G25G11G 7G27G 8         
 117203534.416    91327433.0104   22303091.614 6  22303091.58744  22303095.08044
     -2492.227       -1941.998  
 110689375.922    86251463.2684   21063488.012 7  21063487.72345  21063489.46845
     -2249.004       -1752.476  
 125292997.654                    23842465.528 5                                
     -2602.749                  
 106640241.180    83096294.5094   20292960.003 8  20292958.80746  20292959.92846
      -602.182        -469.236  
 110193492.184    85865063.8574   20969123.513 8  20969123.33345  20969125.05045
      -597.118        -465.291  
 118419521.739    92274971.5464   22534486.272 7  22534486.73944  22534486.10644
      3386.597        2638.899  
 109862816.467    85607392.5314   20906195.943 8  20906196.92645  20906197.43546
       840.156         654.661  
 115813135.687    90243998.7924   22038502.536 7  22038502.49444  22038504.23344
      1631.033        1270.936  
 122772842.594    95667162.9054   23362893.249 6  23362892.92343  23362895.01643
      3227.819        2515.181  
 08 11 15  2 46  0.0000000  0  9G 6G 3G16G19G25G11G 7G27G 8         
 117278361.854    91385740.0764   22317330.409 7  22317330.74544  22317334.29844
     -2495.873       -1944.837  
 110756959.098    86304125.4684   21076348.779 7  21076348.42445  21076350.41645
     -2256.152       -1758.038  
 125371158.738                    23857339.740 6                                
     -2607.659                  
 106658493.110    83110516.7854   20296433.254 7  20296432.20146  20296433.33646
      -614.245        -478.630  
 110211686.485    85879241.2224   20972585.554 8  20972585.69346  20972587.78145
      -615.481        -479.591  
 118318048.211    92195901.2694   22515176.742 7  22515176.66644  22515177.07944
      3378.651        2632.708  
 109837909.106    85587984.1864   20901456.528 7  20901456.87045  20901457.41545
       820.687         639.503  
 115764433.282    90206048.8764   22029234.570 7  22029234.40044  22029236.14544
      1616.147        1259.345  
 122676160.000    95591825.8204   23344495.266 7  23344494.18043  23344497.46543
      3218.039        2507.572  
 08 11 15  2 46 30.0000000  0  9G 6G 3G16G19G25G11G 7G27G 8         
 117353272.842    91444112.2484   22331586.111 7  22331585.81344  22331588.93944
     -2499.588       -1947.725  
 110824731.523    86356935.1334   21089245.128 7  21089244.62145  21089247.46745
     -2263.399       -1763.690  
 125449443.211                    23872237.046 5                                
     -2612.725                  
 106677081.796    83125001.4714   20299970.567 8  20299969.66146  20299970.69846
      -626.405        -488.111  
 110230406.986    85893828.6224   20976148.075 8  20976148.08345  20976150.08945
      -633.971        -494.001  
 118216790.382    92116999.0984   22495908.206 7  22495907.92244  22495908.99344
      3370.458        2626.328  
 109813562.464    85569012.7824   20896823.436 7  20896823.25645  20896824.81045
       801.012         624.166  
 115716153.995    90168428.6594   22020046.837 7  22020046.40344  22020048.86944
      1601.045        1247.571  
 122579747.187    95516698.9644   23326148.072 7  23326147.69943  23326151.13843
      3208.053        2499.789  
 08 11 15  2 47  0.0000000  0  9G 6G 3G16G19G25G11G 7G27G 8         
 117428285.974    91502564.0144   22345860.661 7  22345860.66944  22345863.91144
     -2502.276       -1949.823  
 110892711.240    86409906.3274   21102180.458 7  21102179.93645  21102183.80345
     -2269.563       -1768.494  
 125527870.029                    23887161.058 5                                
     -2616.738                  
 106696025.698    83139762.9494   20303575.814 8  20303574.77346  20303575.07246
      -637.518        -496.769  
 110249673.209    85908841.2534   20979814.453 8  20979813.90345  20979815.96845
      -651.441        -507.616  
 118115770.892    92038282.6614   22476684.867 7  22476685.03544  22476684.79044
      3363.166        2620.651  
 109789798.017    85550495.0334   20892301.045 8  20892301.16445  20892302.32645
       782.297         609.585  
 115668319.556    90131155.0834   22010943.262 6  22010942.03744  22010946.35544
      1586.909        1236.552  
 122483627.028    95441800.1764   23307856.927 6  23307856.50443  23307858.92843
      3198.966        2492.693  
 08 11 15  2 47 30.0000000  0  9G 6G 3G16G19G25G11G 7G27G 8         
 117503381.150    91561079.7074   22360150.924 7  22360150.31944  22360153.49544
     -2504.607       -1951.631  
 110960877.604    86463022.9594   21115152.157 7  21115151.54045  21115155.57545
     -2275.358       -1773.009  
 125606420.426                    23902108.777 5                                
     -2620.455                  
 106715304.150    83154785.1124   20307244.444 8  20307243.46746  20307243.68246
      -648.222        -505.110  
 110269465.858    85924264.0914   20983580.281 8  20983579.57945  20983582.30345
      -668.577        -520.968  
 118014972.909    91959738.8104   22457503.713 7  22457503.76544  22457503.65244
      3356.158        2615.187  
 109766597.691    85532416.8484   20887886.026 7  20887886.24145  20887887.58245
       763.871         595.229  
 115620912.825    90094214.7754   22001922.469 7  22001921.66944  22001925.45744
      1573.013        1225.721  
 122387783.625    95367117.0454   23289618.371 6  23289616.96643  23289619.97843
      3190.080        2485.774  
 08 11 15  2 48  0.0000000  0  9G 6G 3G16G19G25G11G 7G27G 8         
 117578560.875    91619661.2724   22374456.588 7  22374456.48044  22374460.10044
     -2507.177       -1953.634  
 111029232.942    86516286.8424   21128160.218 7  21128159.58645  21128162.96545
     -2281.407       -1777.710  
 125685098.076    97936460.3184   23917079.605 6  23917080.42741  23917081.19741
     -2624.464       -2045.016  
 106734919.743    83170069.9854   20310977.135 8  20310975.96346  20310976.77346
      -659.237        -513.690  
 110289788.210    85940099.6904   20987447.448 7  20987446.98345  20987449.90545
      -686.010        -534.551  
 117914402.620    91881372.3794   22438365.743 7  22438365.91644  22438366.11244
      3348.739        2609.406  
 109743966.541    85514782.1794   20883579.965 7  20883579.49946  20883581.19546
       745.100         580.594  
 115573939.433    90057612.1324   21992984.369 7  21992984.37344  21992987.20544
      1558.752        1214.617  
 122292223.796    95292654.9124   23271433.969 6  23271433.69543  23271436.18443
      3180.824        2478.551  
 08 11 15  2 48 30.0000000  0  9G 6G 3G16G19G25G11G 7G27G 8         
 117653825.840    91678309.2714   22388779.027 6  22388778.54444  22388782.45444
     -2510.425       -1956.179  
 111097777.927    86569698.5074   21141203.573 7  21141202.79845  21141206.62345
     -2288.173       -1782.988  
 125763905.165    97997868.4054   23932078.363 4  23932076.36041  23932080.89941
     -2629.388       -2048.867  
 106754873.168    83185618.0954   20314774.102 7  20314773.09546  20314773.59346
      -670.931        -522.798  
 110310642.025    85956349.4244   20991416.528 7  20991416.02045  20991418.34245
      -704.184        -548.717  
 117814064.754    91803187.0624   22419271.931 7  22419271.68244  22419273.20144
      3340.486        2602.979  
 109721907.937    85497593.6374   20879382.076 7  20879381.88446  20879383.86346
       725.539         565.362  
 115527403.391    90021350.2664   21984128.944 7  21984128.11344  21984131.74244
      1543.705        1202.884  
 122196952.731    95218417.7674   23253303.715 6  23253302.98143  23253307.44343
      3170.682        2470.666  
 08 11 15  2 49  0.0000000  0  9G 6G 3G16G19G25G11G 7G27G 8         
 117729173.436    91737021.6304   22403117.489 7  22403117.38744  22403120.86844
     -2512.455       -1957.745  
 111166509.249    86623255.3634   21154283.190 7  21154282.11445  21154285.64945
     -2293.665       -1787.267  
 125842839.640    98059375.7954   23947098.365 3  23947098.15341  23947102.58441
     -2632.853       -2051.558  
 106775160.908    83201426.7144   20318634.524 8  20318633.69146  20318634.20546
      -681.343        -530.913  
 110332025.044    85973011.5134   20995485.462 8  20995485.13646  20995487.20546
      -721.118        -561.909  
 117713959.847    91725183.2584   22400221.973 7  22400221.29444  22400223.93444
      3333.385        2597.440  
 109700421.456    85480850.9134   20875293.655 8  20875293.70046  20875294.67846
       707.134         551.019  
 115481304.693    89985429.2054   21975356.428 7  21975355.34844  21975360.51544
      1529.782        1192.041  
 122101971.559    95144406.5124   23235230.066 6  23235228.99643  23235232.26943
      3161.637        2463.621  
 08 11 15  2 49 30.0000000  0  9G 6G 3G16G19G25G11G 7G27G 8         
 117804597.075    91795793.2724   22417470.614 6  22417469.67044  22417473.67444
     -2515.696       -1960.289  
 111235420.525    86676952.4434   21167396.382 7  21167395.49745  21167398.83945
     -2300.307       -1792.446  
 125921882.159    98120968.1634   23962143.103 4  23962141.33841  23962145.82641
     -2637.523       -2055.225  
 106795776.912    83217491.1334   20322557.834 8  20322556.83246  20322557.18946
      -692.961        -539.973  
 110353931.623    85990081.5684   20999653.990 8  20999653.86545  20999655.52645
      -739.237        -576.030  
 117614085.823    91647359.3684   22381216.552 7  22381216.00844  22381218.69944
      3324.952        2590.868  
 109679502.667    85464550.5474   20871312.962 8  20871313.31445  20871314.02346
       687.549         535.737  
 115435640.014    89949846.3304   21966666.474 7  21966665.84544  21966670.35244
      1514.602        1180.205  
 122007277.962    95070619.3164   23217210.719 7  23217210.09043  23217212.47243
      3151.325        2455.568  
 08 11 15  2 50  0.0000000  0  9G 6G 3G16G19G25G11G 7G27G 8         
 117880096.720    91854624.1484   22431837.400 7  22431837.24744  22431840.96144
     -2518.167       -1962.211  
 111304510.548    86730788.8084   21180543.898 7  21180543.29045  21180546.28645
     -2306.237       -1797.064  
 126001061.496    98182666.3314   23977210.594 5  23977209.93841  23977214.24441
     -2641.684       -2058.434  
 106816720.895    83233811.1204   20326543.397 8  20326542.02246  20326542.52746
      -703.867        -548.469  
 110376362.398    86007560.0814   21003922.705 8  21003922.36745  21003924.18445
      -756.707        -589.642  
 117514445.582    91569717.6474   22362255.864 7  22362255.92244  22362257.24444
      3317.140        2584.782  
 109659154.102    85448694.5274   20867440.473 7  20867440.28446  20867441.96046
       668.489         520.903  
 115390412.087    89914603.7894   21958060.176 7  21958060.01944  21958063.36844
      1500.012        1168.843  
 121912876.421    94997059.6764   23199246.929 7  23199247.26343  23199248.46443
      3141.552        2447.952  
 08 11 15  2 50 30.0000000  0  9G 6G 3G16G19G25G11G 7G27G 8         
 117955677.593    91913518.3044   22446219.430 6  22446219.26044  22446223.42644
     -2520.299       -1963.866  
 111373784.029    86784768.1384   21193726.478 7  21193725.77645  21193728.38345
     -2311.737       -1801.358  
 126080369.871    98244465.0184   23992301.424 5  23992300.27941  23992302.84441
     -2645.364       -2061.346  
 106837997.561    83250390.3344   20330592.229 8  20330591.15446  20330591.42146
      -714.337        -556.626  
 110399323.001    86025451.4474   21008291.376 7  21008291.20045  21008293.32645
      -773.764        -602.934  
 117415047.844    91492264.8964   22343340.716 7  22343340.78344  22343342.19844
      3309.598        2578.907  
 109639383.174    85433288.5884   20863677.890 8  20863677.93946  20863680.00746
       649.804         506.343  
 115345628.998    89879707.8874   21949538.355 7  21949538.50144  21949541.18744
      1485.754        1157.723  
 121818775.922    94923734.6124   23181340.572 7  23181340.56943  23181341.24143
      3132.042        2440.551  
 08 11 15  2 51  0.0000000  0  9G 6G 3G16G19G25G11G 7G27G 8         
 118031325.673    91972464.8334   22460614.867 7  22460614.35644  22460618.54444
     -2522.637       -1965.690  
 111443226.989    86838879.5304   21206941.026 7  21206940.28645  21206943.07745
     -2317.528       -1805.865  
 126159794.703    98306354.4224   24007416.231 5  24007417.51141  24007418.05941
     -2649.379       -2064.449  
 106859592.635    83267217.6604   20334701.459 8  20334700.45546  20334701.07046
      -725.053        -564.975  
 110422800.355    86043745.4824   21012759.157 8  21012758.87545  21012760.98945
      -791.118        -616.456  
 117315882.471    91414993.2334   22324469.886 7  22324469.40044  22324471.92844
      3301.673        2572.732  
 109620178.162    85418323.6384   20860023.306 8  20860022.88946  20860025.44646
       630.783         491.521  
 115301280.223    89845150.4084   21941098.891 7  21941098.90544  21941101.97944
      1471.090        1146.309  
 121724966.971    94850636.7464   23163489.062 7  23163488.89343  23163489.49143
      3122.134        2432.824  
 08 11 15  2 51 30.0000000  0  9G 6G 3G16G19G25G11G 7G27G 8         
 118107048.682    92031469.7534   22475024.575 6  22475023.99544  22475027.75344
     -2525.236       -1967.707  
 111512847.227    86893129.0574   21220188.847 8  21220188.73145  21220191.44045
     -2323.495       -1810.514  
 126239344.217    98368341.0084   24022552.308 4  24022552.74941  24022555.23341
     -2653.636       -2067.764  
 106881513.410    83284298.7814   20338873.179 8  20338872.25246  20338872.11446
      -736.003        -573.511  
 110446802.562    86062448.5034   21017326.595 7  21017326.29445  21017328.95045
      -808.704        -630.160  
 117216960.920    91337911.5554   22305645.637 7  22305644.49144  22305647.86044
      3293.402        2566.282  
 109601548.821    85403807.2794   20856478.370 8  20856478.30745  20856480.41445
       611.478         476.477  
 115257376.091    89810939.4034   21932744.745 7  21932744.90344  21932746.77744
      1456.144        1134.652  
 121631461.380    94777775.2494   23145695.143 7  23145695.46643  23145697.19743
      3111.875        2424.844  
 08 11 15  2 52  0.0000000  0  9G 6G 3G16G19G25G11G 7G27G 8         
 118182835.997    92090524.7884   22489447.132 7  22489446.91644  22489449.87944
     -2527.591       -1969.547  
 111582633.178    86947507.7044   21233468.507 7  21233468.00345  21233471.45945
     -2329.232       -1814.983  
 126319008.984    98430417.4534   24037710.996 4  24037715.81041  24037715.73741
     -2657.703       -2070.857  
 106903749.217    83301625.3704   20343104.477 8  20343103.42346  20343103.72946
      -746.722        -581.856  
 110471319.551    86081552.6364   21021991.912 8  21021991.73845  21021993.95245
      -826.088        -643.701  
 117118276.013    91261014.2674   22286866.227 7  22286864.91244  22286868.50944
      3285.249        2559.935  
 109583486.832    85389732.9854   20853041.389 8  20853042.10746  20853043.28646
       592.311         461.542  
 115213908.868    89777068.8364   21924472.880 7  21924473.08245  21924475.85945
      1441.327        1123.120  
 121538252.491    94705144.9604   23127958.181 7  23127958.05243  23127959.93343
      3101.700        2416.919  
 08 11 15  2 52 30.0000000  0  8G 6G 3G19G25G11G 7G27G 8            
 118258708.249    92149646.0134   22503885.532 7  22503885.37244  22503887.58844
     -2530.482       -1971.805  
 111652605.419    87002031.5144   21246783.980 7  21246783.31245  21246786.85545
     -2335.478       -1819.850  
 106926320.456    83319213.3434   20347399.865 8  20347399.08946  20347399.32046
      -757.944        -590.602  
 110496372.461    86101074.3864   21026759.300 7  21026758.78345  21026761.38645
      -844.021        -657.677  
 117019851.679    91184319.9944   22268136.798 7  22268136.97444  22268138.81144
      3276.447        2553.079  
 109566015.191    85376118.7064   20849716.902 8  20849717.31145  20849718.34445
       572.550         446.144  
 115170901.970    89743556.9574   21916288.809 7  21916288.69944  21916291.18145
      1425.884        1111.073  
 121445365.197    94632765.2794   23110281.994 7  23110281.61243  23110284.17843
      3090.862        2408.454  
 08 11 15  2 53  0.0000000  0  8G 6G 3G19G25G11G 7G27G 8            
 118334666.167    92208833.9704   22518339.932 7  22518339.61344  22518341.63144
     -2533.387       -1974.067  
 111722764.174    87056700.6634   21260134.388 7  21260133.70245  21260137.53044
     -2341.789       -1824.769  
 106949227.740    83337063.1634   20351758.890 7  20351757.86446  20351758.12146
      -769.213        -599.385  
 110521962.706    86121014.8354   21031628.954 7  21031628.49745  21031631.14945
      -862.022        -671.702  
 116921692.381    91107832.2694   22249458.535 7  22249458.72644  22249459.33944
      3267.472        2546.080  
 109549136.510    85362966.4824   20846504.881 7  20846504.85145  20846506.49945
       552.672         430.656  
 115128359.361    89710406.8654   21908193.324 7  21908192.77745  21908195.19145
      1410.270        1098.918  
 121352804.439    94560640.0204   23092667.694 7  23092667.52943  23092671.02743
      3079.817        2399.857  
 08 11 15  2 53 30.0000000  0  9G 6G 3G16G19G25G11G 7G27G 8         
 118410694.518    92268076.8124   22532807.158 7  22532806.95544  22532809.36644
     -2535.704       -1975.864  
 111793093.910    87111503.0414   21273517.464 7  21273517.00144  21273521.07344
     -2347.397       -1829.137  
 126559102.853                    24083392.283 4                                
     -2671.091                  
 106972455.310    83355162.5644   20356178.797 8  20356177.80846  20356178.41246
      -779.817        -607.650  
 110548075.423    86141362.3994   21036598.521 8  21036598.35545  21036600.29845
      -879.371        -685.225  
 116823786.636    91031542.1144   22230827.236 7  22230827.09344  22230829.05644
      3259.019        2539.498  
 109532837.865    85350266.2444   20843403.200 7  20843402.85645  20843404.86745
       533.383         415.624  
 115086268.450    89677608.7394   21900183.293 7  21900182.41744  21900186.21044
      1395.251        1087.207  
 121260559.424    94488760.7954   23075114.872 7  23075114.46043  23075118.02943
      3069.305        2391.665  
 08 11 15  2 54  0.0000000  0  9G 6G 3G16G19G25G11G 7G27G 8         
 118486789.873    92327371.8694   22547287.573 7  22547287.22144  22547290.48344
     -2537.209       -1977.038  
 111863590.752    87166435.6374   21286932.625 7  21286931.99044  21286936.06544
     -2352.227       -1832.899  
 126639080.029                    24098606.867 4                                
         0.000                  
 106995999.248    83373508.4914   20360658.956 8  20360657.94846  20360658.58846
      -789.629        -615.295  
 110574707.675    86162114.7844   21041665.770 7  21041665.29345  21041668.63845
      -895.967        -698.153  
 116726134.366    90955449.4684   22212245.061 7  22212244.51944  22212246.09844
      3251.251        2533.446  
 109517117.744    85338016.8084   20840412.073 7  20840411.72946  20840412.92446
       514.773         401.122  
 115044628.604    89645162.0954   21892259.323 7  21892258.29844  21892262.50044
      1380.893        1076.016  
 121168630.972    94417128.2374   23057622.167 7  23057621.76343  23057623.72644
      3059.415        2383.963  
 08 11 15  2 54 30.0000000  0  8G 6G 3G19G25G11G 7G27G 8            
 118562951.911    92386718.8884   22561780.786 7  22561780.64344  22561783.64044
     -2539.987       -1979.218  
 111934253.988    87221497.8844   21300379.931 7  21300379.17444  21300382.77645
     -2358.325       -1837.660  
 107019859.140    83392100.6074   20365199.651 8  20365198.51746  20365198.97846
      -800.704        -623.932  
 110601859.416    86183271.9764   21046832.823 7  21046832.13745  21046835.61445
      -913.822        -712.072  
 116628738.894    90879556.9364   22193711.064 7  22193710.61944  22193712.48844
      3242.073        2526.286  
 109501977.826    85326219.4554   20837530.800 7  20837530.70945  20837532.02946
       494.847         385.589  
 115003442.323    89613068.8914   21884422.012 7  21884421.08044  21884424.65244
      1365.204        1063.797  
 121077022.386    94345744.9234   23040190.009 7  23040189.82344  23040191.77344
      3048.111        2375.149  
 08 11 15  2 55  0.0000000  0  9G 6G 3G16G19G25G11G 7G27G 8         
 118639186.992    92446122.8134   22576288.127 7  22576287.86244  22576291.00244
     -2542.379       -1981.068  
 112005089.497    87276694.3654   21313859.286 7  21313858.77644  21313861.94144
     -2364.035       -1842.112  
 126799828.581                    24129205.057 5                                
         0.000                  
 107044040.859    83410943.4944   20369801.060 8  20369800.05546  20369800.74346
      -811.421        -632.277  
 110629537.486    86204839.2794   21052099.915 8  21052099.16045  21052102.27445
      -931.376        -725.742  
 116531610.033    90803872.1424   22175228.312 7  22175227.83845  22175228.89545
      3233.160        2519.344  
 109487426.535    85314880.7854   20834762.135 7  20834761.94446  20834762.66245
       475.221         370.301  
 114962718.827    89581336.2974   21876672.036 7  21876672.03945  21876675.59144
      1349.707        1051.724  
 120985744.250    94274619.1034   23022819.312 7  23022819.04644  23022822.07844
      3037.062        2366.547  
 08 11 15  2 55 30.0000000  0  9G 6G 3G16G19G25G11G 7G27G 8         
 118715494.477    92505583.1714   22590808.632 7  22590808.45444  22590811.79444
     -2545.099       -1983.199  
 112076096.400    87332024.3994   21327371.156 7  21327370.28744  21327373.89144
     -2370.056       -1846.802  
 126880402.018                    24144533.483 4                                
         0.000                  
 107068543.431    83430036.4074   20374463.571 8  20374462.45446  20374463.55746
      -822.406        -640.840  
 110657741.509    86226816.4274   21057467.347 8  21057467.31045  21057469.00945
      -949.209        -739.642  
 116434750.430    90728397.1554   22156796.069 7  22156795.76144  22156796.91144
      3223.805        2512.057  
 109473465.260    85304001.8754   20832104.797 7  20832104.75045  20832106.09045
       455.216         354.708  
 114922460.023    89549965.8054   21869011.517 7  21869011.01245  21869014.84245
      1333.885        1039.392  
 120894800.100    94203753.5314   23005513.148 7  23005512.68144  23005515.39244
      3025.532        2357.561  
 08 11 15  2 56  0.0000000  0  9G 6G 3G16G19G25G11G 7G27G 8         
 118791868.555    92565095.4054   22605342.123 7  22605342.00844  22605345.37744
     -2546.596       -1984.355  
 112147268.496    87387483.1484   21340914.906 7  21340914.11444  21340917.06044
     -2374.844       -1850.526  
 126961066.399                    24159880.035 4                                
         0.000                  
 107093361.020    83449374.7784   20379186.199 8  20379185.47046  20379185.98746
      -832.171        -648.446  
 110686466.223    86249199.3084   21062933.409 8  21062933.33545  21062934.85045
      -965.850        -752.607  
 116338158.272    90653130.5684   22138415.239 7  22138414.44744  22138416.31344
      3215.561        2505.630  
 109460090.231    85293579.7764   20829559.045 7  20829559.11545  20829561.53245
       436.366         340.020  
 114882662.973    89518955.1084   21861439.213 7  21861439.12745  21861441.61945
      1319.167        1027.925  
 120804188.555    94133147.1474   22988270.390 7  22988269.16644  22988272.59644
      3015.113        2349.440  
 08 11 15  2 56 30.0000000  0  8G 6G 3G19G25G11G 7G27G 8            
 118868310.391    92624660.4604   22619888.174 7  22619888.16744  22619891.11344
     -2549.094       -1986.310  
 112218606.852    87443071.4574   21354490.487 7  21354489.93444  21354492.67944
     -2380.593       -1855.017  
 107118494.025    83468958.9384   20383968.836 8  20383967.84846  20383968.37046
      -842.932        -656.835  
 110715712.795    86271988.8354   21068498.693 8  21068498.33845  21068500.50845
      -983.494        -766.364  
 116241837.695    90578075.5844   22120086.137 7  22120085.77444  22120087.85344
      3206.213        2498.350  
 109447304.149    85283616.6134   20827126.793 8  20827127.39246  20827128.82446
       416.438         324.500  
 114843331.414    89488307.1334   21853954.804 7  21853954.77845  21853957.43845
      1303.342        1015.581  
 120713914.312    94062803.5884   22971091.485 7  22971090.80344  22971094.75344
      3003.576        2340.441  
 08 11 15  2 57  0.0000000  0  9G 6G 3G16G19G25G11G 7G27G 8         
 118944813.899    92684273.5374   22634446.708 7  22634446.71444  22634448.78944
     -2551.029       -1987.813  
 112290104.645    87498783.9854   21368096.431 7  21368095.96244  21368098.54144
     -2385.825       -1859.082  
 127122892.228                    24190664.680 4                                
         0.000                  
 107143936.068    83488783.8924   20388810.177 8  20388809.31746  20388810.04446
      -853.123        -664.770  
 110745475.484    86295180.5254   21074162.977 8  21074162.62545  21074164.81645
     -1000.604        -779.684  
 116145786.074    90503230.1884   22101808.246 7  22101807.83244  22101809.36944
      3197.299        2491.403  
 109435102.860    85274109.0964   20824805.255 8  20824805.89346  20824806.79446
       397.032         309.379  
 114804462.152    89458019.3854   21846558.344 7  21846557.77745  21846560.98245
      1288.025        1003.657  
 120623975.539    93992721.4324   22953976.298 6  22953975.01343  22953979.59543
      2992.411        2331.748  
 08 11 15  2 57 30.0000000  0  9G 6G 3G16G19G25G11G 7G27G 8         
 119021388.839    92743942.2804   22649018.750 7  22649018.49744  22649020.25044
     -2553.715       -1989.914  
 112361771.549    87554628.2964   21381733.938 7  21381733.20944  21381736.43444
     -2391.738       -1863.694  
 127204046.046                    24206119.219 5                                
         0.000                  
 107169696.607    83508857.0354   20393712.275 8  20393710.97846  20393711.95346
      -864.027        -673.271  
 110775764.425    86318782.2854   21079926.427 8  21079926.03245  21079928.44445
     -1018.445        -793.603  
 116050016.750    90428604.7514   22083583.246 7  22083583.54644  22083585.21144
      3187.529        2483.777  
 109423498.534    85265066.7604   20822596.954 8  20822597.28146  20822598.28746
       376.817         293.617  
 114766067.508    89428101.4724   21839251.751 7  21839251.38645  21839254.01545
      1271.845         991.046  
 120534386.503    93922911.8164   22936928.061 6  22936926.89343  22936931.51143
      2980.375        2322.359  
 08 11 15  2 58  0.0000000  0  9G 6G 3G16G19G25G11G 7G27G 8         
 119098022.566    92803656.8204   22663601.159 7  22663601.21844  22663604.20344
     -2555.344       -1991.171  
 112433594.259    87610594.0164   21395401.681 7  21395401.12544  21395404.08644
     -2396.602       -1867.478  
 127285244.856                    24221576.696 4                                
         0.000                  
 107195762.454    83529168.0774   20398672.615 8  20398671.76846  20398671.88846
      -873.861        -680.928  
 110806566.892    86342784.1904   21085788.077 8  21085788.04245  21085789.72045
     -1035.232        -806.673  
 115954520.415    90354192.0444   22065410.959 7  22065410.50144  22065412.49944
      3178.692        2476.908  
 109412479.557    85256480.5294   20820499.930 7  20820500.14146  20820501.53946
       357.597         278.658  
 114728137.379    89398545.5104   21832033.622 7  21832032.46045  21832035.60745
      1256.643         979.213  
 120445138.259    93853367.7284   22919944.699 7  22919944.25543  22919948.50243
      2969.294        2313.731  
 08 11 15  2 58 30.0000000  0  9G 6G 3G16G19G25G11G 7G27G 8         
 119174708.584    92863412.1174   22678193.815 7  22678193.08544  22678196.90444
     -2557.098       -1992.550  
 112505565.836    87666675.7404   21409097.579 7  21409096.92645  21409099.66845
     -2401.588       -1871.361  
 127366450.907                    24237020.204 5                                
         0.000                  
 107222126.964    83549711.8534   20403689.304 8  20403688.25246  20403689.22746
      -883.834        -688.694  
 110837876.687    86367181.4204   21091745.606 8  21091745.37945  21091747.45245
     -1052.173        -819.877  
 115859294.155    90279989.7874   22047289.993 7  22047289.94244  22047291.33144
      3169.619        2469.833  
 109402041.433    85248346.9294   20818513.460 7  20818513.06246  20818515.20245
       338.190         263.523  
 114690668.003    89369348.5854   21824903.281 7  21824902.55245  21824905.78745
      1241.220         967.191  
 120356228.106    93784087.1024   22903026.248 7  22903025.74743  22903028.03043
      2957.932        2304.866  
 08 11 15  2 59  0.0000000  0  9G 6G 3G16G19G25G11G 7G27G 8         
 119251444.572    92923206.3214   22692796.094 6  22692795.61544  22692799.62544
     -2558.910       -1993.944  
 112577684.124    87722871.7914   21422821.530 7  21422821.05945  21422824.03545
     -2406.581       -1875.250  
 127447806.002                    24252508.089 4                                
     -2716.123                  
 107248787.448    83570486.2554   20408762.531 8  20408761.65546  20408762.58946
      -893.819        -696.477  
 110869691.783    86391972.3994   21097799.699 7  21097799.39545  21097801.71245
     -1069.128        -833.084  
 115764338.958    90205998.7494   22029220.794 7  22029220.40844  22029222.56244
      3160.405        2462.655  
 109392183.988    85240665.8094   20816637.365 7  20816637.20946  20816639.40946
       318.676         248.316  
 114653659.624    89340510.8734   21817860.941 7  21817860.28745  21817864.16645
      1225.697         955.091  
 120267658.295    93715071.6824   22886172.003 7  22886171.52543  22886172.93543
      2946.390        2295.893  
 08 11 15  2 59 30.0000000  0  9G 6G 3G16G19G25G11G 7G27G 8         
 119328242.519    92983048.8264   22707411.101 7  22707411.19644  22707413.92044
     -2560.493       -1995.179  
 112649960.096    87779190.6994   21436574.651 7  21436574.40145  21436577.80045
     -2411.359       -1878.982  
 127529352.604                    24268024.711 4                                
     -2719.942                  
 107275755.142    83591500.0434   20413894.253 7  20413893.02746  20413894.39446
      -903.567        -704.075  
 110902024.081    86417166.3794   21103952.518 7  21103952.33845  21103953.98445
     -1085.890        -846.147  
 115669670.261    90132230.9484   22011206.313 7  22011205.93645  22011207.87045
      3151.289        2455.548  
 109382920.499    85233447.4984   20814874.704 7  20814874.68046  20814876.89745
       299.330         233.244  
 114617126.594    89312043.5654   21810909.702 8  21810909.23445  21810912.23845
      1210.274         943.073  
 120179444.575    93646333.7314   22869385.546 7  22869385.02243  22869387.12843
      2934.955        2286.989  
 08 11 15  3  0  0.0000000  0  8G 6G 3G19G25G11G 7G27G 8            
 119405096.295    93042934.8584   22722035.714 7  22722035.63544  22722038.77144
     -2562.199       -1996.522  
 112722387.715    87835627.7724   21450357.096 7  21450356.13745  21450360.25445
     -2416.251       -1882.799  
 107303023.745    83612748.2994   20419083.576 8  20419082.58446  20419083.57146
      -913.454        -711.784  
 110934867.677    86442758.7894   21110202.823 7  21110202.77145  21110204.10845
     -1102.805        -859.331  
 115575284.919    90058683.9304   21993244.970 7  21993244.25245  21993246.90645
      3141.917        2448.245  
 109374246.670    85226688.6724   20813224.531 7  20813224.47446  20813226.58346
       279.796         218.024  
 114581065.676    89283944.1634   21804047.417 7  21804046.97245  21804050.21645
      1194.649         930.892  
 120091584.801    93577871.5954   22852665.793 7  22852665.04443  22852667.98043
      2923.224        2277.839  
