     2              OBSERVATION DATA                        RINEX VERSION / TYPE
DAT2RINW 3.10 001   국토지리정보원      10NOV08 23:22:06    PGM / RUN BY / DATE 
(주)범아엔지니어링  국토지리정보원                          OBSERVER / AGENCY   
0220323884          TRIMBLE 5700        Nav 1.24 Sig 1.24   REC # / TYPE / VERS 
012545662           TRM39105.00                             ANT # / TYPE        
----------------------------------------------------------- COMMENT             
Offset from BOTTOM OF ANTENNA to PHASE CENTER is  46.0 mm   COMMENT             
----------------------------------------------------------- COMMENT             
0372                                                        MARKER NAME         
0372                                                        MARKER NUMBER       
 -3062131.6686  4095633.4313  3799066.8095                  APPROX POSITION XYZ 
        0.8020        0.0000        0.0000                  ANTENNA: DELTA H/E/N
*** Above antenna height is from mark to BOTTOM OF ANTENNA. COMMENT             
----------------------------------------------------------- COMMENT             
Note: The above offsets are CORRECTED.                      COMMENT             
Raw Offsets: H=      0.8480 E=      0.0000 N=      0.0000   COMMENT             
----------------------------------------------------------- COMMENT             
     1     1     0                                          WAVELENGTH FACT L1/2
     5    L1    C1    L2    P2    D1                        # / TYPES OF OBSERV 
    15                                                      INTERVAL            
  2008    11     9    23    59   30.000000                  TIME OF FIRST OBS   
  2008    11    10     8    30    0.000000                  TIME OF LAST OBS    
    19                                                      # OF SATELLITES     
     2    12    12    12    12    12                        PRN / # OF OBS      
     3  1179  1180  1171  1172  1179                        PRN / # OF OBS      
     4   495   495   495   495   495                        PRN / # OF OBS      
     6  1002  1003   970   970  1002                        PRN / # OF OBS      
     7  1127  1127  1127  1127  1127                        PRN / # OF OBS      
     8   961   961   961   961   961                        PRN / # OF OBS      
    11  1436  1436  1432  1432  1436                        PRN / # OF OBS      
    13   811   811   799   799   811                        PRN / # OF OBS      
    16   829   829   829   829   829                        PRN / # OF OBS      
    17   831   831   831   831   831                        PRN / # OF OBS      
    19  1512  1512  1512  1512  1512                        PRN / # OF OBS      
    20   889   889   889   889   889                        PRN / # OF OBS      
    21   426   430   416   416   426                        PRN / # OF OBS      
    23   812   812   812   812   812                        PRN / # OF OBS      
    25  1192  1192  1192  1192  1192                        PRN / # OF OBS      
    27  1077  1077  1077  1077  1077                        PRN / # OF OBS      
    28  1081  1081  1081  1081  1081                        PRN / # OF OBS      
    31   387   387   387   387   387                        PRN / # OF OBS      
    32   959   959   959   959   959                        PRN / # OF OBS      
                                                            END OF HEADER       
  08 11 10  0  0  0.0000000  0  7  3  6 13 16 21 23 31
   -539097.61707  21686693.72707   -405039.97848  21686691.85548      3988.54900
   -405917.20707  21155831.40607   -308324.91348  21155830.21948      2995.19200
   -497041.02306  23597484.44506   -363020.81047  23597482.02047      3735.53300
    -61239.26207  20633354.80507    -49992.71649  20633351.73849       451.28200
   -314390.66005  24515569.14805   -237658.52347  24515567.16447      2322.04100
   -316149.40206  21857091.73406   -239586.43048  21857088.26648      2320.75900
     98220.40607  21685827.74207     68906.16648  21685825.34448      -737.13600
 08 11 10  0  0 15.0000000  0  7  3  6 13 16 21 23 31
   -598842.37107  21675324.50007   -451594.32548  21675323.04348      3982.98400
   -450740.39507  21147301.81307   -343252.07248  21147300.14548      2988.21300
   -552983.77006  23586838.65606   -406612.57446  23586836.27746      3729.51600
    -67950.07007  20632077.17207    -55221.92148  20632074.62948       447.38700
   -349150.10505  24508954.71905   -264743.79447  24508952.37147      2317.29600
   -350823.29706  21850493.78106   -266605.04448  21850490.01248      2311.59300
    109350.37107  21687945.78907     77578.85048  21687943.52748      -741.99800
 08 11 10  0  0 30.0000000  0  7  3  6 13 16 21 23 31
   -658502.45307  21663971.53907   -498082.67348  21663970.25048      3977.33900
   -495457.82407  21138792.31307   -378096.81248  21138790.50848      2981.16200
   -608834.98006  23576209.86706   -450132.97147  23576207.94547      3723.41400
    -74601.59807  20630811.81307    -60404.93349  20630808.46549       443.43500
   -383837.22306  24502354.04706   -291772.70047  24502351.05547      2312.47400
   -385358.55107  21843922.03107   -293515.63748  21843918.10248      2302.35000
    120554.14507  21690077.73407     86309.05148  21690075.75048      -746.91800
 08 11 10  0  0 45.0000000  0  7  3  6 13 16 21 23 31
   -718078.83607  21652634.14807   -544505.83548  21652633.43448      3971.75900
   -540070.50807  21130302.43007   -412859.94548  21130301.31648      2974.17900
   -664595.28506  23565599.50806   -493582.58547  23565597.01647      3717.35400
    -81195.13307  20629556.87507    -65542.76248  20629554.14848       439.56900
   -418452.94106  24495766.96106   -318745.95347  24495763.59847      2307.71500
   -419756.00807  21837376.30507   -320318.85848  21837372.34848      2293.16400
    131830.73407  21692223.78107     95095.99248  21692221.35248      -751.77300
 08 11 10  0  1  0.0000000  0  7  3  6 13 16 21 23 31
   -777569.38306  21641313.64106   -590862.09348  21641312.51648      3966.03600
   -584576.40207  21121833.78107   -447539.87048  21121832.15248      2967.06000
   -720262.89506  23555005.62506   -536959.92747  23555004.41047      3711.17400
    -87729.02007  20628313.59407    -70634.10649  20628310.68849       435.59200
   -452995.22306  24489193.95306   -345662.02847  24489190.47747      2302.81900
   -454013.90607  21830857.10207   -347013.33048  21830853.62948      2283.86000
    143181.68806  21694383.85206    103940.88348  21694381.09048      -756.73000
 08 11 10  0  1 15.0000000  0  7  3  6 13 16 21 23 31
   -836973.47306  21630009.29706   -637150.98848  21630008.44548      3960.27300
   -628975.26207  21113384.69507   -482136.37348  21113383.28948      2959.92400
   -775836.74206  23544431.03106   -580264.20747  23544428.60547      3704.92300
    -94203.21107  20627081.81307    -75678.93548  20627078.75448       431.61300
   -487463.57406  24482634.95306   -372520.45547  24482631.68047      2297.89000
   -488131.80107  21824364.79707   -373598.71948  21824360.52048      2274.52600
    154607.26607  21696557.90607    112843.93548  21696555.54748      -761.70500
 08 11 10  0  1 30.0000000  0  7  3  6 13 16 21 23 31
   -896289.39107  21618721.93007   -683371.19248  21618720.90648      3954.39500
   -673265.01607  21104956.75007   -516647.86248  21104955.27348      2952.65000
   -831315.35506  23533873.39106   -623494.31347  23533871.16447      3698.57400
   -100616.08207  20625861.53107    -80675.97748  20625858.52348       427.52500
   -521855.95706  24476089.80506   -399319.66846  24476086.91846      2292.82600
   -522107.68007  21817899.19507   -400073.41948  21817895.31348      2265.05900
    166109.35206  21698746.68806    121806.59548  21698744.53948      -766.80600
 08 11 10  0  1 45.0000000  0  7  3  6 13 16 21 23 31
   -955518.44906  21607451.25006   -729523.67848  21607449.97348      3948.60400
   -717447.11307  21096549.18807   -551075.47748  21096547.92648      2945.47300
   -886700.07806  23523334.76606   -666651.22147  23523332.28947      3692.31500
   -106969.43407  20624652.48407    -85626.65348  20624649.58248       423.55700
   -556173.76206  24469558.81306   -426060.80847  24469557.13747      2287.85400
   -555943.06307  21811460.51607   -426438.66748  21811456.48048      2255.69200
    177686.22307  21700949.80507    130827.52148  21700947.91848      -771.79100
 08 11 10  0  2  0.0000000  0  7  3  6 13 16 21 23 31
  -1014657.55106  21596197.25806   -775606.09648  21596196.27048      3942.60700
   -761518.81607  21088162.46907   -585417.06448  21088161.10248      2938.11400
   -941987.64106  23512813.35206   -709732.43847  23512811.40247      3685.83800
   -113260.79707  20623455.14107    -90529.00849  20623452.48849       419.42400
   -590414.01606  24463043.95306   -452741.50447  24463041.25847      2282.68400
   -589635.06307  21805049.18007   -452692.18048  21805045.00448      2246.13300
    189340.59007  21703167.46907    139908.83848  21703165.39148      -776.95800
 08 11 10  0  2 15.0000000  0  7  3  6 13 16 21 23 31
  -1073707.09807  21584960.70307   -821618.70848  21584959.45748      3936.63600
   -805480.52007  21079796.80507   -619672.93348  21079795.02348      2930.78000
   -997177.99206  23502311.35206   -752737.88747  23502309.46947      3679.35700
   -119490.81307  20622269.62507    -95383.56748  20622267.03548       415.33400
   -624577.06606  24456542.94506   -479362.02347  24456539.70347      2277.53700
   -623183.93407  21798664.92207   -478834.15548  21798660.87148      2236.59100
    201071.82407  21705399.59407    149050.06348  21705397.41048      -782.08200
 08 11 10  0  2 30.0000000  0  7  3  6 13 16 21 23 31
  -1132665.91807  21573741.32007   -867560.65548  21573739.96148      3930.58800
   -849331.06307  21071452.46107   -653842.18248  21071451.08648      2923.37000
  -1052270.13306  23491827.73406   -795666.83347  23491825.71147      3672.80900
   -125658.61307  20621095.97707   -100189.65448  20621093.46148       411.18700
   -658661.77306  24450056.25006   -505921.53346  24450053.17646      2272.31400
   -656588.83207  21792308.35907   -504863.96548  21792304.16448      2226.99300
    212880.94107  21707647.34407    158251.96548  21707644.06348      -787.27400
 08 11 10  0  2 45.0000000  0  7  3  6 13 16 21 23 31
  -1191531.31607  21562539.57807   -913429.79248  21562538.44148      3924.36000
   -893068.03907  21063129.49207   -687922.93848  21063128.13348      2915.79800
  -1107261.17206  23481363.47706   -838516.98547  23481361.02747      3666.06900
   -131762.00807  20619934.60907   -104945.55048  20619931.90648       406.89300
   -692665.53106  24443585.77306   -532417.97646  24443581.91446      2266.91700
   -689847.28107  21785979.32807   -530779.63148  21785975.20348      2217.23000
    224770.17607  21709909.68007    167516.30248  21709907.24648      -792.61600
 08 11 10  0  3  0.0000000  0  7  3  6 13 16 21 23 31
  -1250305.05907  21551355.14807   -959227.50648  21551353.91448      3918.24900
   -936693.12507  21054827.82007   -721916.49848  21054826.73048      2908.33900
  -1162152.74206  23470918.33606   -881289.64747  23470916.34847      3659.43800
   -137803.12507  20618784.72707   -109652.91649  20618782.34449       402.74100
   -726589.93005  24437130.31305   -558852.55147  24437125.90247      2261.62700
   -722960.69507  21779678.26607   -556582.30148  21779673.50048      2207.56100
    236737.60207  21712186.93007    176841.56148  21712184.91448      -797.82800
 08 11 10  0  3 15.0000000  0  7  3  6 13 16 21 23 31
  -1308986.29307  21540188.58607  -1004953.13348  21540187.38748      3912.08200
   -980205.67607  21046547.69507   -755822.37248  21046546.66448      2900.83700
  -1216944.67606  23460490.86706   -923984.65247  23460489.55947      3652.79600
   -143781.62507  20617647.37507   -114311.50048  20617644.54348       398.56700
   -760434.24205  24430689.52305   -585224.71646  24430686.77346      2256.28700
   -755928.65207  21773404.56307   -582271.62348  21773399.59048      2197.86400
    248783.78107  21714479.32807    186228.18848  21714476.91448      -803.07900
 08 11 10  0  3 30.0000000  0  7  3  6 13 16 21 23 31
  -1367574.75407  21529039.70307  -1050606.46448  21529038.67248      3905.89700
  -1023605.44107  21038289.04707   -789640.35748  21038287.37148      2893.31800
  -1271636.00806  23450083.29706   -966601.28247  23450081.41447      3646.08900
   -149697.50807  20616521.57007   -118921.27748  20616518.62948       394.39200
   -794198.11706  24424264.40606   -611534.21046  24424262.22346      2250.92500
   -788750.83207  21767158.70307   -607847.35848  21767153.98048      2188.14500
    260908.92607  21716786.96107    195676.34748  21716783.85948      -808.34300
 08 11 10  0  3 45.0000000  0  7  3  6 13 16 21 23 31
  -1426070.66007  21517908.04707  -1096187.69248  21517906.94948      3899.72700
  -1066892.79307  21030051.36707   -823370.75748  21030050.13348      2885.82300
  -1326226.97706  23439694.80506  -1009139.67247  23439693.03547      3639.39800
   -155551.50007  20615407.86707   -123482.83948  20615404.50448       390.26600
   -827881.86706  24417854.64106   -637781.26947  24417852.48847      2245.58300
   -821427.55507  21760940.64107   -633309.75348  21760935.77748      2178.44800
    273112.35507  21719108.75007    205185.50848  21719106.08648      -813.56200
 08 11 10  0  4  0.0000000  0  7  3  6 13 16 21 23 31
  -1484475.14807  21506794.14807  -1141697.66348  21506793.06648      3893.63300
  -1110068.92607  21021835.52307   -857014.50348  21021833.86348      2878.40900
  -1380718.60906  23429325.67206  -1051600.69547  23429324.35247      3632.77600
   -161344.94907  20614305.40607   -127997.22549  20614302.23449       386.23000
   -861486.46505  24411460.81305   -663966.70047  24411458.48447      2240.30700
   -853960.00007  21754750.32807   -658659.70548  21754745.05148      2168.83000
    285392.66407  21721445.80507    214754.55548  21721443.09048      -818.68700
 08 11 10  0  4 15.0000000  0  7  3  6 13 16 21 23 31
  -1542785.97307  21495698.04707  -1187134.64548  21495696.73048      3887.38800
  -1153131.87107  21013640.98407   -890570.04948  21013639.20748      2870.86300
  -1435108.67606  23418975.10906  -1093982.56547  23418973.71547      3626.00400
   -167076.20707  20613214.72707   -132463.14548  20613211.75448       382.08400
   -895009.77705  24405080.80505   -690088.71846  24405079.02046      2234.88700
   -886346.28507  21748586.94507   -683895.78848  21748582.52748      2159.08600
    297751.71907  21723797.96107    224384.97448  21723795.31648      -823.93700
 08 11 10  0  4 30.0000000  0  7  3  6 13 16 21 23 31
  -1601003.57807  21484619.59407  -1232499.01148  21484618.36748      3881.17400
  -1196081.71907  21005467.93807   -924037.45548  21005466.42248      2863.32300
  -1489397.70306  23408644.60906  -1136285.68947  23408642.83647      3619.26800
   -172745.85507  20612135.64807   -136881.05748  20612132.77348       377.97700
   -928451.80905  24398716.71905   -716147.42746  24398715.34846      2229.46900
   -918586.52007  21742451.94507   -709018.04248  21742447.14848      2149.34900
    310189.25407  21726164.49207    234076.55448  21726161.83648      -829.16900
 08 11 10  0  4 45.0000000  0  7  3  6 13 16 21 23 31
  -1659126.99207  21473559.06307  -1277789.97248  21473557.89548      3874.89400
  -1238917.99207  20997316.48407   -957416.36748  20997314.76248      2855.75200
  -1543584.27006  23398332.88306  -1178508.97347  23398331.87947      3612.43800
   -178353.66007  20611068.58607   -141250.75948  20611065.71948       373.85400
   -961811.97305  24392368.71105   -742142.33346  24392367.46146      2224.01100
   -950680.12107  21736344.59407   -734026.04748  21736340.11348      2139.57300
    322705.52307  21728546.28907    243829.47248  21728544.14148      -834.41800
 08 11 10  0  5  0.0000000  0  7  3  6 13 16 21 23 31
  -1717154.60207  21462516.37507  -1323006.29448  21462515.27748      3868.50700
  -1281639.35907  20989186.99207   -990705.75048  20989185.29748      2848.09100
  -1597667.35906  23388041.53106  -1220651.62347  23388040.02047      3605.53900
   -183898.51207  20610013.13307   -145571.42349  20610010.76649       369.65700
   -995088.77706  24386036.18006   -768072.34147  24386034.70347      2218.45400
   -982625.57407  21730265.75007   -758918.62148  21730260.89148      2129.69700
    335301.70307  21730943.17207    253644.66948  21730941.42248      -839.74500
 08 11 10  0  5 15.0000000  0  7  3  6 13 16 21 23 31
  -1775086.97707  21451492.48407  -1368148.38948  21451490.99648      3862.15800
  -1324246.17207  20981079.00007  -1023905.85848  20981077.35548      2840.45400
  -1651646.87506  23377769.61706  -1262713.57747  23377767.81647      3598.63400
   -189380.98007  20608969.96907   -149843.48748  20608967.68048       365.49800
  -1028282.50806  24379719.64106   -793937.57646  24379717.30546      2212.91500
  -1014423.41007  21724214.64807   -783696.15648  21724210.52348      2119.85600
    347977.32407  21733355.18807    263521.76748  21733353.19948      -845.04100
 08 11 10  0  5 30.0000000  0  8  3  6 13 16 19 21 23 31
  -1832925.67607  21440486.27307  -1413217.50148  21440484.98448      3855.91300
  -1366740.14107  20972992.71107  -1057018.03848  20972991.44548      2832.93100
  -1705524.14106  23367517.23406  -1304695.88247  23367515.37547      3591.81800
   -194803.27707  20607938.01607   -154068.65248  20607935.48448       361.48600
   -172381.98015  24262252.46105   -129802.77356  24262250.79746      4707.92200
  -1061395.09805  24373418.78905   -819739.57346  24373415.73046      2207.50600
  -1046075.52007  21718191.53107   -808360.15048  21718187.07448      2110.14100
    360730.42207  21735781.94507    273459.23948  21735778.78948      -850.20700
 08 11 10  0  5 45.0000000  0  8  3  6 13 16 19 21 23 31
  -1890670.34007  21429498.04707  -1458213.32848  21429496.30948      3849.64400
  -1409120.99607  20964928.06307  -1090042.07548  20964926.60248      2825.39000
  -1759298.58206  23357284.53906  -1346598.02847  23357282.08647      3584.96300
   -200165.21107  20606917.78907   -158246.79348  20606915.04348       357.46200
   -242990.97305  24248816.80505   -184822.71647  24248814.17247      4707.26600
  -1094426.04306  24367133.32806   -845478.02446  24367130.75846      2202.06300
  -1077581.39507  21712196.22707   -832910.17648  21712192.33648      2100.39200
    373561.16407  21738223.90607    283457.21448  21738220.70348      -855.38300
 08 11 10  0  6  0.0000000  0  8  3  6 13 16 19 21 23 31
  -1948321.74607  21418527.14807  -1503136.49848  21418525.88748      3843.42700
  -1451389.71107  20956884.26607  -1122978.73148  20956882.89148      2817.91400
  -1812972.05106  23347070.38306  -1388421.49847  23347068.31647      3578.23100
   -205468.10507  20605908.82007   -162378.91749  20605906.16449       353.52600
   -313578.27305  24235384.18005   -239825.74847  24235382.09047      4705.82000
  -1127376.12105  24360862.52305   -871153.38446  24360860.51646      2196.67200
  -1108942.09007  21706228.39807   -857347.09648  21706224.66848      2090.71300
    386468.48407  21740680.03107    293514.86048  21740677.82448      -860.48800
 08 11 10  0  6 15.0000000  0  8  3  6 13 16 19 21 23 31
  -2005879.17207  21407574.27307  -1547986.43548  21407572.87548      3837.16200
  -1493545.45707  20948861.97707  -1155827.35348  20948861.15648      2810.38300
  -1866543.14106  23336876.74206  -1430165.20647  23336874.07047      3571.40600
   -210711.47707  20604910.93007   -166464.66448  20604908.50848       349.55800
   -384143.05105  24221956.13305   -294811.25546  24221953.39146      4704.31800
  -1160244.56304  24354608.31304   -896765.15946  24354605.48446      2191.22900
  -1140156.85507  21700288.49207   -881670.29648  21700284.80148      2080.98400
    399452.96107  21743150.57807    303632.63748  21743148.47748      -865.63200
 08 11 10  0  6 30.0000000  0  8  3  6 13 16 19 21 23 31
  -2063341.74207  21396639.81307  -1592762.45148  21396637.94148      3830.83800
  -1535587.63307  20940861.88307  -1188587.49248  20940860.43848      2802.81200
  -1920011.04706  23326701.57006  -1471828.50547  23326699.37147      3564.52700
   -215894.86307  20603924.78907   -170503.68548  20603921.95348       345.55900
   -454684.27005  24208531.95305   -349778.42346  24208529.70346      4702.74800
  -1193030.54705  24348369.65605   -922312.68846  24348366.57846      2185.73200
  -1171224.96507  21694376.63307   -905879.21948  21694372.26248      2071.20700
    412515.10207  21745636.54707    313810.90448  21745633.68448      -870.80900
 08 11 10  0  6 45.0000000  0  8  3  6 13 16 19 21 23 31
  -2120709.59807  21385722.65607  -1637464.66648  21385721.25448      3824.52400
  -1577516.44107  20932882.80507  -1221259.28548  20932881.59048      2795.25400
  -1973375.83206  23316546.71906  -1513411.45447  23316543.96147      3557.65200
   -221018.78107  20602949.88307   -174496.34248  20602946.89148       341.59500
   -525202.16406  24195113.31306   -404727.38447  24195110.29347      4701.19300
  -1225734.16405  24342145.75005   -947795.99046  24342144.11746      2180.24100
  -1202146.69107  21688492.16407   -929974.07548  21688488.29748      2061.44800
    425654.54307  21748136.57007    324049.42848  21748134.06648      -875.96300
 08 11 10  0  7  0.0000000  0  8  3  6 13 16 19 21 23 31
  -2177982.20707  21374824.38307  -1682092.66848  21374822.55148      3818.17400
  -1619331.46507  20924925.70307  -1253842.41948  20924924.69148      2787.66800
  -2026636.20306  23306411.76606  -1554913.03947  23306408.83247      3550.69100
   -226083.26207  20601985.85207   -178442.69649  20601982.85249       337.63200
   -595696.19906  24181698.43806   -459657.78347  24181695.96947      4699.60200
  -1258354.96505  24335937.64105   -973214.80446  24335936.87546      2174.72000
  -1232921.50807  21682636.07007   -953954.46548  21682632.02048      2051.65400
    438871.52707  21750651.51607    334348.36548  21750648.97748      -881.13200
 08 11 10  0  7 15.0000000  0  8  3  6 13 16 19 21 23 31
  -2235159.04307  21363943.75807  -1726646.02848  21363942.10948      3811.78900
  -1661032.27707  20916990.79707  -1286336.54948  20916989.22748      2780.05400
  -2079792.34806  23296296.83606  -1596333.43247  23296294.08247      3543.74300
   -231088.05507  20601033.55507   -182342.53248  20601030.80148       333.65300
   -666165.72706  24168288.79706   -514569.05647  24168286.10547      4697.96800
  -1290892.30905  24329746.65605   -998568.52146  24329745.72746      2169.15600
  -1263549.13307  21676807.83607   -977820.14848  21676803.55948      2041.84200
    452166.29307  21753181.81307    344707.90648  21753179.38348      -886.31800
 08 11 10  0  7 30.0000000  0  8  3  6 13 16 19 21 23 31
  -2292239.14807  21353081.80507  -1771124.03148  21353080.37148      3805.34000
  -1702617.99607  20909077.07807  -1318741.00648  20909075.69548      2772.38100
  -2132843.00006  23286201.50006  -1637671.58647  23286198.97347      3536.71000
   -236032.56607  20600092.65607   -186195.41048  20600089.61348       329.63400
   -736609.77706  24154883.71106   -569460.48147  24154881.48047      4696.27000
  -1323345.19105  24323571.30505  -1023856.52846  24323569.20746      2163.52600
  -1294028.49607  21671007.66407  -1001570.31548  21671003.82448      2031.95800
    465539.48007  21755726.78907    355128.55748  21755724.10248      -891.54600
 08 11 10  0  7 45.0000000  0  8  3  6 13 16 19 21 23 31
  -2349222.79707  21342237.96107  -1815526.86748  21342236.63348      3798.91000
  -1744089.07807  20901185.52307  -1351056.12648  20901184.00848      2764.73900
  -2185787.57806  23276126.00006  -1678927.09247  23276124.43447      3529.63900
   -240917.49207  20599162.97707   -190001.84148  20599159.94548       325.66200
   -807028.64105  24141483.26605   -624332.28147  24141480.94947      4694.59100
  -1355714.18405  24317411.56305  -1049079.04746  24317409.30146      2157.93300
  -1324360.16007  21665235.99207  -1025205.37148  21665231.82848      2022.11100
    478990.66807  21758286.56307    365610.01448  21758283.73848      -896.74600
 08 11 10  0  8  0.0000000  0  8  3  6 13 16 19 21 23 31
  -2406109.21107  21331413.05507  -1859853.93648  21331411.82848      3792.42800
  -1785444.84407  20893315.80507  -1383281.40848  20893314.36748      2757.05100
  -2238626.06606  23266071.29706  -1720099.92147  23266068.96547      3522.56600
   -245742.31307  20598244.98407   -193761.44549  20598241.79749       321.65500
   -877421.36706  24128087.58606   -679183.73747  24128085.93047      4692.84800
  -1387998.37505  24311268.03105  -1074235.56146  24311265.92246      2152.27900
  -1354543.35507  21659492.09407  -1048724.74848  21659488.01648      2012.21300
    492520.30507  21760861.25807    376152.57248  21760858.69548      -901.97600
 08 11 10  0  8 15.0000000  0  8  3  6 13 16 19 21 23 31
  -2462894.85906  21320606.69506  -1904102.48748  21320605.87948      3785.71000
  -1826681.73807  20885468.89807  -1415414.04948  20885467.29748      2749.12600
  -2291354.73406  23256037.68806  -1761187.19847  23256034.77047      3515.24500
   -250504.05507  20597338.81307   -197471.89048  20597336.23448       317.44900
   -947784.53906  24114698.15606   -734012.13947  24114696.05547      4690.87800
  -1420194.10205  24305141.36705  -1099323.14546  24305138.69546      2146.38200
  -1384574.68007  21653777.01607  -1072125.78948  21653772.89848      2002.08800
    506131.69907  21763451.10207    386758.85048  21763449.39848      -907.42600
 08 11 10  0  8 30.0000000  0  8  3  6 13 16 19 21 23 31
  -2519579.42607  21309820.44507  -1948272.26848  21309818.72348      3778.97100
  -1867799.72307  20877644.05507  -1447454.04248  20877642.66048      2741.19900
  -2343973.44106  23246024.67206  -1802188.79447  23246021.06347      3507.91400
   -255202.68007  20596444.70307   -201133.16148  20596442.04348       313.24200
  -1018117.69906  24101314.97706   -788817.16147  24101311.94947      4688.87700
  -1452301.09405  24299031.91405  -1124341.59046  24299028.83646      2140.46600
  -1414453.98807  21648091.61707  -1095408.37348  21648087.07848      1991.95400
    519824.72707  21766056.85207    397428.71848  21766055.42648      -912.86800
 08 11 10  0  8 45.0000000  0  8  3  6 13 16 19 21 23 31
  -2576164.45707  21299052.28107  -1992364.50448  21299051.23448      3772.33500
  -1908800.32807  20869841.89807  -1479402.55448  20869840.21948      2733.37400
  -2396483.48806  23236032.21906  -1843105.70147  23236029.64847      3500.67000
   -259840.10207  20595561.95307   -204746.73748  20595559.37548       309.16100
  -1088422.33605  24087936.01605   -843599.93547  24087933.70747      4686.97600
  -1484320.97305  24292938.55505  -1149292.12546  24292935.47346      2134.65900
  -1444182.88307  21642434.14807  -1118573.74548  21642430.01248      1981.92600
    533597.59007  21768677.95307    408160.81148  21768675.68048      -918.19100
 08 11 10  0  9  0.0000000  0  8  3  6 13 16 19 21 23 31
  -2632649.43407  21288303.97707  -2036378.77048  21288302.87948      3765.66500
  -1949683.27007  20862061.94507  -1511259.38248  20862060.70348      2725.52900
  -2448884.25806  23226060.42206  -1883937.47847  23226058.07847      3493.38500
   -264416.34007  20594691.38307   -208312.65349  20594688.84849       305.08300
  -1158697.70705  24074563.00805   -898359.93747  24074560.27047      4685.02500
  -1516253.10505  24286862.15605  -1174174.27446  24286859.15646      2128.80900
  -1473761.03907  21636805.66407  -1141621.67948  21636802.02348      1971.87700
    547450.73807  21771314.26607    418955.45148  21771311.27348      -923.54300
 08 11 10  0  9 15.0000000  0  8  3  6 13 16 19 21 23 31
  -2689032.45707  21277574.49207  -2080313.58048  21277573.14148      3758.86800
  -1990446.78907  20854304.96107  -1543023.15448  20854303.38748      2717.56800
  -2501174.02306  23216110.10206  -1924682.75347  23216107.55547      3485.98400
   -268929.87507  20593832.32007   -211829.69048  20593829.83248       300.90200
  -1228942.19105  24061195.64105   -953095.84347  24061193.48447      4682.96600
  -1548095.72305  24280802.16405  -1198986.65946  24280799.37946      2122.84100
  -1503186.72707  21631206.35207  -1164550.77248  21631202.57848      1961.71300
    561385.54307  21773965.92207    429813.75148  21773963.06348      -928.98700
 08 11 10  0  9 30.0000000  0  8  3  6 13 16 19 21 23 31
  -2745313.77306  21266864.20306  -2124169.15048  21266863.53548      3752.08800
  -2031091.12507  20846570.78907  -1574694.05748  20846569.34848      2709.62200
  -2553353.03106  23206180.56306  -1965341.72247  23206177.97747      3478.60100
   -273381.15207  20592985.28907   -215298.22248  20592982.71548       296.75200
  -1299155.86305  24047834.28105  -1007807.79647  24047832.41047      4680.91100
  -1579849.14505  24274759.69505  -1223729.58245  24274755.96145      2116.89500
  -1532460.10207  21625635.42207  -1187361.20048  21625631.78948      1951.55800
    575401.69107  21776633.00007    440735.42048  21776630.21948      -934.41000
 08 11 10  0  9 45.0000000  0  8  3  6 13 16 19 21 23 31
  -2801492.81607  21256174.10207  -2167945.02248  21256172.99648      3745.27000
  -2071615.82407  20838858.96107  -1606271.74048  20838857.77748      2701.64700
  -2605419.86306  23196272.13306  -2005913.25646  23196270.13746      3471.12200
   -277770.21107  20592150.17207   -218718.26148  20592147.51248       292.60400
  -1369338.18806  24034478.95306  -1062495.27447  24034476.76647      4678.82200
  -1611512.68005  24268734.28905  -1248402.42045  24268729.55545      2110.90200
  -1561580.89507  21620094.32007  -1210052.74048  21620089.64148      1941.38600
    589499.44107  21779315.85907    451720.66248  21779313.25448      -939.85000
 08 11 10  0 10  0.0000000  0  8  3  6 13 16 19 21 23 31
  -2857569.64507  21245503.26607  -2211641.24748  21245502.14548      3738.45500
  -2112020.91407  20831170.17207  -1637756.22248  20831168.66448      2693.67300
  -2657374.80906  23186385.89806  -2046397.64447  23186382.73847      3463.66300
   -282097.26607  20591326.60207   -222089.99048  20591324.22348       288.47000
  -1439489.10206  24021129.87506  -1117158.31547  24021127.75447      4676.72800
  -1643086.17605  24262726.10905  -1273005.15245  24262721.05545      2104.90000
  -1590549.09407  21614581.77307  -1232625.37048  21614577.60948      1931.21300
    603678.57807  21782014.07007    462769.32148  21782011.58648      -945.27600
 08 11 10  0 10 15.0000000  0  8  3  6 13 16 19 21 23 31
  -2913543.30907  21234851.82807  -2255257.08948  21234850.16048      3731.57800
  -2152305.89807  20823504.32807  -1669147.12248  20823503.29348      2685.66600
  -2709217.51606  23176520.43806  -2086794.54547  23176517.64547      3456.18000
   -286362.00407  20590515.35907   -225413.16948  20590512.47748       284.31600
  -1509607.80906  24007786.74206  -1171796.22847  24007784.70347      4674.58000
  -1674569.13305  24256735.09405  -1297537.26846  24256731.43446      2098.86400
  -1619363.99207  21609098.05507  -1255078.53248  21609094.30148      1920.99300
    617939.60207  21784727.61707    473881.79048  21784725.22748      -950.73500
 08 11 10  0 10 30.0000000  0  8  3  6 13 16 19 21 23 31
  -2969414.40207  21224219.75007  -2298792.99948  21224218.46948      3724.74000
  -2192471.24207  20815860.95307  -1700444.78148  20815859.45748      2677.69000
  -2760947.86706  23166676.36706  -2127103.92846  23166673.67246      3448.69000
   -290565.19907  20589715.47707   -228688.40348  20589712.22748       280.21300
  -1579694.85205  23994449.09405  -1226409.48247  23994447.08647      4672.47000
  -1705961.84806  24250762.21906  -1321999.14146  24250756.98046      2092.84800
  -1648026.23807  21603644.06307  -1277412.76448  21603640.29348      1910.81600
    632281.73407  21787457.18807    485057.46248  21787454.70348      -956.14200
 08 11 10  0 10 45.0000000  0  8  3  6 13 16 19 21 23 31
  -3025183.07407  21213607.39107  -2342249.10948  21213606.26248      3717.91100
  -2232517.33607  20808240.46907  -1731649.52548  20808239.18448      2669.74000
  -2812566.34006  23156853.90606  -2167326.09746  23156851.31346      3441.23200
   -294707.39107  20588927.07007   -231916.07748  20588923.96948       276.14600
  -1649750.18405  23981118.54705  -1280998.00047  23981116.52747      4670.35500
  -1737264.68805  24244805.28105  -1346390.95146  24244800.19146      2086.85600
  -1676536.18807  21598218.84407  -1299628.30948  21598214.81648      1900.66300
    646704.50807  21790201.54707    496295.99348  21790198.91048      -961.51800
 08 11 10  0 11  0.0000000  0  8  3  6 13 16 19 21 23 31
  -3080848.20307  21203014.36707  -2385624.54548  21203013.50448      3711.00900
  -2272443.03907  20800642.82007  -1762760.46148  20800641.69548      2661.71400
  -2864071.36706  23147052.90606  -2207459.88947  23147050.50447      3433.66800
   -298787.75007  20588150.53907   -235095.58648  20588147.78148       272.02400
  -1719772.37105  23967793.86705  -1335560.73947  23967790.86747      4668.14600
  -1768476.45305  24238865.50005  -1370711.75346  24238862.48046      2080.78400
  -1704892.73007  21592822.88307  -1321724.31548  21592819.00048      1890.43600
    661208.92607  21792961.08607    507598.14248  21792959.05148      -966.96100
 08 11 10  0 11 15.0000000  0  8  3  6 13 16 19 21 23 31
  -3136410.34407  21192441.39807  -2428919.71448  21192440.41048      3704.14300
  -2312249.00407  20793068.21907  -1793778.08348  20793066.91048      2653.73100
  -2915463.21506  23137273.01606  -2247505.47746  23137271.05146      3426.12300
   -302807.13307  20587385.70307   -238227.56848  20587383.23848       267.95900
  -1789761.89805  23954475.08605  -1390097.98447  23954472.97747      4665.96800
  -1799597.48005  24232943.41405  -1394961.94646  24232940.90646      2074.73500
  -1733096.38307  21587455.79707  -1343701.18748  21587451.49248      1880.24300
    675794.20307  21795736.46907    518963.28648  21795734.93448      -972.35200
 08 11 10  0 11 30.0000000  0  8  3  6 13 16 19 21 23 31
  -3191868.23407  21181888.22707  -2472133.65548  21181886.18448      3697.19300
  -2351934.20707  20785515.93807  -1824701.61948  20785515.01648      2645.68000
  -2966740.96106  23127515.43806  -2287462.19146  23127512.89146      3418.51600
   -306764.92207  20586632.75807   -241311.56648  20586629.89148       263.85300
  -1859717.82805  23941163.17205  -1444609.11747  23941159.91447      4663.72900
  -1830626.66805  24227038.63305  -1419140.50446  24227036.38346      2068.61300
  -1761146.30907  21582118.30507  -1365558.28348  21582113.57448      1869.99500
    690461.11707  21798527.89107    530392.02248  21798525.61348      -977.79400
 08 11 10  0 11 45.0000000  0  8  3  6 13 16 19 21 23 31
  -3247222.85907  21171354.19507  -2515267.14048  21171352.74248      3690.30800
  -2391499.50807  20777987.14807  -1855531.71348  20777986.28948      2637.68700
  -3017905.48006  23117779.09406  -2327330.64446  23117776.51646      3410.96800
   -310662.21907  20585890.89807   -244348.41648  20585888.43848       259.82000
  -1929640.79305  23927856.84405  -1499094.50547  23927854.75047      4661.53100
  -1861565.05905  24221151.34405  -1443248.29546  24221149.62146      2062.55900
  -1789043.29307  21576809.42207  -1387296.19248  21576804.82848      1859.79900
    705208.61707  21801334.39107    541883.58648  21801331.84848      -983.16700
 08 11 10  0 12  0.0000000  0  8  3  6 13 16 19 21 23 31
  -3302473.50007  21160840.44507  -2558319.56848  21160838.78148      3683.37600
  -2430944.60907  20770480.92207  -1886268.15848  20770479.77348      2629.67300
  -3068956.07806  23108064.47706  -2367110.31347  23108062.17247      3403.37300
   -314498.94107  20585160.94507   -247338.08048  20585158.30548       255.78200
  -1999530.29705  23914557.00805  -1553553.84047  23914555.09047      4659.30000
  -1892411.94105  24215281.26605  -1467284.86446  24215278.89546      2056.45900
  -1816787.05507  21571529.86707  -1408914.73048  21571525.30548      1849.58400
    720037.10907  21804156.11707    553438.23348  21804153.91848      -988.56600
 08 11 10  0 12 15.0000000  0  8  3  6 13 16 19 21 23 31
  -3357619.35207  21150346.19507  -2601290.35748  21150345.05548      3676.39000
  -2470268.69107  20762997.60207  -1916910.27648  20762996.27048      2621.60500
  -3119891.95706  23098371.74206  -2406800.60446  23098369.74646      3395.72500
   -318274.62507  20584442.41407   -250280.16048  20584439.70748       251.71200
  -2069385.33205  23901264.29705  -1607986.29747  23901261.97347      4657.00200
  -1923166.55905  24209428.20305  -1491249.42146  24209426.34046      2050.30800
  -1844376.91007  21566279.82807  -1430413.31448  21566275.63348      1839.32400
    734946.95707  21806993.68007    565056.28648  21806991.23448      -993.99000
 08 11 10  0 12 30.0000000  0  8  3  6 13 16 19 21 23 31
  -3412660.29307  21139872.95307  -2644179.41748  21139871.32048      3669.39600
  -2509472.02307  20755537.68807  -1947458.33148  20755536.39848      2613.55500
  -3170712.78906  23088700.77306  -2446401.25847  23088699.08647      3388.05500
   -321989.60507  20583735.68007   -253174.96348  20583732.53548       247.66500
  -2139205.96104  23887978.03104  -1662391.97347  23887975.66447      4654.70900
  -1953828.58204  24203593.44504  -1515142.01846  24203591.07046      2044.13500
  -1871813.01607  21561058.46907  -1451792.10248  21561054.89848      1829.07400
    749938.01207  21809846.49207    576737.60148  21809843.77748      -999.40400
 08 11 10  0 12 45.0000000  0  8  3  6 13 16 19 21 23 31
  -3467596.26207  21129418.39807  -2686986.64648  21129417.14148      3662.39800
  -2548554.13307  20748100.58607  -1977911.90248  20748099.34848      2605.47400
  -3221417.46506  23079051.62506  -2485911.38146  23079050.25846      3380.31200
   -325643.75407  20583040.29707   -256022.34548  20583037.32448       243.61000
  -2208991.73005  23874698.35905  -1716770.49147  23874695.30147      4652.38500
  -1984398.09804  24197775.76604  -1538962.31746  24197773.84046      2037.96800
  -1899094.81607  21555867.20307  -1473050.65048  21555863.57048      1818.78700
    765010.34007  21812714.13307    588482.29148  21812711.66048     -1004.82200
 08 11 10  0 13  0.0000000  0  8  3  6 13 16 19 21 23 31
  -3522428.07007  21118984.39107  -2729712.73948  21118983.10948      3655.45400
  -2587515.95707  20740686.37507  -2008271.78848  20740685.07448      2597.45500
  -3272007.89506  23069425.13306  -2525332.51747  23069423.45347      3372.69500
   -329238.33607  20582355.96907   -258823.32848  20582353.52348       239.63900
  -2278743.18005  23861424.79705  -1771122.25547  23861421.91047      4650.09700
  -2014875.75804  24191976.73404  -1562711.13746  24191972.56646      2031.84400
  -1926223.33207  21550704.83607  -1494189.77148  21550700.93448      1808.56800
    780162.93807  21815597.64807    600289.50048  21815594.58648     -1010.17300
 08 11 10  0 13 15.0000000  0  8  3  6 13 16 19 21 23 31
  -3577154.35207  21108570.21907  -2772356.58148  21108569.16048      3648.41900
  -2626356.53107  20733295.44507  -2038537.15548  20733293.99248      2589.37200
  -3322482.52006  23059819.89106  -2564663.37247  23059818.64847      3364.97500
   -332772.47707  20581683.30507   -261577.19248  20581681.00048       235.60900
  -2348459.28905  23848158.54705  -1825446.43547  23848155.28147      4647.74100
  -2045260.34404  24186194.83604  -1586387.45546  24186190.38346      2025.63900
  -1953197.65607  21545572.20307  -1515208.73148  21545567.71148      1798.28800
    795396.69507  21818495.99207    612159.96348  21818493.75848     -1015.58400
 08 11 10  0 13 30.0000000  0  8  3  6 13 16 19 21 23 31
  -3631773.92607  21098176.63307  -2814917.28848  21098174.99248      3641.30500
  -2665074.88307  20725927.69507  -2068707.30248  20725926.00848      2581.22300
  -3372840.23806  23050237.61706  -2603903.16147  23050235.46147      3357.18100
   -336245.50807  20581022.71107   -264283.45948  20581019.78148       231.53500
  -2418139.05505  23834898.67205  -1879742.37147  23834895.69947      4645.31800
  -2075550.85204  24180430.84404  -1609990.41446  24180426.58246      2019.36700
  -1980016.91407  21540468.63307  -1536106.86548  21540464.53148      1787.95100
    810712.45707  21821410.86707    624094.29248  21821408.40648     -1021.05100
 08 11 10  0 13 45.0000000  0  8  3  6 13 16 19 21 23 31
  -3686287.43007  21087803.21107  -2857395.32848  21087801.78948      3634.23400
  -2703671.51607  20718582.95307  -2098782.60148  20718581.20748      2573.10900
  -3423081.19106  23040676.66406  -2643051.94947  23040674.69547      3349.39700
   -339658.30907  20580373.30507   -266942.78648  20580370.43048       227.52000
  -2487782.67205  23821646.23405  -1934010.09047  23821642.84447      4642.90800
  -2105747.70705  24174684.56305  -1633520.42846  24174682.53946      2013.12400
  -2006681.73007  21535394.59407  -1556884.65048  21535390.59448      1777.65400
    826109.39107  21824340.71107    636091.89348  21824338.52748     -1026.46200
 08 11 10  0 14  0.0000000  0  8  3  6 13 16 19 21 23 31
  -3740696.06307  21077449.31307  -2899791.67248  21077448.20348      3627.24200
  -2742147.93007  20711261.02307  -2128764.22248  20711259.60248      2565.09400
  -3473206.81306  23031137.99206  -2682110.89047  23031136.19147      3341.70800
   -343012.45307  20579735.09407   -269556.41348  20579732.04748       223.61000
  -2557391.42605  23808399.93005  -1988250.67647  23808397.14547      4640.58400
  -2135852.25405  24168955.98405  -1656978.50846  24168954.68446      2006.97000
  -2033193.25807  21530349.52307  -1577542.99948  21530346.19148      1767.43500
    841585.93807  21827285.96907    648151.51648  21827283.06648     -1031.77000
 08 11 10  0 14 15.0000000  0  8  3  6 13 16 19 21 23 31
  -3794998.68407  21067116.03907  -2942105.39248  21067115.23048      3620.17500
  -2780503.22707  20703962.30507  -2158651.45048  20703960.83248      2557.02000
  -3523215.64106  23021622.09406  -2721078.80047  23021620.02747      3333.92200
   -346307.27307  20579108.03907   -272123.80148  20579105.12548       219.65500
  -2626964.36705  23795160.87505  -2042463.35447  23795157.50447      4638.19600
  -2165863.29705  24163245.17205  -1680363.76046  24163244.11746      2000.73600
  -2059550.56607  21525334.00007  -1598081.15848  21525330.66048      1757.15400
    857142.96907  21830246.77307    660273.86748  21830243.38348     -1037.13500
 08 11 10  0 14 30.0000000  0  8  3  6 13 16 19 21 23 31
  -3849196.47307  21056802.21907  -2984337.42548  21056801.54348      3613.18600
  -2818738.31307  20696686.15607  -2188445.01748  20696685.02048      2549.00600
  -3573108.88306  23012127.29706  -2759956.65047  23012125.30147      3326.21600
   -349544.12107  20578492.16407   -274646.02348  20578489.41448       215.79000
  -2696502.12105  23781928.05505  -2096648.56247  23781925.66047      4635.85000
  -2195781.75404  24157551.91404  -1703676.79346  24157550.45746      1994.56400
  -2085754.81307  21520347.46107  -1618500.05548  21520343.88748      1746.95000
    872779.30907  21833222.54707    672458.02148  21833219.92248     -1042.42300
 08 11 10  0 14 45.0000000  0  8  3  6 13 16 19 21 23 31
  -3903289.07807  21046508.63307  -3026487.49548  21046507.81648      3606.17400
  -2856853.13307  20689433.15607  -2218144.87248  20689432.05548      2540.98800
  -3622886.12906  23002655.26606  -2798744.09847  23002653.17247      3318.48300
   -352722.92207  20577887.10907   -277123.01548  20577884.53548       211.92000
  -2766004.32405  23768702.28905  -2150806.12247  23768699.45747      4633.48000
  -2225607.26203  24151875.39803  -1726917.43846  24151874.74646      1988.36700
  -2111805.86707  21515390.01607  -1638799.58148  21515386.53548      1736.73700
    888494.76207  21836212.60907    684703.82348  21836210.88748     -1047.69700
 08 11 10  0 15  0.0000000  0  8  3  6 13 16 19 21 23 31
  -3957274.92607  21036236.11707  -3068554.38748  21036234.55948      3599.05700
  -2894846.30107  20682203.38307  -2247749.94548  20682202.10248      2532.87800
  -3672545.68807  22993205.82807  -2837439.87647  22993203.81647      3310.63700
   -355842.66807  20577293.81307   -279553.99249  20577290.94549       207.98300
  -2835469.46905  23755483.11705  -2204934.77147  23755480.88747      4631.01000
  -2255338.68003  24146218.18003  -1750084.78145  24146216.95745      1982.09500
  -2137702.31607  21510461.88307  -1658978.64748  21510458.36748      1726.43000
    904290.84007  21839218.57007    697012.42148  21839216.62148     -1053.07200
 08 11 10  0 15 15.0000000  0  8  3  6 13 16 19 21 23 31
  -4011154.25007  21025982.84407  -3110538.27048  21025982.01248      3591.95500
  -2932717.65207  20674996.63307  -2277260.07648  20674995.62948      2524.75700
  -3722087.55106  22983777.85906  -2876043.88947  22983776.43847      3302.79100
   -358903.67607  20576711.15607   -281939.19648  20576708.43848       204.06700
  -2904897.53905  23742271.36705  -2259034.54347  23742269.31347      4628.53800
  -2284976.02304  24140578.66404  -1773178.77345  24140577.00445      1975.82300
  -2163444.32807  21505563.57807  -1679037.36448  21505559.57448      1716.13400
    920167.25007  21842240.15607    709383.64648  21842237.35548     -1058.42700
 08 11 10  0 15 30.0000000  0  8  3  6 13 16 19 21 23 31
  -4064926.51207  21015750.28107  -3152438.73148  21015749.10548      3584.81700
  -2970467.47707  20667813.20307  -2306675.51448  20667811.77048      2516.65500
  -3771511.41806  22974372.74206  -2914556.01147  22974371.77747      3294.92400
   -361906.17207  20576139.73407   -284278.82349  20576137.02049       200.16600
  -2974288.39506  23729066.56306  -2313105.33047  23729064.45347      4626.05700
  -2314518.94502  24134955.68002  -1796199.24645  24134954.75445      1969.52800
  -2189031.88307  21500694.56307  -1698975.71648  21500690.52048      1705.83700
    936123.87907  21845276.43807    721817.37648  21845273.53548     -1063.77500
 08 11 10  0 15 45.0000000  0  8  3  6 13 16 19 21 23 31
  -4118591.37107  21005538.17207  -3194255.49648  21005536.99248      3577.65700
  -3008095.22707  20660652.66407  -2335995.84348  20660651.54748      2508.51700
  -3820816.65606  22964990.45306  -2952975.66347  22964988.98047      3287.01600
   -364849.88707  20575579.37507   -286572.61848  20575576.71148       196.24800
  -3043641.28504  23715868.72704  -2367146.49747  23715866.88747      4623.52600
  -2343966.78903  24129352.97703  -1819145.60245  24129351.15245      1963.19000
  -2214464.46507  21495854.77307  -1718793.32248  21495850.70748      1695.50500
    952160.99607  21848328.23407    734313.83348  21848325.13748     -1069.14100
 08 11 10  0 16  0.0000000  0  9  3  6 13 16 19 21 23 25 31
  -4172149.04707  20995346.53107  -3235988.73848  20995345.32448      3570.51200
  -3045601.22307  20653515.72707  -2365221.29749  20653514.53549      2500.40000
  -3870003.48806  22955630.52306  -2991303.07147  22955628.64547      3279.12200
   -367735.50807  20575030.56307   -288821.15448  20575027.68048       192.37500
  -3112956.28905  23702678.34405  -2421158.18947  23702676.60247      4621.00000
  -2373319.85203  24123766.73403  -1842018.04845  24123765.27045      1956.87100
  -2239742.46107  21491044.42207  -1738490.47448  21491040.10548      1685.20000
   -145338.69915  24564646.69505   -110109.45256  24564644.89146      3970.96900
    968278.09007  21851394.83607    746872.60448  21851392.22748     -1074.47300
 08 11 10  0 16 15.0000000  0  9  3  6 13 16 19 21 23 25 31
  -4225599.46507  20985175.36707  -3277638.40548  20985174.32448      3563.36100
  -3082985.43807  20646401.62507  -2394351.84048  20646400.50048      2492.28100
  -3919071.68806  22946293.05506  -3029537.99647  22946292.02347      3271.21300
   -370563.14107  20574492.37507   -291024.49848  20574489.44948       188.50900
  -3182233.31305  23689495.98405  -2475140.26347  23689494.25047      4618.46800
  -2402578.19102  24118198.22702  -1864816.72745  24118197.09445      1950.55600
  -2264866.00807  21486263.62507  -1758067.26548  21486258.84048      1674.90300
   -204902.62105  24553312.02305   -156522.87446  24553310.01646      3970.92800
    984475.06307  21854477.04707    759493.61048  21854474.44948     -1079.79800
 08 11 10  0 16 30.0000000  0  9  3  6 13 16 19 21 23 25 31
  -4278944.97307  20975024.21107  -3319206.33148  20975023.19148      3556.36700
  -3120250.54307  20639310.49207  -2423389.57648  20639309.21948      2484.34000
  -3968023.64506  22936977.87506  -3067682.38947  22936976.47747      3263.46400
   -373335.80907  20573964.66407   -293185.03348  20573962.01648       184.84500
  -3251474.93405  23676319.76605  -2529094.74847  23676317.52747      4616.10800
  -2431744.08603  24112649.96903  -1887543.44845  24112647.24245      1944.39300
  -2289837.66407  21481511.55507  -1777525.71048  21481506.96148      1664.77700
   -264469.46905  24541977.52305   -202938.59146  24541975.07046      3971.12300
   1000749.14107  21857574.00007    772174.69948  21857571.81348     -1084.93900
 08 11 10  0 16 45.0000000  0  9  3  6 13 16 19 21 23 25 31
  -4332184.96907  20964892.81307  -3360692.03748  20964891.70348      3549.33300
  -3157396.15207  20632241.96107  -2452334.20448  20632240.78148      2476.37400
  -4016858.81307  22927684.82007  -3105735.76447  22927683.32847      3255.67800
   -376053.01607  20573447.98407   -295302.34248  20573444.86748       181.14700
  -3320680.32005  23663150.78105  -2583021.04147  23663148.64847      4613.69200
  -2460816.95704  24107117.75804  -1910197.62345  24107114.41845      1938.19100
  -2314656.82407  21476788.71107  -1796865.32048  21476784.02348      1654.61100
   -324038.64805  24530641.35905   -249356.13146  24530639.30946      3971.27900
   1017100.55507  21860685.20307    784916.03848  21860683.80148     -1090.09400
 08 11 10  0 17  0.0000000  0  9  3  6 13 16 19 21 23 25 31
  -4385320.02307  20954781.47707  -3402095.97748  20954780.53948      3542.33700
  -3194422.81307  20625196.01607  -2481186.13549  20625194.90649      2468.44400
  -4065577.57806  22918413.84406  -3143698.44147  22918412.48447      3247.91800
   -378715.69907  20572940.96907   -297377.15248  20572938.38348       177.51200
  -3389849.87505  23649988.20305  -2636919.33347  23649985.65647      4611.30400
  -2489797.43004  24101603.36704  -1932779.86245  24101599.34445      1932.03200
  -2339324.31307  21472094.70307  -1816086.74748  21472089.91848      1644.49900
   -383610.66405  24519304.64805   -295775.84946  24519303.26646      3971.46800
   1033528.46507  21863811.46907    797716.97848  21863810.09448     -1095.19400
 08 11 10  0 17 15.0000000  0  9  3  6 13 16 19 21 23 25 31
  -4438348.28907  20944690.55507  -3443416.69348  20944689.19548      3535.21800
  -3231328.73807  20618172.77307  -2509943.99348  20618171.52048      2460.39500
  -4114177.94906  22909165.50806  -3181568.84047  22909163.80947      3240.02500
   -381322.45307  20572444.73407   -299408.39048  20572441.98048       173.78400
  -3458981.76205  23636832.44505  -2690788.31347  23636830.01647      4608.79200
  -2518683.66804  24096105.63304  -1955288.59045  24096101.59045      1925.74900
  -2363838.43807  21467429.57807  -1835188.67248  21467424.92248      1634.27500
   -443183.87905  24507968.39805   -342196.49846  24507966.97346      3971.54800
   1050034.68807  21866952.71107    810578.96748  21866950.56348     -1100.41500
 08 11 10  0 17 30.0000000  0  9  3  6 13 16 19 21 23 25 31
  -4491268.44107  20934620.11707  -3484653.18048  20934618.95348      3528.01000
  -3268112.79307  20611173.06307  -2538606.90749  20611172.02349      2452.27000
  -4162658.62106  22899939.79706  -3219345.98147  22899938.37547      3232.04500
   -383872.25407  20571959.85207   -301395.24848  20571956.77748       169.98700
  -3528074.57005  23623684.56305  -2744626.85347  23623682.28547      4606.18700
  -2547474.13304  24090626.84404  -1977722.72745  24090622.84845      1919.36400
  -2388197.89807  21462794.43807  -1854170.08748  21462789.87548      1623.96400
   -502756.90205  24496632.52305   -388617.01846  24496630.51646      3971.53500
   1066620.30907  21870109.04707    823502.81248  21870106.08648     -1105.70800
 08 11 10  0 17 45.0000000  0  9  3  6 13 16 19 21 23 25 31
  -4544080.09007  20924570.46107  -3525805.10148  20924569.19548      3520.77700
  -3304774.54707  20604196.76607  -2567174.49348  20604195.24248      2444.11700
  -4211019.04706  22890737.39106  -3257029.42947  22890735.08247      3224.02800
   -386364.78107  20571485.32007   -303337.47948  20571482.51648       166.16800
  -3597127.94105  23610544.53105  -2798434.67647  23610541.39847      4603.55800
  -2576168.45704  24085165.90604  -2000081.96545  24085162.37145      1912.95500
  -2412402.43007  21458188.18807  -1873030.76948  21458184.18448      1613.63500
   -562329.40605  24485295.73405   -435037.16746  24485294.57046      3971.50000
   1083285.40607  21873280.52307    836488.59948  21873277.65248     -1111.00700
 08 11 10  0 18  0.0000000  0  9  3  6 13 16 19 21 23 25 31
  -4596784.94907  20914541.38307  -3566873.82248  20914539.53548      3513.65700
  -3341315.69907  20597242.99207  -2595648.11349  20597241.79349      2436.07700
  -4259260.66006  22881556.94506  -3294620.30947  22881555.16447      3216.10800
   -388802.27007  20571021.53907   -305236.81949  20571018.76649       162.49900
  -3666143.19106  23597410.86706  -2852212.80247  23597408.30547      4601.01700
  -2604768.35503  24079724.26603  -2022367.58645  24079720.02345      1906.66000
  -2436453.73007  21453611.44507  -1891772.04548  21453607.48448      1603.42000
   -621902.96505  24473958.95305   -481458.10346  24473957.52746      3971.57100
   1100028.24207  21876466.28907    849534.96548  21876463.97348     -1116.18900
 08 11 10  0 18 15.0000000  0  9  3  6 13 16 19 21 23 25 31
  -4649380.91807  20904532.36707  -3607857.68048  20904531.13348      3506.39800
  -3377734.78907  20590312.89807  -2624026.61948  20590311.71148      2427.93900
  -4307381.69506  22872400.35206  -3332117.23147  22872398.19547      3208.06900
   -391183.28507  20570568.39807   -307092.15248  20570565.72748       158.73400
  -3735118.54305  23584285.05505  -2905959.79347  23584282.51647      4598.35700
  -2633272.10504  24074300.76604  -2044578.31345  24074295.12545      1900.25000
  -2460350.21907  21449064.53907  -1910392.69648  21449060.05948      1593.09900
   -681475.94105  24462622.71105   -527878.57046  24462621.27346      3971.53200
   1116850.25007  21879667.29707    862643.00848  21879665.27348     -1121.46700
 08 11 10  0 18 30.0000000  0  9  3  6 13 16 19 21 23 25 31
  -4701866.94107  20894544.97707  -3648755.89048  20894542.98048      3499.06800
  -3414030.62107  20583406.05507  -2652309.09449  20583404.60249      2419.72200
  -4355381.04306  22863265.78106  -3369519.31947  22863264.23047      3199.95700
   -393506.82807  20570126.06307   -308902.71249  20570123.80549       154.90300
  -3804052.63706  23571167.85906  -2959674.63347  23571164.54347      4595.60600
  -2661678.32404  24068894.55504  -2066712.98746  24068890.81346      1893.74800
  -2484090.75007  21444546.60907  -1928891.81748  21444542.75448      1582.70200
   -741046.98005  24451286.01605   -574297.54846  24451285.72346      3971.40300
   1133752.41807  21882883.29707    875813.50548  21882881.41048     -1126.81100
 08 11 10  0 18 45.0000000  0  9  3  6 13 16 19 21 23 25 31
  -4754243.69907  20884577.56307  -3689568.94248  20884576.27748      3491.78400
  -3450203.95707  20576522.43807  -2680496.10748  20576521.09048      2411.55600
  -4403259.00806  22854155.12506  -3406826.80547  22854153.06347      3191.86400
   -395773.98007  20569695.07007   -310669.32549  20569692.40249       151.14300
  -3872946.07405  23558058.03105  -3013357.83647  23558054.80947      4592.89600
  -2689987.82804  24063507.84404  -2088772.32846  24063504.73446      1887.30000
  -2507676.18007  21440058.44507  -1947270.07948  21440054.12148      1572.36200
   -800616.94505  24439950.75005   -620715.69946  24439950.24646      3971.33100
   1150733.73407  21886115.03907    889045.68348  21886112.36748     -1132.08800
 08 11 10  0 19  0.0000000  0  9  3  6 13 16 19 21 23 25 31
  -4806510.49207  20874631.53107  -3730296.30548  20874629.77348      3484.45300
  -3486254.41407  20569662.14807  -2708587.36949  20569660.77749      2403.36400
  -4451015.02706  22845067.53106  -3444039.28847  22845065.82847      3183.73500
   -397984.47707  20569274.10907   -312391.79649  20569271.40249       147.36600
  -3941798.35906  23544955.14106  -3067008.94347  23544952.18447      4590.15200
  -2718200.04305  24058139.32805  -2110755.86746  24058136.20746      1880.81400
  -2531106.05907  21435600.21907  -1965527.13748  21435595.82448      1561.99200
   -860185.31605  24428615.90605   -667132.57146  24428614.61746      3971.22500
   1167794.48807  21889361.57807    902339.75348  21889358.53948     -1137.38400
 08 11 10  0 19 15.0000000  0  9  3  6 13 16 19 21 23 25 31
  -4858667.47307  20864706.45307  -3770938.10648  20864704.57448      3477.13200
  -3522181.92607  20562825.25007  -2736582.82148  20562824.28948      2395.16700
  -4498648.96506  22836002.94506  -3481156.63147  22836001.48847      3175.59600
   -400138.63707  20568864.44507   -314070.35748  20568861.59048       143.61100
  -4010609.28905  23531861.17205  -3120627.82747  23531858.03547      4587.39500
  -2746314.99605  24052788.39805  -2132663.61146  24052786.52746      1874.33000
  -2554380.62107  21431170.82007  -1983663.15648  21431167.15248      1551.63800
   -919752.14805  24417279.63305   -713548.25046  24417279.52346      3971.12200
   1184934.57407  21892623.67207    915695.66148  21892621.12148     -1142.67200
 08 11 10  0 19 30.0000000  0  9  3  6 13 16 19 21 23 25 31
  -4910714.78507  20854801.93807  -3811494.46448  20854800.84048      3469.82100
  -3557987.02007  20556012.08607  -2764482.89649  20556010.52349      2387.00600
  -4546161.07406  22826961.74206  -3518179.04547  22826960.10247      3167.47400
   -402236.97707  20568464.93807   -315705.42649  20568462.48449       139.88900
  -4079379.07406  23518775.21906  -3174214.67147  23518772.12147      4584.65200
  -2774332.68405  24047457.01605  -2154495.47946  24047455.40246      1867.84600
  -2577500.25807  21426771.46907  -2001678.47048  21426767.94948      1541.30900
   -979317.59805  24405945.07005   -759962.87747  24405944.92247      3971.03000
   1202153.46507  21895900.27307    929112.97148  21895897.65648     -1147.92600
 08 11 10  0 19 45.0000000  0  9  3  6 13 16 19 21 23 25 31
  -4962650.25807  20844919.07007  -3851963.68048  20844918.05548      3462.36500
  -3593667.55907  20549222.04707  -2792285.90248  20549220.91448      2378.70300
  -4593549.11306  22817944.19506  -3555104.77347  22817942.44947      3159.20300
   -404277.79707  20568076.46907   -317295.68348  20568073.93848       136.05500
  -4148105.42606  23505696.85206  -3227767.65947  23505694.12947      4581.75700
  -2802251.05105  24042144.21905  -2176250.09246  24042143.02046      1861.22400
  -2600462.73407  21422401.70307  -2019571.30448  21422397.64148      1530.83200
  -1038879.60205  24394611.11705   -806374.79046  24394610.09846      3970.80000
   1219453.02707  21899191.89807    942593.14548  21899189.28948     -1153.30400
 08 11 10  0 20  0.0000000  0  9  3  6 13 16 19 21 23 25 31
  -5014475.13307  20835057.13307  -3892346.70748  20835056.01648      3454.99200
  -3629224.74208  20542455.89108  -2819992.79648  20542454.46948      2370.47900
  -4640813.96506  22808949.65606  -3591934.53347  22808947.64147      3150.99000
   -406262.36707  20567699.07007   -318842.10649  20567696.48449       132.30500
  -4216789.15205  23492626.50805  -3281287.44447  23492624.00047      4578.91500
  -2830071.18005  24036850.41405  -2197928.06946  24036849.48046      1854.67500
  -2623269.24207  21418062.14107  -2037342.60948  21418057.95748      1520.43400
  -1098439.29705  24383277.18805   -852784.93246  24383275.84446      3970.64600
   1236832.02307  21902499.00807    956135.20948  21902496.37948     -1158.60000
 08 11 10  0 20 15.0000000  0  9  3  6 13 16 19 21 23 25 31
  -5066191.20707  20825215.70307  -3932644.94248  20825214.93448      3447.73800
  -3664660.60507  20535712.44507  -2847605.14548  20535710.93448      2362.39100
  -4687957.57406  22799978.54706  -3628669.82947  22799976.39847      3142.90700
   -408192.89107  20567331.73407   -320346.40748  20567329.04748       128.70200
  -4285432.32805  23479563.58605  -3334775.61347  23479561.70347      4576.21200
  -2857794.99605  24031574.54705  -2219531.12546  24031573.25046      1848.25400
  -2645922.09407  21413751.34407  -2054994.19548  21413747.03548      1510.19000
  -1157998.57005  24371943.05505   -899194.71747  24371942.50047      3970.61800
   1254288.21507  21905821.28107    969737.42548  21905819.05548     -1163.74600
 08 11 10  0 20 30.0000000  0  9  3  6 13 16 19 21 23 25 31
  -5117797.45307  20815395.78107  -3972857.62248  20815394.73448      3440.41600
  -3699974.42607  20528992.57807  -2875122.40949  20528991.46549      2354.25500
  -4734979.18806  22791031.06306  -3665310.03947  22791028.86347      3134.77400
   -410068.91807  20566974.55507   -321808.24549  20566972.02749       125.06800
  -4354033.89506  23466509.33606  -3388231.37447  23466506.80947      4573.43800
  -2885421.64505  24026317.34405  -2241058.35146  24026315.37946      1841.77700
  -2668420.37907  21409470.03107  -2072525.32448  21409465.65248      1499.88600
  -1217556.59005  24360609.46905   -945603.57247  24360608.78947      3970.53500
   1271822.23807  21909157.55507    983400.27848  21909155.53948     -1168.93500
 08 11 10  0 20 45.0000000  0  9  3  6 13 16 19 21 23 25 31
  -5169291.33207  20805597.14807  -4012982.70748  20805595.91848      3432.92500
  -3735163.66007  20522296.23407  -2902542.58348  20522295.04748      2345.94900
  -4781875.81306  22782106.77306  -3701852.86747  22782104.53147      3126.44200
   -411888.11307  20566628.80507   -323225.80148  20566625.74648       121.28000
  -4422591.27306  23453463.65606  -3441652.69447  23453460.85547      4570.49200
  -2912948.51605  24021079.93805  -2262507.84246  24021076.32446      1835.12500
  -2690761.77307  21405218.60907  -2089934.19548  21405214.46148      1489.42600
  -1277110.81305  24349277.18805   -992009.42246  24349276.24246      3970.28200
   1289436.39807  21912509.69507    997125.58848  21912507.82448     -1174.27700
 08 11 10  0 21  0.0000000  0  9  3  6 13 16 19 21 23 25 31
  -5220674.34807  20795818.76607  -4053021.42348  20795818.15248      3425.53400
  -3770230.00407  20515623.64807  -2929867.01048  20515621.90648      2337.75600
  -4828648.76206  22773205.95306  -3738299.31247  22773203.80147      3118.19700
   -413652.42207  20566292.62507   -324600.59348  20566289.86748       117.62100
  -4491105.86706  23440426.09406  -3495040.69647  23440423.38347      4567.64000
  -2940377.18805  24015859.21105  -2283880.87146  24015856.17246      1828.57800
  -2712947.80507  21400996.77307  -2107222.02748  21400992.68448      1479.06900
  -1336662.76205  24337945.14105  -1038413.53847  24337943.98047      3970.13000
   1307128.99207  21915876.49207   1010912.00348  21915874.73448     -1179.50600
 08 11 10  0 21 15.0000000  0  9  3  6 13 16 19 21 23 25 31
  -5271948.01607  20786062.10207  -4092974.92648  20786060.82848      3418.24500
  -3805174.85907  20508973.71107  -2957096.77148  20508972.17648      2329.65700
  -4875299.49606  22764328.76606  -3774650.52847  22764327.13747      3110.04900
   -415363.45707  20565967.22707   -325933.86448  20565964.10248       114.06900
  -4559578.89506  23427395.90606  -3548396.28647  23427393.48047      4564.86800
  -2967708.84405  24010658.64105  -2305178.28546  24010656.02746      1822.11000
  -2734980.01207  21396803.87507  -2124389.96948  21396800.42248      1468.81400
  -1396213.87105  24326612.12505  -1084816.99546  24326611.48446      3970.07400
   1324898.27707  21919257.57807   1024758.20048  21919255.75848     -1184.61900
 08 11 10  0 21 30.0000000  0  9  3  6 13 16 19 21 23 25 31
  -5323110.10907  20776325.85907  -4132841.48548  20776324.84848      3410.80600
  -3839996.13707  20502347.50807  -2984230.22348  20502346.05148      2321.41800
  -4921825.80906  22755475.89106  -3810904.79647  22755473.32847      3101.75400
   -417019.41407  20565651.98407   -327224.21748  20565649.03148       110.39700
  -4628007.88306  23414374.34406  -3601717.56947  23414371.61747      4561.93300
  -2994941.29705  24005476.58605  -2326398.38746  24005473.08646      1815.49700
  -2756856.31307  21392640.64107  -2141436.46048  21392637.10248      1458.42000
  -1455761.85906  24315282.00006  -1131218.00847  24315279.96147      3969.86600
   1342746.43007  21922654.33607   1038665.82348  21922652.04748     -1189.87700
 08 11 10  0 21 45.0000000  0  9  3  6 13 16 19 21 23 25 31
  -5374160.62907  20766611.39107  -4172621.10548  20766610.25848      3403.36800
  -3874694.07007  20495744.63307  -3011267.57548  20495742.76248      2313.19600
  -4968227.77706  22746645.32006  -3847062.17747  22746643.12547      3093.46500
   -418620.59807  20565347.44507   -328471.88748  20565344.62148       106.74600
  -4696393.14806  23401360.77306  -3655004.78447  23401358.50847      4559.01800
  -3022074.60205  24000313.38305  -2347541.20246  24000308.92646      1808.88700
  -2778576.95707  21388507.55507  -2158361.64248  21388503.65648      1448.04300
  -1515306.91405  24303949.75005  -1177616.73447  24303948.60247      3969.67000
   1360673.04707  21926065.65607   1052634.61148  21926063.14148     -1195.10800
 08 11 10  0 22  0.0000000  0  9  3  6 13 16 19 21 23 25 31
  -5425099.98007  20756917.96107  -4212314.10448  20756917.13748      3395.95700
  -3909269.36307  20489165.07007  -3038209.35848  20489164.02748      2305.02000
  -5014505.70306  22737838.82006  -3883122.89947  22737836.57847      3085.19500
   -420167.86307  20565052.95307   -329677.56349  20565050.19549       103.15100
  -4764734.94106  23388356.04706  -3708258.14147  23388353.67647      4556.12000
  -3049109.50005  23995168.61705  -2368607.31446  23995164.15246      1802.32700
  -2800142.64107  21384403.95307  -2175166.07548  21384400.00848      1437.71200
  -1574849.66005  24292618.69505  -1224013.64547  24292618.12147      3969.51600
   1378677.43007  21929491.65607   1066663.99048  21929489.20748     -1200.29200
 08 11 10  0 22 15.0000000  0  9  3  6 13 16 19 21 23 25 31
  -5475926.46907  20747245.97707  -4251919.16448  20747244.62148      3388.43300
  -3943720.46507  20482609.23407  -3065054.36548  20482607.67248      2296.74000
  -5060657.88306  22729056.54706  -3919085.62247  22729054.59447      3076.81200
   -421659.92607  20564768.86707   -330840.20548  20564766.38748        99.47100
  -4833031.62506  23375359.20306  -3761476.31547  23375357.55147      4553.11200
  -3076044.19105  23990042.83605  -2389595.43046  23990038.98446      1795.64600
  -2821551.89106  21380329.70306  -2191848.60448  21380326.25448      1427.28300
  -1634388.25005  24281289.60205  -1270407.33746  24281288.00846      3969.23900
   1396760.87907  21932932.57007   1080754.99948  21932930.03948     -1205.56300
 08 11 10  0 22 30.0000000  0  9  3  6 13 16 19 21 23 25 31
  -5526640.89807  20737595.36707  -4291436.90648  20737594.16448      3380.96200
  -3978048.20307  20476076.89107  -3091803.24648  20476075.52748      2288.51600
  -5106684.86306  22720297.48406  -3954950.82147  22720296.04347      3068.46500
   -423097.71507  20564495.28907   -331960.56348  20564492.66048        95.85300
  -4901283.73006  23362371.60906  -3814659.77347  23362369.54747      4550.14000
  -3102879.36705  23984936.87505  -2410505.91446  23984932.93046      1789.01200
  -2842805.46507  21376285.50807  -2208409.84648  21376281.75448      1416.90500
  -1693923.58206  24269959.95306  -1316798.48547  24269958.73047      3969.02200
   1414922.40207  21936388.56307   1094906.81648  21936386.60248     -1210.76800
 08 11 10  0 22 45.0000000  0  9  3  6 13 16 19 21 23 25 31
  -5577243.53507  20727966.32807  -4330867.52748  20727964.57048      3373.50900
  -4012252.76607  20469567.84407  -3118456.15148  20469566.83248      2280.30400
  -5152586.71506  22711562.57806  -3990718.50147  22711561.18447      3060.12300
   -424481.78907  20564232.03907   -333039.05748  20564229.28948        92.27200
  -4969491.35906  23349392.13306  -3867808.56047  23349389.95747      4547.17500
  -3129615.27305  23979848.91405  -2431339.08446  23979846.75446      1782.39400
  -2863903.66807  21372270.56307  -2224850.00048  21372266.77048      1406.54700
  -1753455.72306  24258631.53106  -1363187.18046  24258630.21946      3968.80900
   1433161.64507  21939859.46107   1109119.20448  21939858.01648     -1215.94900
 08 11 10  0 23  0.0000000  0  9  3  6 13 16 19 21 23 25 31
  -5627733.53907  20718358.11707  -4370210.38248  20718356.78948      3366.00000
  -4046333.80507  20463082.60907  -3145012.80848  20463081.37948      2272.06900
  -5198363.00006  22702852.14806  -4026388.32047  22702850.05547      3051.75200
   -425811.86707  20563978.85907   -334075.49648  20563976.12148        88.67200
  -5037653.87106  23336421.51606  -3920922.22147  23336418.80947      4544.16700
  -3156251.18804  23974779.50804  -2452094.31546  23974778.09446      1775.72800
  -2884846.04707  21368285.57007  -2241168.75848  21368281.48048      1396.15900
  -1812984.18805  24247303.14105  -1409572.96446  24247302.66446      3968.56400
   1451478.95307  21943345.66407   1123392.40048  21943343.75448     -1221.15400
 08 11 10  0 23 15.0000000  0  9  3  6 13 16 19 21 23 25 31
  -5678111.51607  20708771.30507  -4409465.93148  20708769.98448      3358.53200
  -4080291.80107  20456620.64807  -3171473.57548  20456619.50848      2263.86600
  -5244014.16006  22694164.30506  -4061960.66147  22694163.44147      3043.41100
   -427088.54307  20563736.18807   -335070.31448  20563733.04348        85.11200
  -5105771.42606  23323458.75806  -3974000.79647  23323456.62547      4541.17000
  -3182787.55904  23969729.99204  -2472772.03946  23969728.28546      1769.09100
  -2905633.32407  21364329.82007  -2257366.62948  21364325.78148      1385.81800
  -1872509.35505  24235975.55505  -1455956.21546  24235975.43846      3968.34500
   1469873.68807  21946845.71907   1137725.96048  21946843.37948     -1226.31600
 08 11 10  0 23 30.0000000  0  9  3  6 13 16 19 21 23 25 31
  -5728377.02007  20699206.14807  -4448633.86548  20699204.91048      3351.03400
  -4114126.15207  20450181.85907  -3197838.00848  20450180.85948      2255.62300
  -5289539.24606  22685501.68806  -4097434.74647  22685500.12947      3035.00600
   -428311.65607  20563503.61707   -336023.38149  20563500.45349        81.54100
  -5173843.37106  23310505.50806  -4027043.87447  23310503.10247      4538.13000
  -3209223.74204  23964699.71104  -2493371.73246  23964698.11346      1762.41200
  -2926264.96907  21360403.41407  -2273443.25248  21360399.65648      1375.44300
  -1932030.62905  24224649.41405  -1502336.39446  24224648.93446      3968.08500
   1488346.08207  21950360.80507   1152120.01848  21950358.65248     -1231.49300
 08 11 10  0 23 45.0000000  0  9  3  6 13 16 19 21 23 25 31
  -5778529.53507  20689662.54707  -4487713.74448  20689661.47348      3343.50100
  -4147836.93407  20443766.96107  -3224106.13648  20443766.06348      2247.38500
  -5334937.84806  22676862.67206  -4132810.25947  22676861.14147      3026.57300
   -429481.37107  20563280.65607   -336934.85348  20563277.77348        77.98100
  -5241869.54306  23297560.09406  -4080051.25347  23297557.81347      4535.07800
  -3235559.60504  23959687.78104  -2513893.17146  23959687.50446      1755.72400
  -2946740.91407  21356506.96107  -2289398.53748  21356502.75448      1365.06300
  -1991547.80106  24213323.92206  -1548713.41347  24213323.14147      3967.81100
   1506896.17207  21953890.70307   1166574.62348  21953888.48848     -1236.67300
 08 11 10  0 24  0.0000000  0  9  3  6 13 16 19 21 23 25 31
  -5828569.11307  20680140.35207  -4526705.61948  20680138.90648      3335.97200
  -4181424.32007  20437375.53907  -3250278.12848  20437373.97748      2239.15900
  -5380210.21106  22668247.62506  -4168087.42547  22668245.74647      3018.15800
   -430598.21507  20563068.19507   -337805.12649  20563065.36349        74.45600
  -5309850.08206  23284624.25806  -4133023.08147  23284621.48847      4532.03600
  -3261795.43005  23954695.67205  -2534336.65846  23954694.55146      1749.05500
  -2967061.55907  21352640.69507  -2305232.80348  21352636.36348      1354.71000
  -2051061.23405  24201998.75005  -1595087.47347  24201997.72747      3967.56200
   1525523.46107  21957435.53107   1181089.37348  21957432.85248     -1241.81900
 08 11 10  0 24 15.0000000  0  9  3  6 13 16 19 21 23 25 31
  -5878495.10207  20670639.48407  -4565608.98348  20670638.69148      3328.39900
  -4214887.71507  20431007.64107  -3276353.50248  20431006.19148      2230.89300
  -5425355.64806  22659656.23406  -4203265.70847  22659654.85547      3009.69600
   -431661.46907  20562865.89107   -338633.64048  20562862.80148        70.88400
  -5377783.86306  23271696.53906  -4185958.49347  23271693.89147      4528.91900
  -3287930.17204  23949722.86704  -2554701.36546  23949721.15246      1742.31600
  -2987226.03907  21348803.42207  -2320945.39748  21348799.27748      1344.29900
  -2110569.87105  24190674.50005  -1641457.87347  24190673.87547      3967.24200
   1544228.70707  21960995.14107   1195664.88048  21960992.13748     -1247.01600
 08 11 10  0 24 30.0000000  0  9  3  6 13 16 19 21 23 25 31
  -5928307.31607  20661160.64107  -4604423.68948  20661159.60948      3320.81400
  -4248226.95707  20424663.51607  -3302332.12948  20424662.09848      2222.61600
  -5470373.44106  22651089.77306  -4238344.49647  22651087.65647      3001.18600
   -432671.29307  20562673.39807   -339420.51649  20562670.78149        67.32200
  -5445670.53906  23258778.35206  -4238857.19347  23258775.40247      4525.77800
  -3313963.62505  23944768.93005  -2574987.16946  23944767.61746      1735.56400
  -3007234.33207  21344995.89107  -2336536.26948  21344991.75848      1333.88600
  -2170073.55906  24179351.33606  -1687824.33447  24179351.21547      3966.91200
   1563011.89807  21964569.71907   1210301.11948  21964566.61748     -1252.21300
 08 11 10  0 24 45.0000000  0  9  3  6 13 16 19 21 23 25 31
  -5978006.03907  20651703.43007  -4643149.95848  20651702.01248      3313.24800
  -4281442.57407  20418342.46107  -3328214.42848  20418341.07048      2214.37400
  -5515264.12906  22642547.68806  -4273324.23847  22642545.86747      2992.71300
   -433628.42207  20562491.66407   -340166.33248  20562488.98448        63.80900
  -5513510.60506  23245868.67206  -4291719.55547  23245865.39147      4522.67100
  -3339896.30505  23939833.46905  -2595194.44446  23939831.64546      1728.84500
  -3027087.08607  21341218.04707  -2352005.96748  21341213.90248      1323.51700
  -2229572.73405  24168029.39105  -1734187.33447  24168028.32447      3966.61200
   1581872.24207  21968158.18007   1224997.47948  21968155.66848     -1257.35600
 08 11 10  0 25  0.0000000  0  9  3  6 13 16 19 21 23 25 31
  -6027591.03507  20642267.40607  -4681787.62148  20642266.19548      3305.66600
  -4314534.37907  20412045.82807  -3354000.24848  20412044.20348      2206.12000
  -5560027.23006  22634029.42206  -4308204.58247  22634027.52347      2984.20700
   -434532.78907  20562319.29707   -340871.03548  20562316.77348        60.29100
  -5581303.55106  23232968.22706  -4344545.22647  23232964.71147      4519.53000
  -3365727.89104  23934917.41404  -2615322.92446  23934915.54346      1722.10600
  -3046784.21507  21337469.85907  -2367354.38748  21337465.21948      1313.14200
  -2289067.02005  24156708.02305  -1780546.51947  24156706.89847      3966.28600
   1600809.80507  21971762.12507   1239754.00248  21971759.71948     -1262.50400
 08 11 10  0 25 15.0000000  0  9  3  6 13 16 19 21 23 25 31
  -6077061.83607  20632853.66407  -4720336.28848  20632852.11748      3298.05300
  -4347501.92207  20405772.14107  -3379689.23848  20405770.96148      2197.83600
  -5604662.21106  22625535.83606  -4342985.07147  22625533.73047      2975.66500
   -435384.18807  20562157.32007   -341534.47148  20562154.70748        56.76000
  -5649048.89106  23220075.88306  -4397333.78347  23220072.95747      4516.35600
  -3391457.86304  23930021.04704  -2635372.26146  23930019.47346      1715.33200
  -3066325.41007  21333751.06307  -2382581.30248  21333747.00048      1302.74600
  -2348556.03906  24145387.51606  -1826901.58447  24145386.22747      3965.93500
   1619824.84407  21975380.84407   1254570.90948  21975378.31348     -1267.66900
 08 11 10  0 25 30.0000000  0  9  3  6 13 16 19 21 23 25 31
  -6126416.94107  20623461.99207  -4758794.82148  20623460.32448      3290.34000
  -4380343.68007  20399522.60907  -3405280.22348  20399521.28148      2189.45100
  -5649167.37106  22617066.43806  -4377664.42547  22617064.43447      2967.01100
   -436181.29707  20562005.92207   -342155.60148  20562002.89848        53.14100
  -5716744.79306  23207194.48406  -4450083.83047  23207190.79747      4513.06000
  -3417084.43405  23925145.72705  -2655341.05846  23925142.60946      1708.43800
  -3085708.84407  21330062.28107  -2397685.28848  21330058.17648      1292.22900
  -2408038.02306  24134068.72706  -1873251.15947  24134067.72347      3965.46600
   1638918.93407  21979014.18807   1269449.38748  21979011.81648     -1272.93900
 08 11 10  0 25 45.0000000  0  9  3  6 13 16 19 21 23 25 31
  -6175657.45307  20614091.45307  -4797164.03348  20614090.14848      3282.70100
  -4413061.07007  20393296.83607  -3430774.29348  20393295.31348      2181.15900
  -5693543.64506  22608622.13306  -4412243.32947  22608619.98847      2958.41800
   -436925.56607  20561864.45307   -342735.54548  20561861.62948        49.61800
  -5784392.15606  23194321.57806  -4502796.06847  23194317.98847      4509.82400
  -3442608.96105  23920288.62505  -2675230.28146  23920285.85246      1701.63500
  -3104936.08607  21326403.54707  -2412667.55448  21326399.43848      1281.81600
  -2467514.19905  24122750.75005  -1919596.20147  24122749.63347      3965.07800
   1658090.50407  21982662.46907   1284388.26548  21982660.07048     -1278.10500
 08 11 10  0 26  0.0000000  0  9  3  6 13 16 19 21 23 25 31
  -6224782.48407  20604743.21907  -4835443.28048  20604742.19148      3275.00200
  -4445653.70707  20387094.54707  -3456171.15048  20387093.29748      2172.84200
  -5737790.80906  22600201.93006  -4446721.63747  22600200.65247      2949.81100
   -437617.00007  20561732.60907   -343274.32348  20561730.05148        46.09600
  -5851990.60906  23181457.68006  -4555470.14747  23181454.55947      4506.56400
  -3468030.92205  23915450.28905  -2695039.56946  23915447.32046      1694.79700
  -3124006.82407  21322774.81307  -2427527.87748  21322770.64148      1271.38300
  -2526984.11706  24111433.78906  -1965936.41547  24111433.00847      3964.66100
   1677339.84807  21986325.58607   1299387.74148  21986323.35248     -1283.29000
 08 11 10  0 26 15.0000000  0  9  3  6 13 16 19 21 23 25 31
  -6273792.80107  20595417.06307  -4873633.14448  20595415.85248      3267.35400
  -4478122.11707  20380915.85207  -3481471.21048  20380914.70748      2164.56100
  -5781909.07406  22591806.67206  -4481099.51547  22591805.69547      2941.21800
   -438256.24207  20561611.05507   -343772.44648  20561608.16048        42.61600
  -5919540.42206  23168603.35206  -4608106.36747  23168600.66047      4503.32100
  -3493350.76205  23910632.21905  -2714769.31146  23910629.01646      1687.98900
  -3142921.64807  21319174.93007  -2442266.71048  21319171.54748      1260.98800
  -2586448.21506  24100118.54706  -2012272.05647  24100116.55547      3964.27300
   1696666.18807  21990002.95307   1314447.21948  21990000.92648     -1288.42300
 08 11 10  0 26 30.0000000  0  9  3  6 13 16 19 21 23 25 31
  -6322687.55907  20586112.89107  -4911732.95248  20586111.30148      3259.65100
  -4510465.51607  20374761.10907  -3506673.86048  20374759.67648      2156.22700
  -5825897.32806  22583436.27306  -4515376.04847  22583434.48847      2932.55000
   -438842.70707  20561499.10907   -344229.43248  20561496.52748        39.09800
  -5987040.71906  23155758.58606  -4660703.95947  23155755.79347      4500.02000
  -3518567.55505  23905833.83605  -2734418.73646  23905830.41846      1681.12000
  -3161679.86707  21315605.39107  -2456883.51248  21315601.64148      1250.54800
  -2645905.60505  24088803.72705  -2058602.45647  24088802.04347      3963.82600
   1716070.21507  21993695.17207   1329567.21248  21993693.45748     -1293.60200
 08 11 10  0 26 45.0000000  0  9  3  6 13 16 19 21 23 25 31
  -6371467.11707  20576830.25007  -4949742.99248  20576829.07448      3251.97100
  -4542684.55507  20368630.14107  -3531779.60548  20368629.05548      2147.93600
  -5869756.03906  22575090.00806  -4549551.69847  22575088.39547      2923.91400
   -439377.03107  20561397.57807   -344645.77648  20561394.96148        35.62200
  -6054491.71106  23142923.23406  -4713263.17147  23142920.34047      4496.73300
  -3543681.72706  23901054.63306  -2753988.20546  23901051.79746      1674.27800
  -3180281.93807  21312065.96907  -2471378.64548  21312061.97748      1240.13800
  -2705356.63705  24077490.45305  -2104927.93747  24077489.25847      3963.40200
   1735551.30907  21997402.63307   1344747.28648  21997400.35948     -1298.74000
 08 11 10  0 27  0.0000000  0  9  3  6 13 16 19 21 23 25 31
  -6420130.83207  20567569.67207  -4987662.76348  20567568.54748      3244.24800
  -4574778.70307  20362523.21107  -3556788.02448  20362521.29348      2139.61000
  -5913484.64806  22566768.52306  -4583625.91747  22566766.87147      2915.24100
   -439858.98807  20561306.01607   -345021.33848  20561303.35248        32.13000
  -6121892.78106  23130096.89106  -4765783.47647  23130094.18047      4493.40500
  -3568692.81606  23896295.14806  -2773477.38746  23896292.46146      1667.40600
  -3198727.61307  21308555.93007  -2485751.91248  21308551.64148      1229.71200
  -2764800.85205  24066178.55505  -2151248.09747  24066177.52347      3962.94800
   1755109.75807  22001124.66407   1359987.63048  22001122.12948     -1303.89700
 08 11 10  0 27 14.9990000  0  9  3  6 13 16 19 21 23 25 31
  -6468676.60907  20558332.05807  -5025490.62848  20558330.86248      3236.38500
  -4606747.20707  20356439.38607  -3581698.54148  20356437.96448      2131.23400
  -5957081.61706  22558472.83906  -4617597.57847  22558470.29247      2906.46500
   -440290.07007  20561224.06507   -345357.25048  20561220.95248        28.73900
  -6189240.47306  23117281.17506  -4818262.16147  23117278.36247      4489.84600
  -3593600.27006  23891555.23706  -2792885.75546  23891553.28046      1660.49700
  -3217016.94907  21305075.37007  -2500003.35448  21305070.99548      1219.28900
  -2824235.46505  24054868.46405  -2197560.72747  24054867.51147      3962.30800
   1774742.73807  22004860.48707   1375286.04648  22004858.09348     -1308.86500
 08 11 10  0 27 29.9990000  0  9  3  6 13 16 19 21 23 25 31
  -6517110.63307  20549115.15907  -5063231.43148  20549114.35848      3228.93500
  -4638593.96507  20350379.49507  -3606514.19449  20350377.88249      2123.11700
  -6000551.98006  22550200.45606  -4651470.58947  22550198.01147      2898.02400
   -440670.11707  20561151.50307   -345653.40349  20561148.81549        25.33600
  -6256543.21906  23104474.12806  -4870705.85947  23104471.32747      4486.85000
  -3618406.87106  23886834.72206  -2812215.60247  23886832.40147      1653.77300
  -3235152.13307  21301624.43307  -2514134.66848  21301620.25748      1209.01200
  -2883667.80105  24043559.09705  -2243871.65247  24043558.22647      3962.15600
   1794453.20307  22008611.00307   1390644.84848  22008608.73348     -1314.03100
 08 11 10  0 27 44.9990000  0  9  3  6 13 16 19 21 23 25 31
  -6565427.81307  20539920.44807  -5100881.18148  20539919.70248      3221.14500
  -4670315.22307  20344342.36207  -3631232.04448  20344341.09748      2114.75100
  -6043890.95706  22541953.17506  -4685241.20947  22541951.31547      2889.26500
   -440997.82007  20561089.26907   -345908.75249  20561086.61249        21.84700
  -6323794.82006  23091676.00306  -4923109.67147  23091673.57347      4483.44000
  -3643109.25806  23882133.60406  -2831464.19847  23882132.01147      1646.82600
  -3253130.38307  21298203.18307  -2528143.69748  21298199.45648      1198.55000
  -2943092.30905  24032250.58905  -2290176.44847  24032249.73747      3961.63400
   1814241.21507  22012376.78407   1406064.07248  22012374.39048     -1319.20100
 08 11 10  0 27 59.9990000  0  9  3  6 13 16 19 21 23 25 31
  -6613628.97307  20530748.30807  -5138440.52548  20530747.03848      3213.41100
  -4701911.94907  20338329.90107  -3655852.86748  20338328.51548      2106.44800
  -6087099.06306  22533731.14406  -4718909.87847  22533728.93747      2880.54000
   -441274.21507  20561036.61207   -346124.13448  20561033.91748        18.42600
  -6390995.86306  23078888.88606  -4975474.08947  23078885.88647      4480.07000
  -3667708.31606  23877453.20606  -2850632.30347  23877452.07747      1639.93700
  -3270952.73407  21294811.80807  -2542031.24348  21294808.11248      1188.15700
  -3002509.73405  24020944.33105  -2336475.70647  24020942.65547      3961.16200
   1834105.71107  22016156.84707   1421542.86948  22016154.87048     -1324.30000
 08 11 10  0 28 14.9990000  0  9  3  6 13 16 19 21 23 25 31
  -6661714.08207  20521597.88607  -5175909.44548  20521596.77248      3205.67400
  -4733384.14807  20332340.81507  -3680376.64948  20332339.72648      2098.14700
  -6130176.26606  22525533.83906  -4752476.51647  22525531.74147      2871.81400
   -441499.37107  20560993.94007   -346299.58249  20560991.43749        15.01000
  -6458146.12906  23066110.10406  -5027798.97047  23066107.83947      4476.68400
  -3692203.84006  23872792.12806  -2869719.71847  23872790.53047      1633.03500
  -3288619.03107  21291450.26107  -2555797.20148  21291446.17948      1177.75300
  -3061919.90605  24009638.74505  -2382769.35446  24009636.90946      3960.67800
   1854046.66807  22019951.40907   1437081.25148  22019949.48348     -1329.39700
 08 11 10  0 28 29.9990000  0  9  3  6 13 16 19 21 23 25 31
  -6709682.69907  20512469.83107  -5213287.58649  20512468.75349      3197.90800
  -4764731.67207  20326375.82307  -3704803.30248  20326374.87448      2089.83500
  -6173122.32006  22517361.24506  -4785940.99047  22517359.37447      2863.07000
   -441673.43807  20560960.40907   -346435.22448  20560958.15948        11.60400
  -6525245.12506  23053341.47906  -5080083.89347  23053339.42947      4473.26600
  -3716595.60906  23868149.80806  -2888726.29747  23868148.65547      1626.11800
  -3306129.41407  21288117.87007  -2569441.65548  21288113.81548      1167.35900
  -3121322.57405  23998335.09705  -2429057.11047  23998332.85147      3960.17800
   1874064.16807  22023760.72207   1452679.27348  22023758.34348     -1334.50000
 08 11 10  0 28 44.9990000  0  9  3  6 13 16 19 21 23 25 31
  -6757535.19107  20503363.74507  -5250575.24448  20503362.29648      3190.16600
  -4795954.85907  20320434.05807  -3729133.04848  20320433.13648      2081.54600
  -6215937.46506  22509213.81506  -4819303.43447  22509211.80047      2854.34300
   -441796.72707  20560937.06507   -346531.29848  20560934.60848         8.21900
  -6592293.09406  23040583.02606  -5132329.02947  23040580.54647      4469.86500
  -3740883.89106  23863528.23706  -2907652.22747  23863527.01147      1619.21900
  -3323484.13306  21284815.28406  -2582964.82548  21284811.36248      1156.98100
  -3180717.90605  23987032.16705  -2475339.17247  23987030.63647      3959.68900
   1894157.59007  22027584.37807   1468336.47648  22027582.30048     -1339.56100
 08 11 10  0 28 59.9990000  0  9  3  6 13 16 19 21 23 25 31
  -6805271.38307  20494280.14407  -5287772.28248  20494278.72948      3182.41300
  -4827053.71507  20314516.71407  -3753365.92548  20314515.27648      2073.25700
  -6258621.43806  22501091.71406  -4852563.69447  22501089.84347      2845.59800
   -441869.43807  20560922.96407   -346587.96248  20560920.63248         4.84700
  -6659289.77006  23027833.32306  -5184534.23047  23027831.21447      4466.44500
  -3765068.46506  23858926.26106  -2926497.33647  23858924.37847      1612.30500
  -3340683.12506  21281542.72906  -2596366.64448  21281538.69848      1146.59900
  -3240105.80905  23975730.38605  -2521615.45647  23975729.02647      3959.19300
   1914326.91007  22031422.94007   1484052.80848  22031420.60848     -1344.62100
 08 11 10  0 29 14.9990000  0  9  3  6 13 16 19 21 23 25 31
  -6852890.51607  20485218.49507  -5324878.10348  20485217.17948      3174.60900
  -4858027.73007  20308622.15107  -3777501.52049  20308620.87849      2064.93400
  -6301173.41406  22492994.40906  -4885721.05847  22492991.85847      2836.79800
   -441891.46107  20560918.87007   -346605.11748  20560916.37048         1.46800
  -6726234.56606  23015094.61206  -5236698.99247  23015092.21047      4462.98600
  -3789148.75006  23854343.46406  -2945261.18147  23854342.26547      1605.35200
  -3357726.10907  21278299.55007  -2609646.89748  21278295.82348      1136.19900
  -3299485.59005  23964431.18305  -2567885.42046  23964429.73746      3958.65200
   1934572.46507  22035275.12007   1499828.55048  22035272.83148     -1349.70400
 08 11 10  0 29 29.9990000  0  9  3  6 13 16 19 21 23 25 31
  -6900393.09407  20476179.12807  -5361893.09348  20476177.83948      3166.83900
  -4888877.41407  20302751.84707  -3801540.23948  20302750.04648      2056.64600
  -6343594.08606  22484921.57306  -4918776.12247  22484919.54247      2828.04500
   -441863.16807  20560924.28407   -346583.08048  20560921.86648        -1.88600
  -6793127.59406  23002365.32306  -5288823.41147  23002362.59347      4459.53500
  -3813125.13306  23849781.74506  -2963944.05347  23849779.53847      1598.42600
  -3374613.59407  21275085.83907  -2622805.98548  21275082.21448      1125.83200
  -3358857.63305  23953133.19805  -2614149.33146  23953131.12446      3958.13600
   1954893.74607  22039142.34707   1515663.30848  22039139.85848     -1354.75200
 08 11 10  0 29 44.9990000  0  9  3  6 13 16 19 21 23 25 31
  -6947776.46907  20467162.41707  -5398815.18949  20467160.67949      3158.89200
  -4919600.30907  20296905.63607  -3825480.15549  20296904.05449      2048.19300
  -6385880.30106  22476874.87006  -4951726.43447  22476872.62447      2819.08100
   -441782.36707  20560939.74507   -346520.11248  20560937.10448        -5.38700
  -6859966.21906  22989646.26906  -5340905.44447  22989642.86247      4455.90800
  -3836994.99206  23845238.86206  -2982543.95247  23845236.65947      1591.32400
  -3391343.22307  21271902.35407  -2635842.06348  21271898.99548      1115.30900
  -3418219.27705  23941837.28405  -2660405.12146  23941834.82346      3957.44300
   1975293.04707  22043023.63607   1531558.85748  22043021.80048     -1359.95300
 08 11 10  0 29 59.9990000  0  9  3  6 13 16 19 21 23 25 31
  -6995043.64507  20458167.77607  -5435646.74548  20458166.35848      3151.14500
  -4950199.60207  20291082.49507  -3849323.75248  20291081.24948      2039.95300
  -6428034.90206  22468853.35406  -4984574.15947  22468850.70247      2810.30700
   -441652.41407  20560964.31507   -346418.86148  20560961.36648        -8.66400
  -6926753.22306  22976937.25306  -5392947.24847  22976933.48747      4452.46700
  -3860761.32406  23840716.30006  -3001063.15647  23840713.51147      1584.42200
  -3407918.15607  21268748.18307  -2648757.59348  21268744.44448      1104.99600
  -3477573.56305  23930542.77605  -2706655.19546  23930540.65546      3956.95200
   1995767.05907  22046920.15107   1547512.61248  22046917.65148     -1364.93400
 08 11 10  0 30 14.9990000  0  9  3  6 13 16 19 21 23 25 31
  -7042192.05907  20449195.56507  -5472385.75348  20449194.33148      3143.22800
  -4980672.68007  20285284.14407  -3873069.00849  20285282.66749      2031.53900
  -6470055.26606  22460856.59706  -5017317.32447  22460854.62447      2801.35800
   -441470.87907  20560999.04207   -346277.40248  20560996.53448       -12.10200
  -6993485.85506  22964238.55806  -5444946.70247  22964234.78847      4448.84200
  -3884421.46506  23836213.79206  -3019499.63347  23836212.07347      1577.34300
  -3424335.75007  21265623.94807  -2661550.53448  21265620.02648      1094.50600
  -3536917.75805  23919249.63605  -2752897.44246  23919247.80446      3956.28000
   2016318.21107  22050831.01107   1563526.47248  22050828.15548     -1370.07700
 08 11 10  0 30 29.9990000  0  9  3  6 13 16 19 21 23 25 31
  -7089222.67607  20440245.76107  -5509032.97948  20440244.79248      3135.37400
  -5011020.69907  20279508.71407  -3896716.80849  20279507.34349      2023.20100
  -6511942.60906  22452885.87806  -5049956.79647  22452883.38647      2792.49000
   -441239.00007  20561043.22907   -346096.72448  20561040.51548       -15.45900
  -7060165.26206  22951549.90906  -5496904.64547  22951546.34347      4445.29400
  -3907976.35506  23831731.37006  -3037854.09547  23831728.49947      1570.32600
  -3440597.28106  21262529.44806  -2674221.87348  21262525.63248      1084.10200
  -3596252.98805  23907958.71405  -2799132.67546  23907956.16746      3955.68200
   2036945.38707  22054755.61207   1579599.58348  22054753.20248     -1375.14500
 08 11 10  0 30 44.9990000  0  9  3  6 13 16 19 21 23 25 31
  -7136134.58607  20431319.00307  -5545587.70648  20431317.67948      3127.46100
  -5041242.91406  20273757.76906  -3920266.58048  20273755.99148      2014.81400
  -6553695.87106  22444940.32306  -5082491.80547  22444938.57747      2783.55100
   -440956.34006  20561097.43306   -345876.46849  20561093.96849       -18.84400
  -7126790.25806  22938871.27606  -5548820.22347  22938868.02247      4441.66600
  -3931425.28106  23827269.37806  -3056125.98847  23827266.72947      1563.26200
  -3456702.23006  21259464.97206  -2686771.18948  21259461.08148      1073.66300
  -3655578.17605  23896668.78405  -2845360.05946  23896667.15946      3955.01200
   2057649.17207  22058695.83907   1595732.38148  22058693.67548     -1380.25200
 08 11 10  0 30 59.9990000  0  9  3  6 13 16 19 21 23 25 31
  -7182927.60507  20422414.31507  -5582049.80048  20422413.35148      3119.53500
  -5071339.06607  20268030.58107  -3943718.13848  20268029.09748      2006.41000
  -6595314.52706  22437020.44806  -5114921.90847  22437018.75747      2774.57700
   -440622.74607  20561160.65107   -345616.53548  20561157.78048       -22.24000
  -7193360.33206  22926203.18306  -5600692.98647  22926199.82347      4438.00500
  -3954767.78106  23822827.33906  -3074314.92947  23822824.88247      1556.16700
  -3472650.25806  21256429.94806  -2699198.22648  21256425.92548      1063.20200
  -3714893.07004  23885381.96404  -2891579.44046  23885380.06946      3954.32600
   2078429.57407  22062650.01107   1611924.87248  22062648.37448     -1385.36000
 08 11 10  0 31 14.9990000  0  9  3  6 13 16 19 21 23 25 31
  -7229602.18807  20413532.41707  -5618419.60249  20413531.46449      3111.63900
  -5101310.10207  20262327.36207  -3967072.18349  20262325.46449      1998.06900
  -6636799.39106  22429126.42506  -5147247.80747  22429124.21847      2765.65800
   -440239.45707  20561233.56507   -345317.86648  20561230.81248       -25.55300
  -7259876.32006  22913546.21406  -5652523.60647  22913542.49147      4434.39900
  -3978004.81606  23818405.51106  -3092421.70647  23818402.93747      1549.13600
  -3488442.39107  21253424.98707  -2711503.79848  21253420.87048      1052.80900
  -3774198.21504  23874096.81504  -2937791.22147  23874094.60847      3953.67600
   2099285.51207  22066619.30007   1628176.24748  22066617.14748     -1390.39600
 08 11 10  0 31 29.9990000  0  9  3  6 13 16 19 21 23 25 31
  -7276157.65207  20404673.47907  -5654696.58448  20404671.75348      3103.69800
  -5131155.32407  20256647.95607  -3990328.20048  20256646.51948      1989.68200
  -6678149.68006  22421257.74506  -5179468.79647  22421255.47947      2756.68600
   -439805.55907  20561315.97907   -344979.76648  20561313.15948       -28.92700
  -7326337.08606  22900898.76906  -5704311.21747  22900894.89047      4430.71800
  -4001135.32006  23814004.00306  -3110445.49147  23814001.27247      1542.03400
  -3504077.82806  21250449.65906  -2723687.26648  21250445.33148      1042.36300
  -3833492.95705  23862813.61205  -2983994.92046  23862811.49946      3952.98300
   2120217.80907  22070602.69807   1644487.11248  22070600.25348     -1395.48600
 08 11 10  0 31 44.9990000  0  9  3  6 13 16 19 21 23 25 31
  -7322594.68407  20395836.55807  -5690881.28448  20395835.05848      3095.80200
  -5160875.56307  20250992.25307  -4013486.82148  20250990.87048      1981.34900
  -6719365.76606  22413414.50306  -5211585.21547  22413411.78847      2747.73900
   -439322.03507  20561407.90107   -344602.99948  20561405.37048       -32.23500
  -7392743.34006  22888262.48706  -5756056.32347  22888258.61247      4427.08400
  -4024160.08206  23809622.54206  -3128386.89047  23809620.09347      1534.98400
  -3519557.52306  21247504.01906  -2735749.36848  21247499.77648      1031.98000
  -3892777.89104  23851531.51904  -3030190.95546  23851529.97246      3952.32900
   2141225.41007  22074599.96407   1660856.65848  22074598.00348     -1400.50700
 08 11 10  0 31 59.9990000  0  9  3  6 13 16 19 21 23 25 31
  -7368913.20307  20387022.62807  -5726973.64349  20387020.72949      3087.90100
  -5190471.02707  20245360.25307  -4036548.21848  20245359.02248      1973.03100
  -6760447.80906  22405596.94006  -5243597.20847  22405594.17547      2738.80300
   -438789.35507  20561509.60407   -344187.93548  20561506.90548       -35.51200
  -7459095.03106  22875636.03406  -5807758.94547  22875632.30047      4423.44600
  -4047079.35506  23805261.40106  -3146246.04147  23805258.51547      1527.95200
  -3534881.66807  21244587.68307  -2747690.27348  21244583.69848      1021.61000
  -3952052.96104  23840251.83904  -3076379.31447  23840250.01547      3951.67100
   2162307.94107  22078611.85407   1677284.58148  22078609.42948     -1405.50200
 08 11 10  0 32 14.9990000  0  9  3  6 13 16 19 21 23 25 31
  -7415112.12907  20378231.34707  -5762972.80648  20378229.36648      3079.92800
  -5219940.56607  20239752.42507  -4059511.49048  20239751.26148      1964.63600
  -6801394.43806  22397805.14406  -5275503.65447  22397802.86247      2729.77500
   -438206.53107  20561620.08107   -343733.79148  20561617.61248       -38.85500
  -7525390.73806  22863020.41706  -5859417.92047  22863016.63247      4419.71400
  -4069891.67606  23800920.13606  -3164021.89247  23800917.95247      1520.82100
  -3550049.37107  21241701.76107  -2759509.27348  21241697.96848      1011.18000
  -4011317.01604  23828974.12004  -3122559.03247  23828971.97647      3950.93700
   2183466.52307  22082638.50307   1693771.78048  22082635.96048     -1410.57200
 08 11 10  0 32 29.9990000  0  9  3  6 13 16 19 21 23 25 31
  -7461193.41407  20369462.40907  -5798880.30848  20369460.40948      3072.08600
  -5249286.30107  20234168.08107  -4082378.28948  20234166.88648      1956.38200
  -6842207.50406  22390038.53406  -5307306.04447  22390036.24147      2720.87100
   -437575.78107  20561740.67507   -343242.29348  20561737.92148       -42.05000
  -7591632.27306  22850414.34706  -5911034.67548  22850411.26148      4416.10200
  -4092598.96506  23796599.00306  -3181715.86047  23796597.38247      1513.81900
  -3565062.48806  21238844.80006  -2771207.80548  21238840.79648      1000.87400
  -4070571.96504  23817698.49504  -3168731.73647  23817696.48347      3950.33000
   2204699.00007  22086679.13607   1710316.55848  22086676.16348     -1415.49800
 08 11 10  0 32 44.9990000  0  9  3  6 13 16 19 21 23 25 31
  -7507155.57807  20360715.95607  -5834694.96348  20360714.34748      3064.14400
  -5278506.88307  20228607.68307  -4105147.56048  20228606.10848      1948.03900
  -6882885.54706  22382297.93306  -5339003.22147  22382295.89747      2711.87000
   -436896.02307  20561870.00307   -342712.60748  20561867.21048       -45.31700
  -7657818.19106  22837820.33906  -5962608.10647  22837817.14047      4412.39500
  -4115199.89106  23792297.98706  -3199326.98547  23792296.44047      1506.72800
  -3579920.10506  21236017.55806  -2782785.16548  21236013.28848       990.50800
  -4129816.28904  23806424.66704  -3214896.10547  23806422.58547      3949.62200
   2226006.46507  22090733.18307   1726919.78248  22090730.74548     -1420.49800
 08 11 10  0 32 59.9990000  0  9  3  6 13 16 19 21 23 25 31
  -7552997.41007  20351992.36207  -5870415.87748  20351990.89448      3056.12200
  -5307601.25006  20223071.46406  -4127818.49048  20223069.72248      1939.62400
  -6923427.28906  22374582.52606  -5370594.17347  22374580.85147      2702.78300
   -436166.12107  20562008.45607   -342143.85448  20562005.89048       -48.66000
  -7723947.08606  22825236.18306  -6014137.10147  22825232.75347      4408.59300
  -4137693.19105  23788017.40905  -3216854.20047  23788015.95247      1499.55300
  -3594621.05106  21233219.85406  -2794240.47648  21233215.74948       980.06300
  -4189048.67204  23795153.43304  -3261051.18946  23795151.54246      3948.82600
   2247389.87907  22094802.42507   1743582.14448  22094800.21448     -1425.56100
 08 11 10  0 33 14.9990000  0  9  3  6 13 16 19 21 23 25 31
  -7598718.81307  20343292.07307  -5906042.93849  20343290.30849      3048.09300
  -5336569.35207  20217558.92507  -4150391.04949  20217557.31949      1931.20700
  -6963832.52006  22366894.03406  -5402078.80547  22366892.05847      2693.68200
   -435386.50007  20562157.09707   -341536.36348  20562154.22248       -51.97500
  -7790018.62506  22812663.09706  -6065621.39547  22812660.05447      4404.76900
  -4160078.72705  23783757.21405  -3234297.50547  23783756.05847      1492.36900
  -3609165.28906  21230452.40906  -2805573.65448  21230448.45648       969.61600
  -4248268.96504  23783883.84704  -3307196.85347  23783882.25347      3948.02000
   2268849.26607  22098886.69807   1760303.72448  22098883.95648     -1430.62600
 08 11 10  0 33 29.9990000  0  9  3  6 13 16 19 21 23 25 31
  -7644320.30907  20334614.02607  -5941576.57249  20334612.90149      3040.10000
  -5365412.02007  20212070.40107  -4172865.84749  20212068.95249      1922.84500
  -7004101.64506  22359231.17506  -5433457.30947  22359229.26547      2684.60800
   -434557.77707  20562314.91707   -340890.60448  20562311.75348       -55.24800
  -7856033.35906  22800100.81506  -6117061.44347  22800097.49547      4400.98200
  -4182357.10505  23779518.63605  -3251657.28146  23779516.72646      1485.22500
  -3623553.67607  21227714.36207  -2816785.39148  21227710.55448       959.22600
  -4307477.77004  23772616.14404  -3353333.57146  23772615.03846      3947.25400
   2290383.80107  22102984.30007   1777083.88248  22102981.67148     -1435.63600
 08 11 10  0 33 44.9990000  0  9  3  6 13 16 19 21 23 25 31
  -7689801.06307  20325959.44807  -5977016.11249  20325958.58949      3032.05000
  -5394128.53907  20206606.03407  -4195242.34748  20206603.90148      1914.43500
  -7044233.85206  22351593.93306  -5464729.16647  22351592.27247      2675.48000
   -433679.44907  20562482.15107   -340206.20548  20562479.09348       -58.55500
  -7921990.43406  22787549.43306  -6168456.53747  22787546.61647      4397.13800
  -4204527.72705  23775299.01105  -3268933.06347  23775297.77247      1478.04100
  -3637785.60507  21225006.07307  -2827875.20748  21225002.26148       948.79500
  -4366674.18804  23761352.52604  -3399460.61547  23761350.39047      3946.42800
   2311993.84007  22107096.63607   1793922.86348  22107094.20248     -1440.66900
 08 11 10  0 33 59.9990000  0  9  3  6 13 16 19 21 23 25 31
  -7735160.80507  20317327.88607  -6012361.35749  20317326.57349      3023.98300
  -5422718.66407  20201165.14407  -4217520.36649  20201163.77249      1906.00800
  -7084228.73406  22343983.48706  -5495893.99847  22343981.02647      2666.32600
   -432751.41807  20562658.30007   -339483.06548  20562655.21048       -61.86900
  -7987889.37906  22775009.60406  -6219806.36547  22775006.68747      4393.26300
  -4226590.03905  23771100.64405  -3286124.48746  23771099.58546      1470.82100
  -3651860.90207  21222327.60407  -2838842.99648  21222324.21048       938.35300
  -4425857.84804  23750089.92504  -3445577.75847  23750087.88647      3945.57700
   2333679.60207  22111222.61207   1810820.83448  22111220.04248     -1445.71700
 08 11 10  0 34 14.9990000  0  9  3  6 13 16 19 21 23 25 31
  -7780399.89807  20308719.30007  -6047612.60249  20308718.26149      3015.94000
  -5451182.83207  20195748.56507  -4239700.23249  20195747.28849      1897.61100
  -7124086.67607  22336399.07307  -5526952.16447  22336396.47647      2657.19600
   -431774.31306  20562844.10406   -338721.68348  20562841.23748       -65.14000
  -8053730.27006  22762480.13606  -6271110.95347  22762477.59747      4389.39300
  -4248544.26605  23766923.30005  -3303231.65646  23766922.75746      1463.61500
  -3665780.09007  21219679.12807  -2849689.11348  21219675.46048       927.94600
  -4485029.01204  23738829.47204  -3491685.15647  23738828.46447      3944.74400
   2355440.59007  22115363.93307   1827777.43248  22115361.44848     -1450.73300
 08 11 10  0 34 29.9990000  0  9  3  6 13 16 19 21 23 25 31
  -7825518.05907  20300133.55007  -6082769.61749  20300132.47249      3007.87700
  -5479521.01607  20190356.01107  -4261781.93149  20190354.87049      1889.21200
  -7163807.33206  22328840.31506  -5557903.30547  22328837.53847      2648.04400
   -430748.15606  20563039.57306   -337922.09148  20563036.69448       -68.41000
  -8119512.79306  22749962.46406  -6322370.05247  22749959.74547      4385.50200
  -4270390.29306  23762765.88606  -3320254.60346  23762764.92146      1456.40200
  -3679543.10507  21217060.41707  -2860413.56048  21217056.51148       917.53400
  -4544187.41804  23727572.39404  -3537782.59347  23727570.62847      3943.89400
   2377276.82007  22119519.04207   1844792.66148  22119516.83148     -1455.74900
 08 11 10  0 34 44.9990000  0  9  3  6 13 16 19 21 23 25 31
  -7870514.14507  20291570.84707  -6117831.49449  20291569.87049      2999.73900
  -5507731.87106  20184987.76906  -4283764.40949  20184986.06549      1880.72400
  -7203389.27706  22321307.99506  -5588746.38647  22321305.49547      2638.79600
   -429671.85906  20563244.29206   -337083.42748  20563241.28848       -71.75300
  -8185235.54706  22737456.12006  -6373582.56247  22737453.17947      4381.51700
  -4292126.57806  23758630.33906  -3337191.94746  23758627.41346      1449.08600
  -3693148.80507  21214471.04207  -2871015.40148  21214467.12848       907.04700
  -4603331.59005  23716316.94005  -3583868.95647  23716316.17547      3942.94500
   2399189.32807  22123689.04207   1861867.32048  22123686.82348     -1460.83400
 08 11 10  0 34 59.9990000  0  9  3  6 13 16 19 21 23 25 31
  -7915387.46107  20283031.70607  -6152797.71049  20283030.20649      2991.55400
  -5535815.47706  20179643.47206  -4305647.74049  20179642.32749      1872.24000
  -7242832.03506  22313802.51106  -5619480.98147  22313800.65947      2629.51700
   -428545.46506  20563458.94006   -336205.71848  20563455.74948       -75.09300
  -8250898.14106  22724960.32306  -6424748.20047  22724958.04247      4377.50600
  -4313753.14806  23754515.17506  -3354043.83146  23754511.73346      1441.77100
  -3706597.12106  21211912.28406  -2881494.62648  21211907.72248       896.55400
  -4662461.30104  23705065.46404  -3629944.02247  23705064.80047      3941.98100
   2421178.10207  22127873.58907   1879001.42248  22127871.35148     -1465.91800
 08 11 10  0 35 14.9990000  0  9  3  6 13 16 19 21 23 25 31
  -7960138.80907  20274515.82307  -6187668.88649  20274514.66349      2983.42300
  -5563772.38707  20174323.48707  -4327432.33749  20174322.26149      1863.79400
  -7282136.41406  22306322.85406  -5650107.76947  22306320.86647      2620.29200
   -427369.80906  20563682.58106   -335289.61449  20563679.99549       -78.37700
  -8316500.96106  22712476.66706  -6475867.28447  22712474.20647      4373.52100
  -4335270.56306  23750420.46406  -3370810.65246  23750415.81946      1434.49400
  -3719888.84406  21209382.42506  -2891851.81648  21209378.65148       886.11500
  -4721577.03104  23693815.56504  -3676008.23047  23693815.17147      3941.04900
   2443242.40207  22132072.51107   1896194.37048  22132069.98348     -1470.95300
 08 11 10  0 35 29.9990000  0  9  3  6 13 16 19 21 23 25 31
  -8004767.82407  20266023.37007  -6222444.74049  20266021.88249      2975.26800
  -5591602.56307  20169027.54207  -4349118.18149  20169026.33149      1855.34500
  -7321301.68806  22298869.88606  -5680626.14847  22298868.31547      2611.01800
   -426144.84007  20563915.85407   -334335.10548  20563912.93748       -81.66500
  -8382043.79706  22700004.48706  -6526939.58947  22700001.76547      4369.52200
  -4356678.51606  23746347.12806  -3387492.15746  23746342.53846      1427.19700
  -3733023.87107  21206882.87007  -2902086.91748  21206878.85148       875.66800
  -4780678.58604  23682568.95604  -3722061.35447  23682568.87047      3940.10400
   2465382.25407  22136285.11207   1913446.19248  22136283.23748     -1475.99000
 08 11 10  0 35 44.9990000  0  9  3  6 13 16 19 21 23 25 31
  -8049275.17207  20257553.90107  -6257125.78249  20257552.58949      2967.15700
  -5619306.37507  20163755.76107  -4370705.57348  20163754.08948      1846.92100
  -7360328.12106  22291443.41706  -5711036.36647  22291441.30447      2601.76200
   -424871.13307  20564158.30007   -333342.60648  20564155.19448       -84.91400
  -8447526.64806  22687543.05806  -6577965.17947  22687540.45247      4365.52300
  -4377977.27706  23742293.16706  -3404088.61646  23742290.29646      1419.91700
  -3746002.71107  21204413.06507  -2912200.30348  21204409.87048       865.25600
  -4839766.08605  23671325.35405  -3768103.57447  23671325.11647      3939.16700
   2487597.08207  22140512.47907   1930756.43148  22140510.35848     -1480.98900
 08 11 10  0 35 59.9990000  0  9  3  6 13 16 19 21 23 25 31
  -8093660.48007  20249107.80807  -6291711.72449  20249106.15949      2959.02100
  -5646883.92207  20158507.99507  -4392194.56248  20158506.38648      1838.50300
  -7399215.94106  22284043.40106  -5741338.57047  22284041.23347      2592.52100
   -423548.80506  20564410.09706   -332312.22348  20564406.96048       -88.15500
  -8512949.29306  22675092.84706  -6628943.85447  22675091.10447      4361.51000
  -4399166.75806  23738261.51106  -3420599.89046  23738258.53046      1412.63200
  -3758825.54307  21201972.84707  -2922192.12748  21201969.21448       854.85500
  -4898839.38304  23660083.73704  -3814134.67847  23660083.83547      3938.22000
   2509886.69507  22144753.70607   1948124.94048  22144751.92548     -1485.97400
 08 11 10  0 36 14.9990000  0  9  3  6 13 16 19 21 23 25 31
  -8137923.59007  20240684.63607  -6326202.44549  20240683.30049      2950.87400
  -5674335.14507  20153284.01907  -4413585.12349  20153282.50349      1830.08200
  -7437964.69106  22276669.77606  -5771532.40047  22276667.66747      2583.25000
   -422177.92606  20564670.68306   -331244.00549  20564667.82749       -91.39200
  -8578311.50806  22662655.39406  -6679875.42948  22662653.60148      4357.48100
  -4420246.87506  23734249.83906  -3437025.95946  23734246.82746      1405.34100
  -3771492.41007  21199562.43307  -2932062.42248  21199558.65948       844.45800
  -4957898.28105  23648845.05805  -3860154.62347  23648844.80447      3937.26000
   2532251.16407  22149010.33907   1965551.78348  22149007.90148     -1490.96500
 08 11 10  0 36 29.9990000  0  9  3  6 13 16 19 21 23 25 31
  -8182063.68407  20232284.97907  -6360597.32049  20232283.56549      2942.67300
  -5701659.31307  20148084.39407  -4434876.66748  20148082.87848      1821.61100
  -7476573.37906  22269322.26106  -5801617.08747  22269320.80047      2573.91200
   -420757.95306  20564940.65906   -330137.53048  20564938.14048       -94.66500
  -8643612.35906  22650229.38606  -6730759.18747  22650226.64747      4353.39000
  -4441216.74605  23730258.90105  -3453366.12746  23730256.42146      1397.99100
  -3784002.46907  21197181.81507  -2941810.52548  21197177.81948       834.00400
  -5016941.89105  23637610.07305  -3906162.59947  23637609.96047      3936.24100
   2554691.06607  22153279.98707   1983037.42048  22153277.71448     -1495.99300
 08 11 10  0 36 44.9990000  0  9  3  6 13 16 19 21 23 25 31
  -8226081.01207  20223909.05807  -6394896.52749  20223907.85149      2934.48900
  -5728856.74607  20142908.97207  -4456069.46448  20142907.58148      1813.16200
  -7515042.26606  22262002.37006  -5831592.82947  22262000.39747      2564.59200
   -419289.34007  20565220.27607   -328993.15948  20565217.84748       -97.90800
  -8708851.89806  22637814.89406  -6781595.17747  22637811.92147      4349.30300
  -4462076.53505  23726288.51105  -3469620.48246  23726287.45646      1390.65300
  -3796356.24207  21194831.01107  -2951436.85348  21194826.98748       823.58500
  -5075970.35505  23626377.04205  -3952158.77047  23626376.97947      3935.23100
   2577205.74607  22157564.87007   2000581.30548  22157562.29248     -1500.97900
 08 11 10  0 36 59.9990000  0  9  3  6 13 16 19 21 23 25 31
  -8269974.46107  20215556.36207  -6429099.22149  20215555.30049      2926.23000
  -5755926.84807  20137757.78407  -4477163.06349  20137756.33949      1804.67300
  -7553370.46106  22254708.85406  -5861458.96247  22254707.12847      2555.21300
   -417771.48407  20565509.05807   -327810.42348  20565506.58948      -101.19000
  -8774029.16806  22625411.91706  -6832382.68048  22625408.95248      4345.15100
  -4482825.65605  23722340.57305  -3485788.62446  23722339.38646      1383.27500
  -3808553.17207  21192510.19807  -2960940.96548  21192506.26548       813.12900
  -5134982.78905  23615147.10405  -3998142.47047  23615146.60147      3934.16200
   2599795.91007  22161863.53407   2018184.00248  22161861.11248     -1506.01100
 08 11 10  0 37 14.9990000  0  9  3  6 13 16 19 21 23 25 31
  -8313745.58607  20207226.62807  -6463206.58049  20207225.24949      2918.07500
  -5782870.85207  20132630.26107  -4498158.38249  20132628.93749      1796.26700
  -7591559.19906  22247441.83906  -5891216.41647  22247439.90947      2545.91600
   -416205.90207  20565807.01107   -326590.48648  20565804.19848      -104.37200
  -8839145.07006  22613020.52606  -6883122.32648  22613018.40948      4341.06000
  -4503464.95705  23718413.40905  -3501871.20046  23718412.17546      1375.95300
  -3820594.55107  21190218.40907  -2970323.85748  21190214.91748       802.75900
  -5193980.28905  23603920.74505  -4044114.52947  23603919.68747      3933.16700
   2622460.31307  22166176.56507   2035844.57248  22166174.43748     -1510.96000
 08 11 10  0 37 29.9990000  0  9  3  6 13 16 19 21 23 25 31
  -8357393.88707  20198921.01107  -6497218.23749  20198919.25349      2909.88700
  -5809688.51207  20127527.06507  -4519055.24849  20127525.77249      1787.84400
  -7629607.66806  22240201.00306  -5920864.56747  22240199.87847      2536.56500
   -414592.24607  20566114.22207   -325333.09948  20566111.00748      -107.57700
  -8904199.14106  22600641.37006  -6933813.79348  22600638.52248      4336.93800
  -4523993.98005  23714506.94005  -3517867.73846  23714505.09746      1368.60200
  -3832480.03907  21187956.97207  -2979585.29148  21187953.36648       792.36600
  -5252962.22705  23592696.65105  -4090074.47647  23592695.58547      3932.12900
   2645199.18407  22170503.12807   2053563.13648  22170500.82748     -1515.92500
 08 11 10  0 37 44.9990000  0  9  3  6 13 16 19 21 23 25 31
  -8400918.71907  20190638.36207  -6531133.68949  20190636.94849      2901.65500
  -5836379.41807  20122447.90907  -4539853.35148  20122446.61648      1779.39400
  -7667515.43406  22232987.78406  -5950403.06547  22232985.96047      2527.18400
   -412930.33207  20566430.29207   -324038.09648  20566427.53048      -110.79400
  -8969190.89806  22588273.61206  -6984456.70148  22588271.05048      4332.78400
  -4544412.53905  23710622.18305  -3533778.32546  23710619.46446      1361.23700
  -3844209.46907  21185725.12807  -2988725.11248  21185721.46048       781.96200
  -5311928.19905  23581475.98705  -4136021.97447  23581474.80447      3931.06500
   2668012.71507  22174844.91707   2071339.89248  22174842.53048     -1520.90200
 08 11 10  0 37 59.9990000  0  9  3  6 13 16 19 21 23 25 31
  -8444319.43007  20182379.44007  -6564952.42249  20182377.89749      2893.38100
  -5862943.08607  20117393.08107  -4560552.31848  20117391.51548      1770.91100
  -7705281.81606  22225801.26906  -5979831.44047  22225799.30047      2517.75900
   -411219.83607  20566755.40907   -322705.24548  20566753.09748      -114.03300
  -9034119.47306  22575918.26906  -7035050.38348  22575915.61648      4328.57200
  -4564719.87505  23706756.96405  -3549602.17646  23706755.58146      1353.82200
  -3855782.34407  21183522.84707  -2997742.94948  21183519.11648       771.52500
  -5370877.47305  23570258.63605  -4181956.44247  23570257.10447      3929.95200
   2690901.29707  22179200.01907   2089175.14248  22179197.66748     -1525.90500
 08 11 10  0 38 14.9990000  0  9  3  6 13 16 19 21 23 25 31
  -8487597.00007  20174143.99507  -6598675.19249  20174142.63649      2885.17100
  -5889380.44107  20112362.34707  -4581152.85249  20112360.51949      1762.49000
  -7742907.76206  22218641.10406  -6009150.34147  22218639.22647      2508.39600
   -409461.86307  20567090.05807   -321335.41448  20567087.24148      -117.19800
  -9098985.61306  22563575.08906  -7085595.42548  22563571.64448      4324.40900
  -4584916.82005  23702914.02605  -3565339.99146  23702912.00346      1346.46300
  -3867199.91407  21181349.86207  -3006639.76148  21181346.00348       761.17100
  -5429810.78905  23559044.19005  -4227878.51447  23559042.28447      3928.88800
   2713863.75807  22183569.99507   2107067.96048  22183567.55448     -1530.83100
 08 11 10  0 38 29.9990000  0  9  3  6 13 16 19 21 23 25 31
  -8530750.06607  20165931.99507  -6632300.94849  20165930.50749      2876.87100
  -5915690.44907  20107355.52607  -4601654.14748  20107353.79248      1754.00100
  -7780391.85906  22211508.12006  -6038358.73547  22211506.22647      2498.94000
   -407655.37907  20567434.17507   -319927.76948  20567431.47248      -120.43200
  -9163787.94106  22551243.03406  -7136090.74048  22551240.41748      4320.15500
  -4605002.11706  23699092.21406  -3580990.94846  23699090.04246      1339.02000
  -3878461.00007  21179207.09707  -3015414.64448  21179203.05048       750.73900
  -5488726.87906  23547832.16706  -4273787.12647  23547830.08547      3927.73900
   2736901.09807  22187953.37807   2125019.11248  22187951.41348     -1535.82300
 08 11 10  0 38 44.9990000  0  9  3  6 13 16 19 21 23 25 31
  -8573780.14807  20157743.40107  -6665830.87348  20157742.37848      2868.67200
  -5941874.87907  20102373.17507  -4622057.60748  20102371.38648      1745.62900
  -7817735.32806  22204401.87806  -6067457.53547  22204399.67147      2489.56500
   -405801.85207  20567786.99507   -318483.46748  20567783.97948      -123.56800
  -9228527.59406  22538923.54206  -7186537.22848  22538920.67948      4315.97700
  -4624977.18006  23695291.44006  -3596555.88746  23695289.18346      1331.67100
  -3889567.09807  21177093.97907  -3024068.76148  21177090.06948       740.40700
  -5547626.94906  23536624.35406  -4319683.26647  23536622.24547      3926.67100
   2760011.86707  22192351.58107   2143027.47348  22192349.10448     -1540.71800
 08 11 10  0 38 59.9990000  0  9  3  6 13 16 19 21 23 25 31
  -8616686.87907  20149578.75307  -6699264.67449  20149577.28049      2860.44900
  -5967933.01207  20097414.37007  -4642362.65148  20097412.40548      1737.20900
  -7854937.66406  22197322.33906  -6096446.36047  22197320.08547      2480.15600
   -403901.14107  20568148.45607   -317002.40248  20568145.53448      -126.71400
  -9293204.12906  22526616.17506  -7236934.48447  22526612.48347      4311.76900
  -4644841.69906  23691511.38606  -3612034.70246  23691507.75746      1324.30100
  -3900518.22707  21175009.58107  -3032602.10848  21175006.04648       730.07500
  -5606510.63306  23525419.32306  -4365566.62647  23525416.96847      3925.57900
   2783196.09007  22196763.72207   2161093.07848  22196761.19048     -1545.61500
 08 11 10  0 39 14.9990000  0  9  3  6 13 16 19 21 23 25 31
  -8659470.55507  20141437.33907  -6732602.60449  20141436.12449      2852.24500
  -5993865.68007  20092479.63607  -4662569.91249  20092477.79249      1728.84500
  -7891999.36306  22190269.73706  -6125325.61847  22190267.74147      2470.78000
   -401954.05507  20568519.20607   -315485.19048  20568516.40148      -129.80600
  -9357817.79706  22514320.51906  -7287282.80048  22514317.12848      4307.57800
  -4664595.91805  23687751.58905  -3627427.64046  23687748.89046      1316.94800
  -3911314.77307  21172955.55807  -3041015.02148  21172951.46848       719.77000
  -5665378.17606  23514216.58106  -4411437.44747  23514214.62847      3924.50300
   2806453.17207  22201189.40907   2179215.46248  22201187.17148     -1550.47200
 08 11 10  0 39 29.9990000  0  9  3  6 13 16 19 21 23 25 31
  -8702130.08607  20133319.49507  -6765843.79449  20133318.39049      2843.96900
  -6019671.79707  20087568.72907  -4682678.56949  20087567.13649      1720.40800
  -7928919.33607  22183244.48707  -6154094.40747  22183242.00347      2461.33200
   -399959.57807  20568898.48707   -313931.05848  20568896.01548      -132.96500
  -9422367.44506  22502037.44806  -7337581.20347  22502033.88247      4303.31000
  -4684238.84405  23684013.70605  -3642733.82445  23684010.38245      1309.52800
  -3921955.91807  21170930.32307  -3049306.82548  21170926.60448       709.41000
  -5724228.46506  23503017.77606  -4457294.79847  23503016.19447      3923.35300
   2829783.98007  22205628.72907   2197395.30348  22205626.76148     -1555.38700
 08 11 10  0 39 44.9990000  0  9  3  6 13 16 19 21 23 25 31
  -8744665.74607  20125225.32307  -6798988.45349  20125223.90149      2835.71100
  -6045351.87907  20082682.17507  -4702689.01649  20082680.31549      1712.00500
  -7965697.91007  22176245.65907  -6182753.04747  22176243.50347      2451.90500
   -397918.25406  20569287.08106   -312340.41348  20569284.73748      -136.08800
  -9486853.21906  22489765.45606  -7387829.85547  22489762.47247      4299.05200
  -4703770.75005  23680296.92505  -3657953.56345  23680292.86245      1302.12700
  -3932442.23807  21168934.95607  -3057477.99648  21168931.10848       699.08800
  -5783061.77006  23491822.26106  -4503138.90647  23491820.70247      3922.22000
   2853187.94907  22210082.24507   2215632.15148  22210080.15148     -1560.26500
 08 11 10  0 39 59.9990000  0  9  3  6 13 16 19 21 23 25 31
  -8787077.26607  20117154.69007  -6832036.38649  20117153.44449      2827.43500
  -6070905.36307  20077819.10407  -4722600.81849  20077817.89049      1703.56600
  -8002334.47307  22169273.73707  -6211301.02447  22169272.05047      2442.43800
   -395830.08607  20569684.47207   -310713.28448  20569682.15948      -139.21100
  -9551274.43406  22477507.12006  -7438028.19647  22477503.45647      4294.74800
  -4723191.21105  23676600.65905  -3673086.28145  23676597.78045      1294.69700
  -3942773.49207  21166968.74507  -3065528.32648  21166965.09748       688.75000
  -5841877.48806  23480630.49506  -4548969.31547  23480628.89047      3921.04800
   2876665.34007  22214550.10407   2233926.20348  22214548.15948     -1565.15900
 08 11 10  0 40 14.9990000  0  9  3  6 13 16 19 21 23 25 31
  -8829365.66407  20109107.66707  -6864988.37249  20109106.27249      2819.22700
  -6096333.87907  20072980.36207  -4742415.24749  20072979.21849      1695.23400
  -8038830.02007  22162329.04207  -6239739.10747  22162326.67547      2433.03600
   -393696.28107  20570090.55807   -309050.58448  20570088.20248      -142.25400
  -9615632.15606  22465259.48706  -7488177.05847  22465256.47947      4290.51500
  -4742501.38705  23672927.32305  -3688133.19145  23672923.01945      1287.34500
  -3952951.04707  21165032.30807  -3073458.89248  21165028.03848       678.50400
  -5900676.65606  23469441.08906  -4594786.84647  23469439.18347      3919.94500
   2900214.76207  22219031.13607   2252276.39348  22219029.43348     -1569.96100
 08 11 10  0 40 29.9990000  0  9  3  6 13 16 19 21 23 25 31
  -8871529.51607  20101084.05007  -6897843.31849  20101082.68749      2810.92300
  -6121635.89507  20068165.51107  -4762131.09949  20068164.30449      1686.80100
  -8075182.74207  22155411.33107  -6268065.90647  22155408.99547      2423.51500
   -391515.52006  20570505.39406   -307351.28748  20570502.89448      -145.38400
  -9679924.84006  22453025.27606  -7538275.25147  22453022.28047      4286.17900
  -4761699.80905  23669273.82305  -3703092.93045  23669269.15145      1279.89500
  -3962973.47307  21163124.89407  -3081268.58548  21163121.08148       668.16200
  -5959457.64506  23458255.25306  -4640590.19547  23458253.96847      3918.73300
   2923837.54707  22223526.53407   2270683.73448  22223524.54248     -1574.85200
 08 11 10  0 40 44.9990000  0  9  3  6 13 16 19 21 23 25 31
  -8913569.42607  20093084.14407  -6930601.69149  20093082.85449      2802.66100
  -6146812.42207  20063374.76907  -4781749.15849  20063373.44049      1678.43500
  -8111393.58607  22148520.98707  -6296282.14647  22148518.97647      2414.05600
   -389288.85907  20570929.49507   -305616.22748  20570926.39448      -148.44400
  -9744153.05906  22440803.14406  -7588323.21247  22440800.35147      4281.88100
  -4780787.06305  23665641.50305  -3717966.10446  23665637.49546      1272.48400
  -3972841.68807  21161246.90907  -3088958.11248  21161243.28848       657.88100
  -6018221.15606  23447072.58106  -4686379.91747  23447071.17547      3917.56700
   2947532.76607  22228035.76907   2289147.53348  22228033.67948     -1579.68100
 08 11 10  0 40 59.9990000  0  9  3  6 13 16 19 21 23 25 31
  -8955485.25807  20085107.95607  -6963263.36549  20085106.43749      2794.38900
  -6171863.43807  20058607.27607  -4801269.43248  20058606.27248      1670.06800
  -8147462.67206  22141656.69806  -6324387.91347  22141654.58947      2404.60600
   -387016.41007  20571361.62807   -303845.48748  20571358.92148      -151.49700
  -9808316.59406  22428593.22206  -7638320.74447  22428590.50747      4277.56900
  -4799763.31605  23662030.54205  -3732752.78745  23662025.99945      1265.08400
  -3982555.84407  21159398.58907  -3096527.59448  21159394.69448       647.61000
  -6076967.10906  23435893.72206  -4732155.97047  23435892.18747      3916.39700
   2971300.14807  22232558.69007   2307667.57248  22232556.62848     -1584.49200
 08 11 10  0 41 14.9990000  0  9  3  6 13 16 19 21 23 25 31
  -8997277.38707  20077155.25307  -6995828.65249  20077153.45249      2786.14200
  -6196789.70307  20053864.12807  -4820692.49149  20053862.69849      1661.75100
  -8183389.85906  22134820.05006  -6352383.13747  22134818.52647      2395.14600
   -384698.77707  20571802.55007   -302039.53748  20571799.83148      -154.50900
  -9872415.60506  22416395.80006  -7688268.00848  22416393.05448      4273.26700
  -4818628.86705  23658440.26905  -3747453.18045  23658436.56945      1257.70300
  -3992116.68807  21157579.16707  -3103977.61448  21157574.96848       637.39000
  -6135695.73806  23424718.58106  -4777918.53047  23424717.08547      3915.24200
   2995139.12107  22237094.82307   2326243.38948  22237092.67548     -1589.26500
 08 11 10  0 41 29.9990000  0  9  3  6 13 16 19 21 23 25 31
  -9038944.91807  20069225.76107  -7028296.85249  20069224.58149      2777.83500
  -6221589.82007  20049144.92507  -4840017.25248  20049143.45248      1653.34100
  -8219174.12506  22128010.47906  -6380266.99147  22128008.78447      2385.61800
   -382335.15607  20572252.57307   -300197.76248  20572249.71848      -157.57500
  -9936448.89806  22404210.54206  -7738164.06147  22404208.07747      4268.88600
  -4837382.61705  23654871.03405  -3762066.42446  23654867.11246      1250.25000
  -4001523.52707  21155789.25307  -3111307.62848  21155785.16348       627.12300
  -6194405.97706  23413545.54206  -4823666.75147  23413544.88647      3914.01600
   3019050.44507  22241644.90107   2344875.57348  22241643.42148     -1594.08800
 08 11 10  0 41 44.9990000  0  9  3  6 13 16 19 21 23 25 31
  -9080488.35207  20061320.39407  -7060668.35449  20061319.54649      2769.56200
  -6246264.61707  20044449.34707  -4859244.36448  20044447.76548      1644.98600
  -8254816.05506  22121228.37006  -6408039.90047  22121226.51147      2376.12900
   -379926.04707  20572710.87807   -298320.53648  20572708.14748      -160.60700
 -10000416.94906  22392037.48706  -7788009.27647  22392035.39447      4264.53700
  -4856024.98805  23651323.88605  -3776592.98146  23651320.01946      1242.82500
  -4010777.01207  21154028.08907  -3118518.14548  21154024.13248       616.89900
  -6253098.11306  23402376.90906  -4869400.84547  23402376.43347      3912.80900
   3043033.44507  22246208.73707   2363563.59948  22246206.93748     -1598.86700
 08 11 10  0 41 59.9990000  0  9  3  6 13 16 19 21 23 25 31
  -9121906.64807  20053438.55007  -7092942.34049  20053437.84749      2761.22000
  -6270813.29707  20039778.06507  -4878373.20048  20039776.33548      1636.57900
  -8290314.55906  22114473.03406  -6435701.08647  22114471.08547      2366.56700
   -377470.98807  20573177.88607   -296407.51048  20573175.16748      -163.67100
 -10064318.42207  22379878.11207  -7837802.62948  22379875.38248      4260.09800
  -4874555.03105  23647797.28405  -3791032.01846  23647795.14046      1235.33600
  -4019876.11707  21152296.92507  -3125608.35648  21152292.56948       606.60700
  -6311771.03106  23391212.15106  -4915119.99647  23391211.11247      3911.52800
   3067089.00007  22250786.18307   2382308.17648  22250784.78848     -1603.70400
 08 11 10  0 42 14.9990000  0  9  3  6 13 16 19 21 23 25 31
  -9163199.90607  20045580.64407  -7125118.90649  20045579.52649      2752.88400
  -6295236.04307  20035130.65107  -4897403.91049  20035128.92549      1628.18300
  -8325669.52706  22107745.08106  -6463250.41847  22107742.71847      2356.99800
   -374970.14807  20573653.83107   -294458.80148  20573650.95248      -166.72300
 -10128153.30906  22367730.38606  -7887544.09548  22367727.91748      4255.65900
  -4892972.77005  23644293.19005  -3805383.45746  23644290.46046      1227.84900
  -4028821.19506  21150594.40106  -3132578.55548  21150590.99148       596.33900
  -6370424.76206  23380050.82306  -4960824.18347  23380049.58547      3910.24900
   3091216.77306  22255377.69006   2401109.00648  22255375.96848     -1608.51800
 08 11 10  0 42 29.9990000  0  9  3  6 13 16 19 21 23 25 31
  -9204367.13707  20037747.28407  -7157197.26549  20037745.67949      2744.48200
  -6319532.07407  20030507.42507  -4916335.88349  20030505.73349      1619.73500
  -8360880.10906  22101044.75306  -6490687.22447  22101042.38247      2347.37200
   -372422.69107  20574138.83907   -292473.77448  20574135.74948      -169.83000
 -10191920.48807  22355596.41707  -7937232.79448  22355593.26148      4251.14500
  -4911277.25405  23640809.33105  -3819646.80746  23640807.17146      1220.29900
  -4037611.41407  21148921.69007  -3139428.08048  21148917.99948       586.01500
  -6429058.22706  23368892.69806  -5006512.58947  23368891.98747      3908.89800
   3115417.56307  22259982.98707   2419966.75348  22259981.48748     -1613.38600
 08 11 10  0 42 44.9990000  0  9  3  6 13 16 19 21 23 25 31
  -9245408.67608  20029937.16708  -7189177.68049  20029935.69849      2736.10300
  -6343701.76207  20025908.09707  -4935169.39949  20025906.35849      1611.31300
  -8395946.47706  22094372.06506  -6518011.67847  22094369.70647      2337.75800
   -369829.11307  20574632.39407   -290452.80548  20574629.22248      -172.90500
 -10255620.06307  22343475.12007  -7986868.81548  22343471.90548      4246.63800
  -4929468.94105  23637348.07305  -3833822.00846  23637345.90946      1212.77900
  -4046247.32407  21147278.52607  -3146157.35948  21147274.52648       575.72700
  -6487671.48806  23357739.58106  -5052185.25947  23357737.78447      3907.55100
   3139690.89806  22264602.80806   2438880.99948  22264600.57748     -1618.22200
 08 11 10  0 42 59.9990000  0  9  3  6 13 16 19 21 23 25 31
  -9286323.81607  20022151.43307  -7221059.59149  20022149.64749      2727.67600
  -6367744.73407  20021332.65107  -4953904.17649  20021331.42549      1602.86500
  -8430868.06306  22087726.59706  -6545223.28147  22087724.05847      2328.10600
   -367189.33207  20575134.40107   -288395.83948  20575132.14448      -175.98500
 -10319251.57407  22331365.43307  -8036451.79348  22331363.07748      4242.10100
  -4947547.20705  23633908.12005  -3847909.01646  23633904.92546      1205.21800
  -4054728.78107  21145664.30007  -3152766.29448  21145661.12848       565.43000
  -6546264.14106  23346589.58906  -5097841.83647  23346587.76547      3906.17700
   3164036.87907  22269235.69807   2457851.86548  22269233.72648     -1623.06500
 08 11 10  0 43 14.9990000  0  9  3  6 13 16 19 21 23 25 31
  -9327112.66408  20014389.30008  -7252843.10549  20014388.31549      2719.25700
  -6391660.81607  20016781.38607  -4972540.09249  20016780.30449      1594.40500
  -8465644.64506  22081108.62006  -6572321.90547  22081106.61647      2318.43900
   -364503.42607  20575645.69007   -286302.93148  20575643.10148      -179.06000
 -10382814.82006  22319269.96406  -8085981.57448  22319267.74948      4237.55000
  -4965511.94905  23630489.07305  -3861907.49646  23630486.73746      1197.64900
  -4063055.79706  21144080.01106  -3159254.88248  21144076.36248       555.13400
  -6604835.87106  23335444.09706  -5143482.11747  23335442.08947      3904.78200
   3188455.30506  22273881.80806   2476879.19448  22273880.15148     -1627.89500
 08 11 10  0 43 29.9990000  0  9  3  6 13 16 19 21 23 25 31
  -9367775.74608  20006651.54208  -7284528.61849  20006649.90549      2710.87200
  -6415451.16807  20012254.33907  -4991078.02248  20012252.93348      1586.02300
  -8500276.82007  22074518.65107  -6599308.02847  22074515.93347      2308.81200
   -361772.05107  20576165.19007   -284174.58248  20576162.40948      -182.09200
 -10446310.10206  22307187.56506  -8135458.41148  22307185.01548      4233.01900
  -4983363.95305  23627091.23705  -3875818.15746  23627089.61246      1190.13400
  -4071229.19507  21142524.86207  -3165623.77748  21142520.92948       544.89300
  -6663387.26206  23324301.27606  -5189106.57447  23324299.88647      3903.42600
   3212945.56607  22278542.36207   2495962.52548  22278539.99148     -1632.68400
 08 11 10  0 43 44.9990000  0  9  3  6 13 16 19 21 23 25 31
  -9408313.40608  19998937.40108  -7316116.40249  19998936.33549      2702.51100
  -6439115.98807  20007751.01907  -5009518.13049  20007749.52649      1577.65500
  -8534764.89506  22067956.10406  -6626181.86547  22067953.22947      2299.20500
   -358995.74607  20576693.89407   -282011.23748  20576691.32348      -185.08700
 -10509737.53906  22295117.22206  -8184882.37448  22295114.76148      4228.49600
  -5001103.32005  23623714.80805  -3889641.00046  23623713.33146      1182.62400
  -4079249.53107  21140998.74507  -3171873.38448  21140995.13648       534.68900
  -6721918.38706  23313163.86206  -5234715.20747  23313161.38247      3902.07500
   3237507.14507  22283215.94007   2515101.41948  22283214.04248     -1637.43900
 08 11 10  0 43 59.9990000  0  9  3  6 13 16 19 21 23 25 31
  -9448725.89507  19991247.00307  -7347606.63549  19991245.63249      2694.16600
  -6462655.95707  20003271.53407  -5027860.96148  20003269.95648      1569.33100
  -8569109.12506  22061419.92506  -6652943.59747  22061417.83547      2289.61500
   -356175.07407  20577230.58907   -279813.31448  20577228.09748      -188.04500
 -10573097.43806  22283060.77606  -8234253.71648  22283057.94048      4223.99300
  -5018730.47705  23620362.18305  -3903376.47346  23620359.83146      1175.14400
  -4087117.32807  21139501.35407  -3178004.15148  21139497.52248       524.52000
  -6780429.55906  23302029.06506  -5280308.31947  23302027.23747      3900.74500
   3262139.39107  22287903.16707   2534295.35248  22287901.57748     -1642.15000
 08 11 10  0 44 14.9990000  0  9  3  6 13 16 19 21 23 25 31
  -9489012.01208  19983580.73708  -7378998.41249  19983579.51149      2685.74100
  -6486069.67607  19998816.12007  -5046105.42649  19998814.58949      1560.91500
  -8603308.03506  22054912.30806  -6679592.10947  22054910.08947      2279.92700
   -353308.98407  20577776.08907   -277580.00248  20577773.04648      -191.07300
 -10636388.23806  22271016.64406  -8283571.20648  22271013.93348      4219.38700
  -5036244.21105  23617028.25305  -3917023.55346  23617027.21046      1167.58200
  -4094831.52007  21138033.37007  -3184015.20748  21138029.76948       514.27900
  -6838919.36706  23290899.16706  -5325884.75547  23290897.33947      3899.32100
   3286843.30107  22292604.42507   2553545.12748  22292603.19048     -1646.92700
 08 11 10  0 44 29.9990000  0  9  3  6 13 16 19 21 23 25 31
  -9529172.37908  19975938.57308  -7410292.19649  19975936.97249      2677.35800
  -6509357.98807  19994384.31507  -5064252.15348  19994383.15548      1552.55400
  -8637362.14806  22048431.78406  -6706127.76547  22048430.15547      2270.27400
   -350398.14807  20578329.72207   -275311.80848  20578326.95248      -194.05600
 -10699610.26206  22258985.61206  -8332835.10947  22258982.64747      4214.80200
  -5053644.92205  23613717.03405  -3930582.58346  23613716.32746      1160.04700
  -4102392.75807  21136594.73707  -3189907.08848  21136590.37448       504.08300
  -6897388.17606  23279772.90906  -5371444.85547  23279770.56947      3897.92100
   3311618.35906  22297318.70606   2572850.36048  22297317.21848     -1651.67100
 08 11 10  0 44 44.9990000  0  9  3  6 13 16 19 21 23 25 31
  -9569206.80508  19968320.29208  -7441487.85249  19968318.90149      2668.96200
  -6532520.79307  19989976.58107  -5082301.08248  19989975.18348      1544.18700
  -8671271.57406  22041979.27606  -6732550.71047  22041977.33547      2260.62800
   -347442.86707  20578892.20607   -273008.99948  20578889.85848      -197.01900
 -10762763.60506  22246968.10406  -8382045.47948  22246965.09748      4210.22300
  -5070932.99605  23610427.95605  -3944053.75346  23610426.18346      1152.53800
  -4109801.41407  21135184.44007  -3195680.07348  21135180.77248       493.91000
  -6955835.91406  23268650.58906  -5416988.54747  23268648.54247      3896.51600
   3336464.14806  22302046.48706   2592210.68548  22302044.58148     -1656.38600
 08 11 10  0 44 59.9990000  0  9  3  6 13 16 19 21 23 25 31
  -9609115.92208  19960725.84708  -7472585.84749  19960724.19049      2660.60800
  -6555558.91807  19985592.96407  -5100252.85848  19985590.91748      1535.87500
  -8705036.77306  22035553.91706  -6758861.26047  22035551.78847      2251.01300
   -344443.77007  20579463.07307   -270672.04448  20579460.03048      -199.94000
 -10825848.57406  22234962.96406  -8431202.59948  22234960.08548      4205.66500
  -5088108.37506  23607160.03406  -3957437.15346  23607156.65946      1145.02500
  -4117058.16807  21133803.78407  -3201334.70748  21133799.45648       483.78400
  -7014262.92206  23257532.63606  -5462516.05247  23257529.90947      3895.13400
   3361380.09406  22306787.97906   2611625.69448  22306785.92148     -1661.06300
 08 11 10  0 45 14.9990000  0  9  3  6 13 16 19 21 23 25 31
  -9648898.12507  19953155.58907  -7503584.97249  19953154.01149      2652.14700
  -6578471.20707  19981232.40907  -5118106.59348  19981230.79648      1527.48600
  -8738656.05106  22029156.07306  -6785058.09947  22029154.30447      2241.28500
   -341399.59407  20580042.15107   -268299.95748  20580039.40548      -202.94500
 -10888863.45306  22222971.84706  -8480305.08848  22222968.59348      4200.99200
  -5105169.84406  23603913.66706  -3970731.81246  23603910.17146      1137.43100
  -4124161.81307  21132451.90107  -3206870.01048  21132447.65948       473.57600
  -7072667.72306  23246417.88606  -5508026.30347  23246415.52647      3893.65300
   3386367.31607  22311542.88607   2631096.24848  22311541.33148     -1665.81500
 08 11 10  0 45 29.9990000  0  9  3  6 13 16 19 21 23 25 31
  -9688553.42607  19945609.58107  -7534485.20549  19945608.18749      2643.68700
  -6601257.54307  19976896.54207  -5135862.17248  19976894.60148      1519.08900
  -8772129.18806  22022786.65906  -6811141.06147  22022785.10147      2231.54200
   -338310.43407  20580630.25307   -265892.83448  20580628.11248      -205.94400
 -10951808.09406  22210994.12006  -8529352.84948  22210990.29248      4196.30900
  -5122117.17606  23600688.97906  -3983937.48446  23600685.67146      1129.82200
  -4131112.43007  21131129.68307  -3212286.09448  21131125.40148       463.37400
  -7131050.01606  23235308.49506  -5553518.95347  23235305.85447      3892.15300
   3411425.59806  22316311.56506   2650622.16748  22316310.38648     -1670.55200
 08 11 10  0 45 44.9990000  0  9  3  6 13 16 19 21 23 25 31
  -9728082.40607  19938087.22907  -7565287.00149  19938085.57749      2635.26500
  -6623918.22307  19972584.37807  -5153519.84449  19972582.74549      1510.71200
  -8805456.82406  22016444.55806  -6837110.65847  22016443.22647      2221.84200
   -335176.93407  20581226.67507   -263451.15048  20581223.92948      -208.90000
 -11014682.85906  22199029.33906  -8578346.16048  22199025.67948      4191.65100
  -5138951.10506  23597484.40906  -3997054.82546  23597481.49946      1122.26200
  -4137910.80507  21129835.39407  -3217583.54348  21129831.87048       453.22500
  -7189410.24206  23224202.89406  -5598994.42847  23224200.41347      3890.68200
   3436554.42607  22321093.62807   2670203.04248  22321092.31248     -1675.25500
 08 11 10  0 45 59.9990000  0  9  3  6 13 16 19 21 23 25 31
  -9767485.46107  19930589.04207  -7595990.67649  19930587.89049      2626.87000
  -6646454.50807  19968295.62007  -5171080.58348  19968294.46848      1502.41900
  -8838639.43806  22010129.72206  -6862967.24247  22010128.34747      2212.17400
   -331999.96907  20581830.82307   -260975.59848  20581828.01548      -211.79800
 -11077488.23006  22187078.32306  -8627285.40748  22187074.19448      4187.02500
  -5155672.10506  23594303.05006  -4010084.20046  23594300.35446      1114.73300
  -4144557.61707  21128570.65107  -3222762.89348  21128567.05848       443.12100
  -7247748.77006  23213101.52606  -5644453.02247  23213099.22647      3889.23500
   3461752.95706  22325888.58106   2689838.22848  22325887.86648     -1679.90200
 08 11 10  0 46 14.9990000  0  9  3  6 13 16 19 21 23 25 31
  -9806760.80108  19923115.23708  -7626594.83249  19923113.66349      2618.35600
  -6668864.35507  19964031.46407  -5188542.80349  19964029.69049      1493.99000
  -8871674.86706  22003843.51106  -6888709.14447  22003841.59747      2202.36200
   -328777.82807  20582444.22207   -258464.84748  20582441.12448      -214.80900
 -11140221.89506  22175140.04206  -8676168.76948  22175136.19048      4182.24400
  -5172278.37906  23591143.01106  -4023024.14446  23591139.87046      1107.08500
  -4151051.23007  21127335.09707  -3227822.87048  21127331.45648       432.90800
  -7306063.65606  23202004.41706  -5689893.19147  23202001.65147      3887.65900
   3487022.88306  22330697.61206   2709529.05448  22330695.56548     -1684.66200
 08 11 10  0 46 29.9990000  0  9  3  6 13 16 19 21 23 25 31
  -9845907.91007  19915665.78407  -7657099.06649  19915664.19449      2609.80700
  -6691147.32007  19959791.08107  -5205906.14348  19959789.54248      1485.53100
  -8904562.69107  21997585.47907  -6914336.02947  21997583.91347      2192.52200
   -325510.12907  20583065.81507   -255918.58548  20583063.27248      -217.84700
 -11202883.15606  22163216.28406  -8724995.71548  22163212.12448      4177.41700
  -5188769.27305  23588004.90905  -4035874.19246  23588000.80446      1099.39300
  -4157391.27307  21126128.72907  -3232763.15848  21126124.81248       422.67000
  -7364354.20306  23190912.58906  -5735314.38147  23190909.40147      3886.03600
   3512364.51206  22335519.90106   2729275.77948  22335517.93348     -1689.44200
 08 11 10  0 46 44.9990000  0  9  3  6 13 16 19 21 23 25 31
  -9884926.43407  19908240.74507  -7687503.10349  19908239.51549      2601.23500
  -6713303.21907  19955574.84707  -5223170.46949  19955573.26549      1477.06000
  -8937302.66406  21991355.53406  -6939847.68347  21991353.53047      2182.66500
   -322196.69907  20583696.65907   -253336.69848  20583693.69448      -220.89500
 -11265471.52706  22151306.29206  -8773765.87248  22151302.08948      4172.55800
  -5205144.35206  23584888.39406  -4048633.98046  23584885.48746      1091.67200
  -4163577.50407  21124951.37007  -3237583.60648  21124947.76948       412.41500
  -7422619.85506  23179824.24506  -5780716.16747  23179822.42547      3884.37700
   3537778.09407  22340356.35407   2749078.56448  22340354.55448     -1694.23900
 08 11 10  0 46 59.9990000  0  9  3  6 13 16 19 21 23 25 31
  -9923816.68807  19900840.08107  -7717807.18649  19900838.82749      2592.68400
  -6735332.78107  19951382.85407  -5240336.35949  19951381.43349      1468.63800
  -8969894.85907  21985153.01107  -6965244.21047  21985151.75747      2172.81300
   -318838.06607  20584335.63607   -250719.57948  20584332.39048      -223.90900
 -11327987.22707  22139409.69807  -8822479.38948  22139405.76948      4167.71300
  -5221404.18405  23581795.18305  -4061303.98846  23581791.50346      1083.98900
  -4169610.81307  21123803.48707  -3242284.88948  21123799.60148       402.22100
  -7480860.94106  23168741.16706  -5826098.81447  23168739.78047      3882.73900
   3563262.94507  22345205.51107   2768936.89348  22345204.20648     -1698.99000
 08 11 10  0 47 14.9990000  0  9  3  6 13 16 19 21 23 25 31
  -9962577.73807  19893464.12007  -7748010.60149  19893462.99949      2584.07000
  -6757234.89507  19947215.09707  -5257402.93949  19947213.42949      1460.14100
  -9002338.29307  21978979.03407  -6990524.80247  21978977.56547      2162.89600
   -315433.59007  20584983.24507   -248066.74248  20584980.17148      -226.96500
 -11390429.40607  22127527.58107  -8871135.63148  22127523.67148      4162.81200
  -5237547.80906  23578722.81506  -4073883.40346  23578719.82746      1076.24200
  -4175490.46907  21122684.45607  -3246866.44748  21122680.60148       391.97700
  -7539076.41806  23157663.33906  -5871461.51947  23157661.27647      3881.03200
   3588819.78906  22350068.20606   2788851.28648  22350067.12448     -1703.79000
 08 11 10  0 47 29.9990000  0  9  3  6 13 16 19 21 23 25 31
 -10001209.46507  19886112.84707  -7778113.23549  19886111.33949      2575.44800
  -6779009.46107  19943071.44807  -5274370.11848  19943070.00348      1451.63800
  -9034632.66806  21972834.15906  -7015689.25847  21972831.79647      2152.95800
   -311983.03107  20585639.94007   -245377.99448  20585636.52648      -230.03700
 -11452797.55106  22115659.05806  -8919734.16348  22115655.32748      4157.87600
  -5253574.92605  23575671.95605  -4086372.07246  23575669.39046      1068.47400
  -4181216.37507  21121594.74507  -3251328.18748  21121590.99548       381.72700
  -7597265.89806  23146590.69006  -5916803.95047  23146588.59747      3879.29900
   3614448.66406  22354945.12006   2808821.79947  22354943.53047     -1708.59200
 08 11 10  0 47 44.9990000  0  9  3  6 13 16 19 21 23 25 31
 -10039711.92608  19878786.00308  -7808115.13749  19878784.78049      2566.83100
  -6800657.16007  19938952.17507  -5291238.45249  19938950.70249      1443.18000
  -9066778.33607  21966716.90907  -7040737.82847  21966714.81547      2143.04500
   -308486.89807  20586305.30007   -242653.73948  20586302.14048      -233.07600
 -11515091.72307  22103804.82307  -8968275.07848  22103801.46448      4152.94500
  -5269485.72305  23572644.01905  -4098770.12046  23572640.80046      1060.72000
  -4186788.83607  21120534.35407  -3255670.36848  21120530.88248       371.49700
  -7655429.35506  23135521.94806  -5962126.11747  23135520.28847      3877.56400
   3640149.10206  22359835.82306   2828848.09047  22359833.59747     -1713.36300
 08 11 10  0 47 59.9990000  0  9  3  6 13 16 19 21 23 25 31
 -10078084.54308  19871484.01908  -7838015.87149  19871482.46049      2558.17400
  -6822177.28107  19934856.81507  -5308007.37149  19934855.26149      1434.67500
  -9098774.59406  21960628.11206  -7065669.97047  21960626.67947      2133.08400
   -304944.75007  20586979.22907   -239893.62948  20586976.69848      -236.14300
 -11577311.15606  22091964.90906  -9016757.73548  22091961.40548      4147.96200
  -5285279.75406  23569639.81506  -4111077.16446  23569635.96846      1052.93500
  -4192207.59807  21119502.96407  -3259892.76948  21119499.51148       361.25100
  -7713566.14106  23124459.19006  -6007427.47647  23124457.55847      3875.78600
   3665921.36706  22364740.95606   2848930.37448  22364738.23348     -1718.15100
 08 11 10  0 48 14.9990000  0  9  3  6 13 16 19 21 23 25 31
 -10116327.91408  19864206.28408  -7867815.89149  19864205.17949      2549.55800
  -6843570.59807  19930785.90107  -5324677.48549  19930784.28449      1426.22100
  -9130621.92206  21954567.81506  -7090486.09147  21954565.99547      2123.15500
   -301357.51607  20587662.09707   -237098.39248  20587659.76148      -239.14900
 -11639456.34806  22080139.08906  -9065182.55648  22080135.96048      4143.01300
  -5300957.53906  23566656.49506  -4123293.58146  23566653.47646      1045.18600
  -4197473.57007  21118501.36207  -3263996.14048  21118497.33948       351.06500
  -7771676.85906  23113401.08106  -6052708.54047  23113399.23747      3874.04800
   3691764.97706  22369658.86206   2869068.23448  22369656.50348     -1722.90700
 08 11 10  0 48 29.9990000  0  9  3  6 13 16 19 21 23 25 31
 -10154442.60208  19856953.58108  -7897515.63449  19856952.40949      2540.97900
  -6864837.92607  19926738.83107  -5341249.42548  19926737.07748      1417.82200
  -9162320.72306  21948535.84706  -7115186.45347  21948533.76947      2113.25300
   -297725.69107  20588352.94007   -234268.40048  20588350.84348      -242.12200
 -11701527.55906  22068327.22206  -9113549.70348  22068324.14748      4138.08100
  -5316519.60905  23563694.35405  -4135419.85546  23563691.81246      1037.47100
  -4202587.47707  21117528.09707  -3267981.01048  21117524.32748       340.92700
  -7829761.66006  23102347.83106  -6097969.43247  23102346.15947      3872.32000
   3717678.94906  22374589.56506   2889260.91848  22374588.19448     -1727.59800
 08 11 10  0 48 44.9990000  0  9  3  6 13 16 19 21 23 25 31
 -10192429.15208  19849725.08908  -7927115.54249  19849723.76149      2532.43700
  -6885979.64107  19922715.57307  -5357723.49148  19922713.79648      1409.44800
  -9193871.47306  21942531.73706  -7139771.45448  21942529.77648      2103.38300
   -294050.05107  20589052.58907   -231404.26048  20589050.22948      -245.04300
 -11763525.09006  22056529.06506  -9161859.45848  22056526.25348      4133.16900
  -5331966.29705  23560754.93305  -4147456.21846  23560753.23746      1029.77900
  -4207549.82407  21116583.97207  -3271847.79348  21116579.84348       330.82300
  -7887820.89806  23091299.46406  -6143210.38647  23091297.62847      3870.61600
   3743662.67606  22379534.97206   2909507.92548  22379532.98748     -1732.24800
 08 11 10  0 48 59.9990000  0  9  3  6 13 16 19 21 23 25 31
 -10230288.40208  19842520.56508  -7956616.23849  19842519.46849      2523.95000
  -6906996.91007  19918716.22207  -5374100.57848  19918714.60148      1401.15100
  -9225274.93006  21936556.25306  -7164241.69347  21936554.33947      2093.56400
   -290331.62107  20589760.45607   -228506.79648  20589757.97648      -247.89500
 -11825449.69106  22044745.42506  -9210112.37848  22044742.42948      4128.30700
  -5347298.58205  23557838.29205  -4159403.44446  23557835.15546      1022.15200
  -4212361.88307  21115668.22207  -3275597.43848  21115664.27648       320.80400
  -7945855.40206  23080255.79206  -6188432.06047  23080254.47647      3868.96700
   3769715.02707  22384492.30807   2929808.43848  22384490.44448     -1736.82300
 08 11 10  0 49 14.9990000  0  9  3  6 13 16 19 21 23 25 31
 -10268017.91008  19835340.79208  -7986015.85749  19835339.44449      2515.30100
  -6927887.50807  19914740.90107  -5390378.96448  19914738.92948      1392.70700
  -9256528.85207  21930608.65907  -7188595.41347  21930606.79647      2083.59500
   -286568.08607  20590476.24507   -225574.17648  20590474.09748      -250.90200
 -11887298.83606  22032975.65106  -9258306.50348  22032972.92948      4123.27600
  -5362514.18805  23554942.27605  -4171259.77246  23554939.37046      1014.37400
  -4217021.40207  21114781.40907  -3279228.23648  21114777.84348       310.63500
  -8003862.64506  23069217.72206  -6233632.51247  23069216.29247      3867.14900
   3795838.25406  22389463.63606   2950164.17348  22389461.82348     -1741.54800
 08 11 10  0 49 29.9990000  0  9  3  6 13 16 19 21 23 25 31
 -10305619.31608  19828185.40908  -8015315.62949  19828184.12449      2506.76000
  -6948653.32807  19910789.30007  -5406560.12148  19910787.61248      1384.38800
  -9287634.87907  21924689.37807  -7212833.86947  21924687.72947      2073.73500
   -282761.52007  20591200.52607   -222608.00748  20591197.97948      -253.77100
 -11949074.16406  22021220.53406  -9306443.10648  22021217.83148      4118.35500
  -5377614.78904  23552068.57304  -4183026.49346  23552066.39446      1006.70700
  -4221530.48407  21113923.51907  -3282741.79548  21113919.64748       300.60500
  -8061844.23006  23058183.90106  -6278812.94747  23058182.69047      3865.43900
   3822030.36706  22394447.69006   2970573.62448  22394445.28448     -1746.14100
 08 11 10  0 49 44.9990000  0  9  3  6 13 16 19 21 23 25 31
 -10343093.25808  19821054.56508  -8044516.10549  19821053.26149      2498.26300
  -6969294.61307  19906861.44007  -5422644.24049  19906859.90149      1376.08600
  -9318593.12907  21918798.18307  -7236957.17948  21918796.08548      2063.88300
   -278912.44907  20591933.22207   -219608.74848  20591930.81948      -256.60500
 -12010775.76606  22009478.88606  -9354522.27348  22009475.99948      4113.44000
  -5392600.58605  23549217.32305  -4194703.71846  23549215.11646       999.05300
  -4225889.74207  21113093.74507  -3286138.62548  21113090.05448       290.61700
  -8119800.30506  23047155.35406  -6323973.50947  23047153.67947      3863.73800
   3848290.87506  22399444.48706   2991036.34948  22399442.64048     -1750.70100
 08 11 10  0 49 59.9990000  0  9  3  6 13 16 19 21 23 25 31
 -10380438.56607  19813947.72207  -8073616.33849  19813946.68349      2489.68700
  -6989810.68007  19902957.29207  -5438630.77648  19902955.51548      1367.73800
  -9349402.77007  21912935.05007  -7260964.70547  21912933.32747      2053.97600
   -275019.91007  20592673.87007   -216575.59248  20592671.81948      -259.50300
 -12072402.43006  21997751.71406  -9402543.02648  21997748.44848      4108.44400
  -5407470.78105  23546386.99505  -4206290.89546  23546385.85146       991.34600
  -4230098.34807  21112293.09707  -3289418.04948  21112289.57348       280.57400
  -8177729.73006  23036131.90906  -6369113.30047  23036130.37047      3861.96200
   3874620.60206  22404455.01906   3011552.99248  22404453.23348     -1755.31500
 08 11 10  0 50 14.9990000  0  9  3  6 13 16 19 21 23 25 31
 -10417655.42607  19806865.52607  -8102616.49249  19806864.31249      2481.12400
  -7010201.81607  19899076.97207  -5454519.97549  19899075.55849      1359.40900
  -9380064.00406  21907101.09706  -7284856.59247  21907098.56247      2044.08200
   -271084.34807  20593422.72207   -213508.94348  20593420.29248      -262.37100
 -12133954.26206  21986038.77606  -9450505.48948  21986035.76548      4103.45500
  -5422225.72704  23543579.26904  -4217788.22246  23543578.70646       983.66300
  -4234156.75807  21111520.94807  -3292580.45848  21111517.13248       270.56100
  -8235632.57806  23025113.19806  -6414232.39647  23025110.90947      3860.19000
   3901018.98406  22409478.30806   3032123.13148  22409476.78048     -1759.89200
 08 11 10  0 50 29.9990000  0  9  3  6 13 16 19 21 23 25 31
 -10454744.30907  19799808.01107  -8131516.90349  19799806.45249      2472.59200
  -7030468.78107  19895220.18307  -5470312.39948  19895218.81948      1351.13100
  -9410577.13307  21901293.89407  -7308633.04447  21901292.25747      2034.20900
   -267106.30107  20594179.90107   -210409.15948  20594177.17148      -265.20300
 -12195431.69506  21974340.08906  -9498409.96548  21974336.88648      4098.49600
  -5436865.57004  23540793.12004  -4229195.86346  23540791.64046       975.99000
  -4238065.50407  21110777.15907  -3295626.22548  21110773.24148       260.58300
  -8293509.16806  23014099.94806  -6459331.03947  23014098.38247      3858.43900
   3927485.45306  22414514.47206   3052746.33648  22414513.32748     -1764.43100
 08 11 10  0 50 44.9990000  0  9  3  6 13 16 19 21 23 25 31
 -10491704.27708  19792774.65908  -8160316.87049  19792773.37849      2463.99800
  -7050610.59007  19891387.33907  -5486007.31849  19891386.10449      1342.78700
  -9440941.23407  21895515.87807  -7332293.39947  21895514.17547      2024.27300
   -263085.26608  20594944.94008   -207275.89748  20594942.27648      -268.06900
 -12256833.67206  21962656.13606  -9546255.64348  21962652.13248      4093.46500
  -5451389.50404  23538029.85404  -4240513.18946  23538028.13646       968.26200
  -4241824.05907  21110061.79207  -3298554.96948  21110057.58148       250.57000
  -8351358.37906  23003091.46406  -6504408.33647  23003089.95247      3856.61400
   3954020.62506  22419564.19006   3073423.07048  22419562.30048     -1769.01100
 08 11 10  0 50 59.9990000  0  9  3  6 13 16 19 21 23 25 31
 -10528536.21107  19785766.06507  -8189017.07849  19785764.52249      2455.46200
  -7070628.27707  19887578.14407  -5501605.51248  19887576.71048      1334.51300
  -9471156.98407  21889766.25307  -7355838.13847  21889764.92547      2014.38300
   -259021.93807  20595718.15107   -204109.66448  20595716.12848      -270.88900
 -12318160.42207  21950986.17507  -9594042.73048  21950982.33948      4088.45000
  -5465798.33204  23535287.83104  -4251740.83946  23535286.49946       960.58900
  -4245433.30507  21109374.87007  -3301367.37148  21109371.25348       240.61600
  -8409180.96506  22992087.99506  -6549464.89047  22992086.08547      3854.83900
   3980623.53906  22424626.59706   3094152.60447  22424624.77647     -1773.52800
 08 11 10  0 51 14.9990000  0  9  3  6 13 16 19 21 23 25 31
 -10565238.62908  19778781.69808  -8217616.36449  19778780.35849      2446.82800
  -7090520.50407  19883792.75307  -5517105.94549  19883791.53449      1326.14800
  -9501223.05907  21884045.15107  -7379266.26148  21884043.36648      2004.40500
   -254915.20307  20596499.74507   -200909.62148  20596497.02648      -273.78200
 -12379410.64506  21939329.98706  -9641770.16648  21939326.70648      4083.34800
  -5480090.77704  23532567.41704  -4262877.80446  23532565.93346       952.83000
  -4248892.13707  21108716.64407  -3304062.56748  21108712.91348       230.58900
  -8466975.22706  22981089.80806  -6594499.37947  22981088.23747      3852.95100
   4007295.40206  22429702.01906   3114935.84448  22429700.75748     -1778.12400
 08 11 10  0 51 29.9990000  0  9  3  6 13 16 19 21 23 25 31
 -10601812.57008  19771821.99508  -8246115.53749  19771820.60849      2438.26300
  -7110288.29307  19880031.14407  -5532509.41348  19880029.48748      1317.85300
  -9531140.10207  21878351.90907  -7402578.24347  21878350.55847      1994.47000
   -250766.17607  20597289.05007   -197676.60748  20597286.30848      -276.60200
 -12440585.02307  21927688.87807  -9689438.49548  21927685.89048      4078.29200
  -5494267.48404  23529869.77604  -4273924.53246  23529867.60846       945.11400
  -4252201.66807  21108086.82307  -3306641.41848  21108082.95248       220.63500
  -8524741.84006  22970097.61206  -6639512.31047  22970095.35147      3851.10800
   4034035.25806  22434790.26906   3135772.08748  22434789.34748     -1782.65700
 08 11 10  0 51 44.9990000  0  9  3  6 13 16 19 21 23 25 31
 -10638258.08608  19764886.82308  -8274514.63449  19764885.55849      2429.70100
  -7129932.32807  19876292.75307  -5547816.46448  19876291.42148      1309.60200
  -9560908.48407  21872687.05807  -7425774.38348  21872685.26548      1984.55900
   -246575.12107  20598086.92507   -194410.86248  20598084.23748      -279.40400
 -12501683.69907  21916062.37807  -9737047.84048  21916059.05448      4073.24500
  -5508328.85205  23527193.87805  -4284881.48246  23527191.13646       937.42400
  -4255362.44107  21107485.32307  -3309104.37448  21107481.46848       210.71800
  -8582481.06306  22959110.73706  -6684503.88947  22959108.03047      3849.28200
   4060842.62506  22439891.94006   3156660.92748  22439890.90148     -1787.15800
 08 11 10  0 51 59.9990000  0  9  3  6 13 16 19 21 23 25 31
 -10674574.80508  19757975.67508  -8302813.36649  19757974.11649      2421.11500
  -7149451.96907  19872578.50307  -5563026.56348  19872577.16348      1301.30900
  -9590527.66806  21867050.98706  -7448854.27647  21867048.85447      1974.61200
   -242341.80907  20598892.19807   -191112.18348  20598890.26148      -282.22100
 -12562706.12907  21904450.50307  -9784597.76948  21904447.30048      4068.16200
  -5522274.48404  23524540.27604  -4295748.20046  23524538.12846       929.70900
  -4258374.38307  21106912.15107  -3311451.35448  21106908.39448       200.79600
  -8640192.27306  22948127.94806  -6729473.65747  22948126.19047      3847.41400
   4087717.68807  22445006.47907   3177602.49748  22445004.90948     -1791.67100
 08 11 10  0 52 14.9990000  0  9  3  6 13 16 19 21 23 25 31
 -10710763.47308  19751089.16708  -8331012.32449  19751088.19849      2412.57800
  -7168848.34807  19868887.51107  -5578140.61649  19868886.42949      1293.09200
  -9619998.25806  21861442.64406  -7471818.36947  21861440.73747      1964.70600
   -238067.18007  20599705.71407   -187781.31348  20599703.07348      -284.97500
 -12623652.78907  21892852.40107  -9832088.66848  21892849.28848      4063.11100
  -5536105.12105  23521908.44805  -4306525.26646  23521906.39746       922.04200
  -4261238.33207  21106367.19007  -3313683.01048  21106363.40148       190.93000
  -8697876.05506  22937150.83906  -6774422.05447  22937149.03047      3845.58500
   4114659.28106  22450132.98706   3198595.92548  22450131.11248     -1796.10600
 08 11 10  0 52 29.9990000  0  9  3  6 13 16 19 21 23 25 31
 -10746822.52007  19744227.09707  -8359110.27349  19744226.08549      2403.93600
  -7188119.88307  19865220.21407  -5593157.39348  19865218.80848      1284.76900
  -9649318.67206  21855863.49506  -7494665.45447  21855861.48347      1954.69400
   -233749.79707  20600527.32307   -184417.11148  20600524.47648      -287.82600
 -12684521.90207  21881269.33107  -9879519.10948  21881266.47948      4057.94100
  -5549819.25005  23519299.32305  -4317211.58246  23519296.02246       914.27500
  -4263953.25807  21105850.72907  -3315798.54748  21105847.00348       180.99500
  -8755530.69506  22926180.00306  -6819347.72947  22926177.30847      3843.64300
   4141668.90606  22455272.94006   3219642.37448  22455271.31548     -1800.64200
 08 11 10  0 52 44.9990000  0  9  3  6 13 16 19 21 23 25 31
 -10782753.83208  19737389.74508  -8387108.69649  19737388.56949      2395.42100
  -7207268.49607  19861576.38607  -5608078.39449  19861574.56249      1276.57400
  -9678490.62106  21850312.13606  -7517396.84248  21850310.19448      1944.79700
   -229391.43807  20601356.61207   -181020.99148  20601354.27648      -290.55700
 -12745315.10907  21869700.77607  -9926890.42248  21869697.86648      4052.88000
  -5563418.59405  23516711.79205  -4327808.49446  23516708.61646       906.62300
  -4266520.76207  21105362.05007  -3317799.21448  21105358.44048       171.16700
  -8813157.81606  22915213.80006  -6864251.98447  22915211.59347      3841.80800
   4168744.46506  22460425.15906   3240740.19348  22460423.15948     -1805.03700
 08 11 10  0 52 59.9990000  0  9  3  6 13 16 19 21 23 25 31
 -10818556.29307  19730576.62007  -8415006.71749  19730575.30449      2386.83100
  -7226293.20307  19857956.04207  -5622902.82948  19857954.58548      1268.31400
  -9707513.04706  21844788.93306  -7540011.73647  21844787.67147      1934.82800
   -224991.23007  20602194.19807   -177592.26748  20602191.66348      -293.34700
 -12806031.18007  21858147.03407  -9974201.63548  21858144.17548      4047.73800
  -5576902.04704  23514145.82304  -4338315.07446  23514142.55046       898.89700
  -4268940.00807  21104901.67507  -3319684.34348  21104898.17148       161.28300
  -8870755.99606  22904252.99506  -6909133.65047  22904251.37847      3839.87900
   4195887.04706  22465590.61206   3261890.26048  22465588.46848     -1809.50500
 08 11 10  0 53 14.9990000  0  9  3  6 13 16 19 21 23 25 31
 -10854230.15208  19723788.33108  -8442804.51349  19723787.02249      2378.25700
  -7245194.33207  19854359.26907  -5637630.98149  19854357.89449      1260.07500
  -9736386.53506  21839295.07306  -7562510.55947  21839293.37847      1924.89900
   -220549.76607  20603039.40907   -174131.38348  20603036.52648      -296.09800
 -12866670.23807  21846607.93307 -10021452.84248  21846604.49948      4042.60400
  -5590269.93404  23511601.61204  -4348731.57346  23511598.21046       891.19200
  -4271211.56307  21104469.37807  -3321454.39248  21104465.77648       151.43700
  -8928325.45306  22893297.65906  -6953992.95847  22893296.33147      3837.96400
   4223096.22706  22470767.92506   3283092.19048  22470765.99148     -1813.94500
 08 11 10  0 53 29.9990000  0  9  3  6 13 16 19 21 23 25 31
 -10889775.05908  19717024.39408  -8470501.84049  19717022.97649      2369.66000
  -7263972.13307  19850786.08107  -5652263.02248  19850785.03848      1251.85300
  -9765110.45307  21833828.49507  -7584892.82247  21833827.19047      1914.92800
   -216067.01207  20603892.39407   -170638.33448  20603889.45648      -298.85000
 -12927231.98407  21835083.13607 -10068643.78948  21835080.08948      4037.45000
  -5603522.03105  23509079.79205  -4359057.91546  23509077.20246       883.47300
  -4273335.54307  21104065.14407  -3323109.45648  21104061.40548       141.59900
  -8985865.85206  22882348.05006  -6998829.60147  22882346.41747      3836.02700
   4250371.90206  22475958.23706   3304345.94748  22475956.40948     -1818.37800
 08 11 10  0 53 44.9990000  0  9  3  6 13 16 19 21 23 25 31
 -10925191.25408  19710284.94808  -8498098.87949  19710283.35449      2361.08000
  -7282626.68407  19847236.22207  -5666799.03649  19847235.39449      1243.63700
  -9793684.74206  21828391.05806  -7607158.52047  21828389.14747      1904.95300
   -211543.06307  20604753.40107   -167113.18848  20604750.48748      -301.59700
 -12987716.08607  21823573.11207 -10115774.23648  21823570.71048      4032.27300
  -5616658.43805  23506580.08105  -4369294.04646  23506576.24146       875.76000
  -4275312.18807  21103689.11207  -3324649.71348  21103685.41348       131.77600
  -9043377.07406  22871404.43306  -7043643.55247  22871402.72247      3834.08200
   4277713.83206  22481161.25306   3325651.32648  22481158.94448     -1822.79500
 08 11 10  0 53 59.9990000  0  9  3  6 13 16 19 21 23 25 31
 -10960477.25008  19703570.31508  -8525594.45249  19703568.44449      2352.40000
  -7301156.25407  19843710.07307  -5681237.65648  19843708.86248      1235.30500
  -9822107.72706  21822982.61206  -7629306.29247  21822980.19447      1894.86600
   -206976.41407  20605622.45607   -163554.76148  20605619.67548      -304.44300
 -13048120.81307  21812078.94007 -10162842.83748  21812075.90148      4026.98200
  -5629677.49204  23504102.51104  -4379438.78446  23504098.74546       867.93700
  -4277140.21507  21103341.30007  -3326074.15148  21103337.81948       121.86800
  -9100857.24606  22860466.12806  -7088433.27447  22860464.40547      3832.01100
   4305123.52306  22486376.93306   3347009.51047  22486374.97947     -1827.31300
 08 11 10  0 54 14.9990000  0  9  3  6 13 16 19 21 23 25 31
 -10995633.03508  19696880.37808  -8552988.57549  19696878.83549      2343.71900
  -7319561.31307  19840207.74507  -5695579.25549  19840206.53049      1227.00400
  -9850379.71506  21817602.24506  -7651336.40647  21817600.51547      1884.79900
   -202367.44907  20606499.45607   -159963.35748  20606497.03448      -307.26400
 -13108446.37106  21800599.22206 -10209849.74348  21800595.89448      4021.70400
  -5642579.43005  23501647.55005  -4389492.21346  23501643.60146       860.12900
  -4278819.97707  21103021.72907  -3327383.05848  21103017.87448       111.98400
  -9158306.39106  22849534.44806  -7133198.83647  22849532.73347      3829.94300
   4332600.54706  22491606.01906   3368420.14847  22491603.41347     -1831.80200
 08 11 10  0 54 29.9990000  0  9  3  6 13 16 19 21 23 25 31
 -11030658.10907  19690215.47207  -8580280.83549  19690213.88649      2335.00500
  -7337841.71107  19836729.04207  -5709823.71448  19836728.07748      1218.69300
  -9878500.21906  21812251.30806  -7673248.49147  21812249.40947      1874.70000
   -197715.80907  20607384.74507   -156338.72148  20607381.67948      -310.10900
 -13168691.88306  21789134.76906 -10256794.29048  21789131.55048      4016.36700
  -5655363.77305  23499215.08105  -4399454.08146  23499211.26946       852.29000
  -4280351.23407  21102730.03407  -3328576.25948  21102726.36648       102.08400
  -9215723.99606  22838608.14406  -7177939.79747  22838606.78047      3827.84000
   4360145.12906  22496847.42506   3389883.45647  22496845.44447     -1836.30500
 08 11 10  0 54 44.9990000  0  9  3  6 13 16 19 21 23 25 31
 -11065552.80507  19683575.12007  -8607471.51149  19683573.83949      2326.31300
  -7355997.52707  19833273.94007  -5723971.10849  19833272.79649      1210.38800
  -9906469.20306  21806928.92506  -7695042.51347  21806927.41747      1864.59900
   -193021.87107  20608277.69807   -152681.08948  20608274.99948      -312.92900
 -13228857.41407  21777685.70607 -10303676.50548  21777682.55848      4011.03500
  -5668030.69504  23496804.00304  -4409324.42246  23496801.05046       844.46100
  -4281734.45307  21102467.01907  -3329654.11148  21102463.68348        92.21500
  -9273109.90606  22827687.56506  -7222656.08547  22827686.12447      3825.72700
   4387756.87906  22502101.92506   3411399.07347  22502100.22647     -1840.78300
 08 11 10  0 54 59.9990000  0  9  3  6 13 16 19 21 23 25 31
 -11100317.22308  19676959.52608  -8634560.65849  19676958.40549      2317.62800
  -7374029.19907  19829843.05007  -5738021.74848  19829841.62848      1202.11100
  -9934287.00007  21801635.42507  -7716718.71647  21801633.90547      1854.52000
   -188285.93007  20609178.79207   -148990.75248  20609176.35848      -315.72900
 -13288943.11707  21766251.65107 -10350496.51148  21766248.83148      4005.71400
  -5680580.36304  23494415.86204  -4419103.35945  23494412.91745       836.64500
  -4282970.12907  21102232.26107  -3330616.97648  21102228.40948        82.37800
  -9330464.25006  22816773.62006  -7267347.76947  22816772.48347      3823.62300
   4415435.31306  22507369.12006   3432966.65547  22507367.44847     -1845.22900
 08 11 10  0 55 14.9990000  0  9  3  6 13 16 19 21 23 25 31
 -11134951.06608  19670368.72908  -8661548.06449  19670367.83949      2308.92300
  -7391936.65607  19826435.29207  -5751975.60549  19826433.38249      1193.83000
  -9961953.31607  21796371.04207  -7738276.88148  21796368.91748      1844.42100
   -183507.95307  20610088.06507   -145267.64948  20610085.00348      -318.53200
 -13348948.44907  21754833.00307 -10397253.91048  21754829.79648      4000.35500
  -5693012.60904  23492050.81504  -4428790.83945  23492046.72945       828.81600
  -4284058.10907  21102024.83907  -3331464.75748  21102021.55848        72.53200
  -9387786.50006  22805865.64406  -7312014.44447  22805864.34347      3821.48300
   4443180.67206  22512648.98706   3454586.38848  22512647.63648     -1849.69100
 08 11 10  0 55 29.9990000  0  9  3  6 13 16 19 21 23 25 31
 -11169453.99608  19663803.01108  -8688433.45349  19663802.17549      2300.19500
  -7409719.55907  19823051.44007  -5765832.41148  19823049.53048      1185.52700
  -9989467.58607  21791135.15107  -7759716.57747  21791132.89447      1834.28500
   -178687.48007  20611005.08907   -141511.43748  20611002.42948      -321.36500
 -13408872.81307  21743430.26107 -10443948.20048  21743426.98348      3994.95800
  -5705326.75804  23489706.70604  -4438386.28145  23489703.88645       820.94300
  -4284998.28107  21101845.98707  -3332197.35448  21101842.60848        62.67800
  -9445076.00406  22794963.52606  -7356655.61947  22794962.77247      3819.30000
   4470993.19906  22517941.44806   3476258.47348  22517939.68348     -1854.16800
 08 11 10  0 55 44.9980000  0  9  3  6 13 16 19 21 23 25 31
 -11203824.19108  19657262.60008  -8715215.42649  19657261.95149      2291.34600
  -7427377.43407  19819691.19307  -5779591.79049  19819689.13949      1177.19200
 -10016828.59407  21785928.59207  -7781036.85947  21785926.10747      1824.06700
   -173825.59807  20611930.64607   -137722.97048  20611927.86148      -324.12600
 -13468712.55506  21732042.73206 -10490576.54648  21732039.71748      3989.31600
  -5717522.66802  23487386.66202  -4447889.64545  23487383.42445       813.06100
  -4285791.35207  21101695.17807  -3332815.33948  21101691.68648        52.87100
  -9502329.39106  22784068.93606  -7401268.63547  22784067.68947      3816.89200
   4498870.16806  22523246.13906   3497980.76548  22523244.47948     -1858.46500
 08 11 10  0 55 59.9980000  0  9  3  6 13 16 19 21 23 25 31
 -11238066.85908  19650746.42008  -8741898.02049  19650745.19349      2282.84500
  -7444913.27307  19816354.00607  -5793256.07848  19816352.11148      1169.05600
 -10044040.43807  21780750.32607  -7802240.88347  21780747.83447      1814.12300
   -168922.41807  20612863.63907   -133902.30448  20612861.23648      -326.87900
 -13528476.13306  21720670.38106 -10537145.55548  21720666.98648      3984.23900
  -5729602.77303  23485088.11503  -4457302.68445  23485084.63145       805.34000
  -4286438.22707  21101572.04507  -3333319.40948  21101568.53348        43.12500
  -9559554.70306  22773178.76406  -7445859.75947  22773177.85047      3815.02100
   4526814.57806  22528563.70906   3519755.61648  22528561.52148     -1862.96100
 08 11 10  0 56 14.9980000  0  9  3  6 13 16 19 21 23 25 31
 -11272179.25808  19644255.40408  -8768479.10249  19644254.27949      2274.16000
  -7462325.76207  19813040.62307  -5806824.25248  19813038.45548      1160.83300
 -10071100.85207  21775600.77907  -7823326.93247  21775598.32247      1804.02800
   -163977.76207  20613804.37307   -130049.32448  20613801.96748      -329.64400
 -13588158.85206  21709312.85006 -10583651.55448  21709309.55348      3978.84800
  -5741565.74203  23482811.78703  -4466624.44545  23482807.83845       797.53100
  -4286938.68807  21101476.45107  -3333709.38448  21101473.29148        33.36400
  -9616747.44506  22762295.45906  -7490425.52447  22762294.26047      3812.84900
   4554824.75406  22533894.19306   3541581.70948  22533892.37348     -1867.34500
 08 11 10  0 56 29.9980000  0  9  3  6 13 16 19 21 23 25 31
 -11306162.13307  19637788.47507  -8794959.26649  19637787.33049      2265.52500
  -7479615.54707  19809750.79507  -5820296.80848  19809748.80748      1152.65200
 -10098010.53907  21770480.34207  -7844295.51247  21770478.18647      1793.97900
   -158992.66807  20614752.95907   -126164.85348  20614750.61948      -332.34000
 -13647761.35506  21697970.85006 -10630095.03948  21697967.47548      3973.50000
  -5753412.29313  23480556.68603  -4475855.45755  23480553.74445       789.72200
  -4287293.80507  21101409.39607  -3333986.11748  21101405.87748        23.67400
  -9673908.22706  22751418.75606  -7534966.37147  22751417.19347      3810.71900
   4582899.79706  22539236.63906   3563458.33948  22539235.27948     -1871.67000
 08 11 10  0 56 44.9980000  0  9  3  6 13 16 19 21 23 25 31
 -11340015.34008  19631346.45108  -8821338.38649  19631344.90849      2256.88000
  -7496782.65207  19806483.49007  -5833673.77648  19806482.02548      1144.47400
 -10124769.19507  21765388.11507  -7865146.43147  21765386.38947      1783.91000
   -153967.11307  20615709.18607   -122248.83848  20615707.00248      -335.03700
 -13707283.27306  21686643.93606 -10676475.75248  21686640.92048      3968.12800
  -5765142.15602  23478324.59202  -4484995.59445  23478321.56445       781.99100
  -4287503.52307  21101368.99007  -3334149.53748  21101365.71348        13.98100
  -9731036.56606  22740546.92806  -7579481.97147  22740545.48647      3808.55600
   4611039.78106  22544591.23206   3585385.56948  22544589.69348     -1875.99900
 08 11 10  0 56 59.9980000  0  9  3  6 13 16 19 21 23 25 31
 -11373738.50807  19624929.10007  -8847616.16749  19624927.36549      2248.21100
  -7513826.90207  19803240.26407  -5846955.01148  19803238.49048      1136.28300
 -10151376.57407  21760324.79507  -7885879.46447  21760322.93947      1773.82500
   -148900.77707  20616673.56107   -118301.05048  20616671.04548      -337.75600
 -13766724.05506  21675332.90406 -10722793.23048  21675329.49448      3962.71900
  -5776754.91002  23476114.67002  -4494044.53145  23476111.61945       774.18400
  -4287567.74207  21101356.85007  -3334199.58148  21101353.06448         4.28100
  -9788131.97706  22729681.82606  -7623971.87947  22729680.89647      3806.36100
   4639245.02706  22549958.87306   3607363.65348  22549956.91248     -1880.35000
 08 11 10  0 57 14.9980000  0  9  3  6 13 16 19 21 23 25 31
 -11407331.61708  19618536.56808  -8873792.61849  19618535.09649      2239.54100
  -7530748.48407  19800019.98207  -5860140.66048  19800018.41648      1128.10500
 -10177832.70307  21755290.22507  -7906494.62547  21755288.31147      1763.74200
   -143793.86707  20617645.20107   -114321.65248  20617643.00248      -340.46100
 -13826083.64106  21664037.06106 -10769047.43748  21664033.51448      3957.30600
  -5788250.92602  23473926.86502  -4503002.44545  23473924.43945       766.40100
  -4287486.82807  21101372.52107  -3334136.54748  21101368.49448        -5.39400
  -9845194.35906  22718823.27106  -7668436.05547  22718822.43647      3804.15900
   4667515.06306  22555338.28706   3629392.23748  22555336.78348     -1884.66900
 08 11 10  0 57 29.9980000  0  9  3  6 13 16 19 21 23 25 31
 -11440795.85508  19612168.63108  -8899868.63349  19612167.13549      2230.94900
  -7547548.69907  19796823.10707  -5873231.72948  19796821.88148      1120.01400
 -10204138.53507  21750284.26407  -7926992.66147  21750282.51847      1753.72200
   -138647.65207  20618624.55307   -110311.60748  20618622.04548      -343.08100
 -13885362.83206  21652756.72506 -10815238.99748  21652753.17048      3951.94600
  -5799631.16002  23471761.07602  -4511870.14145  23471758.68945       758.68200
  -4287262.05107  21101415.05307  -3333961.41448  21101411.54948       -14.98500
  -9902224.58606  22707970.77906  -7712875.18147  22707969.42047      3802.01500
   4695848.62106  22560729.89606   3651470.31648  22560728.20148     -1888.90400
 08 11 10  0 57 44.9980000  0  9  3  6 13 16 19 21 23 25 31
 -11474130.99208  19605825.21708  -8925844.07149  19605823.74849      2222.34200
  -7564227.29707  19793649.52907  -5886228.03749  19793647.67449      1111.90700
 -10230293.84407  21745307.42007  -7947373.44347  21745305.50247      1743.68700
   -133461.91407  20619611.51407   -106270.79048  20619609.08848      -345.71600
 -13944561.15606  21641491.80306 -10861367.55648  21641488.02148      3946.55500
  -5810895.37903  23469617.59203  -4520647.43845  23469615.43245       750.94800
  -4286893.37507  21101485.17807  -3333674.14148  21101481.23648       -24.57800
  -9959222.11706  22697124.93606  -7757288.84147  22697123.18247      3799.83500
   4724245.71906  22566134.06806   3673597.91048  22566131.60048     -1893.14000
 08 11 10  0 57 59.9980000  0  9  3  6 13 16 19 21 23 25 31
 -11507335.40608  19599506.24808  -8951717.62749  19599505.12749      2213.62800
  -7580783.06607  19790498.90407  -5899128.63248  19790497.74848      1103.71800
 -10256297.17606  21740359.02106  -7967635.78747  21740356.79147      1733.55500
   -128235.46907  20620606.10007   -102198.23348  20620603.29548      -348.43000
 -14003677.12906  21630242.17806 -10907431.94548  21630238.94748      3941.06500
  -5822042.19102  23467496.19302  -4529333.31345  23467494.46745       743.12100
  -4286379.72307  21101582.83407  -3333273.89548  21101579.08048       -34.24300
 -10016185.50806  22686284.52906  -7801675.87247  22686283.21747      3797.55900
   4752707.61306  22571549.83406   3695776.01347  22571547.76447     -1897.46000
 08 11 10  0 58 14.9980000  0  9  3  6 13 16 19 21 23 25 31
 -11540410.10208  19593212.46708  -8977490.12949  19593211.46749      2204.98000
  -7597216.94907  19787371.78707  -5911934.25449  19787370.21349      1095.59200
 -10282149.30506  21735439.65406  -7987780.31348  21735437.68948      1723.47500
   -122969.16807  20621608.42807    -98094.62648  20621605.98248      -351.08700
 -14062711.23806  21619008.19306 -10953432.53848  21619004.98648      3935.60700
  -5833072.41401  23465397.92001  -4537928.27345  23465395.27945       735.34800
  -4285722.07407  21101708.04507  -3332761.45548  21101704.06148       -43.84300
 -10073115.21506  22675451.29506  -7846036.68047  22675449.88947      3795.31400
   4781233.32006  22576977.83406   3718003.78948  22576976.75648     -1901.71400
 08 11 10  0 58 29.9980000  0  9  3  6 13 16 19 21 23 25 31
 -11573355.11308  19586943.29508  -9003161.55949  19586942.21749      2196.33400
  -7613529.23007  19784267.74007  -5924645.12448  19784265.98248      1087.48500
 -10307850.22306  21730548.70906  -8007807.00647  21730547.36547      1713.39500
   -117663.18007  20622618.23207    -93960.09748  20622615.47548      -353.73300
 -14121663.43006  21607790.24006 -10999369.30348  21607786.99048      3930.14600
  -5843985.84001  23463321.37301  -4546432.19545  23463317.31445       727.56200
  -4284920.76607  21101860.83407  -3332137.07548  21101856.74448       -53.42100
 -10130011.14806  22664624.49806  -7890371.15747  22664623.02547      3793.06200
   4809822.78106  22582418.24806   3740281.28648  22582417.21348     -1905.96400
 08 11 10  0 58 44.9980000  0  9  3  6 13 16 19 21 23 25 31
 -11606169.67608  19580698.77108  -9028731.34949  19580697.92449      2187.63700
  -7629719.07807  19781186.92807  -5937260.58849  19781184.94349      1079.32300
 -10333398.98806  21725686.85006  -8027715.14748  21725685.44748      1703.25100
   -112316.77707  20623635.54507    -89794.06848  20623632.86548      -356.42700
 -14180532.76206  21596587.57606 -11045241.49748  21596584.43248      3924.62200
  -5854781.84811  23461264.74801         0.00000         0.00000       719.77500
  -4283975.29307  21102040.69307  -3331400.34048  21102036.81848       -63.03200
 -10186872.28106  22653804.12306  -7934678.53647  22653802.56847      3790.74200
   4838476.34406  22587871.17806   3762608.69648  22587869.73648     -1910.23800
 08 11 10  0 58 59.9980000  0  9  3  6 13 16 19 21 23 25 31
 -11638853.91407  19574479.35707  -9054199.59049  19574477.97549      2178.94900
  -7645787.03907  19778129.24007  -5949781.06748  19778127.48248      1071.19700
 -10358795.97706  21720853.95906  -8047504.99247  21720852.20947      1693.13300
   -106930.45707  20624660.46707    -85596.94148  20624657.60748      -359.08800
 -14239319.36706  21585400.59206 -11091049.23348  21585397.63148      3919.10700
         0.00000  23459232.86501         0.00000         0.00000         0.00000
  -4282886.17207  21102247.77107  -3330551.69048  21102244.43248       -72.60800
 -10243698.72706  22642990.31806  -7978958.85947  22642988.86547      3788.43000
   4867193.62906  22593335.68606   3784985.76148  22593334.38148     -1914.48600
 08 11 10  0 59 14.9980000  0  9  3  6 13 16 19 21 23 25 31
 -11671407.92208  19568284.80308  -9079566.35549  19568283.47549      2170.26700
  -7661733.03907  19775094.60007  -5962206.52348  19775092.96348      1063.06700
 -10384041.00406  21716050.47506  -8067176.44248  21716048.79548      1683.00200
   -101504.06607  20625693.09207    -81368.59448  20625690.39648      -361.75900
 -14298022.84807  21574230.20107 -11136792.19048  21574226.58848      3913.56500
  -5876022.55901  23457224.69301         0.00000         0.00000       700.26600
  -4281653.47707  21102482.51407  -3329591.15348  21102479.10048       -82.18000
 -10300490.10206  22632183.41206  -8023211.89047  22632181.67847      3786.09200
   4895974.65606  22598812.85006   3807412.50447  22598811.38947     -1918.73500
 08 11 10  0 59 29.9980000  0  9  3  6 13 16 19 21 23 25 31
 -11703831.29708  19562114.78708  -9104831.30949  19562113.65049      2161.55800
  -7677556.79307  19772083.52907  -5974536.72048  19772081.76048      1054.91700
 -10409133.60507  21711275.27907  -8086729.12048  21711273.68948      1672.84000
    -96037.47307  20626733.24007    -77108.90148  20626730.60048      -364.44000
 -14356642.65207  21563075.22507 -11182469.97148  21563071.69348      3907.98700
         0.00000  23455234.71701         0.00000         0.00000         0.00000
  -4280276.96507  21102744.54507  -3328518.54448  21102741.01048       -91.76700
 -10357245.84006  22621383.05306  -8067437.12447  22621381.15047      3783.71600
   4924819.60506  22604301.90406   3829889.05847  22604300.02947     -1922.99700
 08 11 10  0 59 44.9980000  0  9  3  6 13 16 19 21 23 25 31
 -11736125.07408  19555968.95108  -9129995.28649  19555967.86949      2152.91800
  -7693259.76607  19769095.17807  -5986772.79148  19769094.00648      1046.86500
 -10434075.16006  21706529.20106  -8106164.09248  21706527.21748      1662.77000
    -90531.94507  20627781.27107    -72818.89148  20627778.35748      -367.03500
 -14415180.02007  21551935.77907 -11228083.47748  21551932.65848      3902.49100
  -5896794.32811  23453270.46701         0.00000         0.00000       684.42200
  -4278758.26607  21103033.49807  -3327335.16148  21103029.93648      -101.24700
 -10413967.02706  22610589.38106  -8111635.45347  22610587.60447      3781.41200
   4953726.96106  22609802.61506   3852414.24647  22609800.64647     -1927.15700
 08 11 10  0 59 59.9980000  0  8  3  6 13 16 19 23 25 31
 -11768287.81607  19549849.02107  -9155057.16449  19549847.33049      2144.18300
  -7708840.49207  19766130.20907  -5998913.60748  19766128.85448      1038.71500
 -10458863.93407  21701812.13907  -8125480.03247  21701810.16647      1652.58500
    -84986.11307  20628836.63107    -68497.47048  20628833.40448      -369.72200
 -14473632.95707  21540812.85707 -11273631.20648  21540809.14648      3896.86300
  -4277096.11307  21103349.81807  -3326039.98148  21103346.25248      -110.81000
 -10470651.76606  22599802.81106  -8155805.35747  22599800.82647      3778.98300
   4982698.17606  22615315.66206   3874989.20547  22615314.13947     -1931.41400
 08 11 10  1  0 14.9980000  0  8  3  6 13 16 19 23 25 31
 -11800320.05108  19543753.40408  -9180017.33949  19543751.54949      2135.48200
  -7724299.76607  19763188.49007  -6010959.79549  19763186.94349      1030.61800
 -10483500.57007  21697123.56807  -8144677.42948  21697121.83048      1642.44200
    -79400.57807  20629899.02907    -64145.10248  20629896.56148      -372.36900
 -14532001.87106  21529705.29506 -11319113.47348  21529702.18948      3891.26100
  -4275291.18807  21103693.19307  -3324633.55848  21103689.48648      -120.32800
 -10527300.49606  22589022.83406  -8199947.23647  22589020.66247      3776.58200
   5011732.55106  22620841.44306   3897613.36348  22620839.29548     -1935.62500
 08 11 10  1  0 29.9980000  0  8  3  6 13 16 19 23 25 31
 -11832220.69108  19537682.64608  -9204874.97849  19537681.33049      2126.70900
  -7739636.37907  19760270.23207  -6022910.40248  19760268.76848      1022.44100
 -10507983.79307  21692464.67007  -8163755.25447  21692463.01047      1632.21500
    -73774.33607  20630969.65407    -59761.01748  20630967.22548      -375.08300
 -14590285.44106  21518614.36506 -11364529.22748  21518611.31148      3885.57100
  -4273342.75407  21104063.93607  -3323115.30648  21104060.29948      -129.89600
 -10583911.85206  22578249.87306  -8244059.95347  22578247.62747      3774.09000
   5040830.93006  22626377.64606   3920287.40748  22626376.56448     -1939.89200
 08 11 10  1  0 44.9980000  0  8  3  6 13 16 19 23 25 31
 -11863990.62508  19531636.98208  -9229630.75349  19531635.50649      2117.99600
  -7754851.25807  19757374.60007  -6034766.14449  19757373.53349      1014.32500
 -10532314.36307  21687834.91207  -8182714.15548  21687832.98248      1622.03800
    -68108.23807  20632048.08407    -55345.88448  20632045.55748      -377.74000
 -14648484.32806  21507539.02106 -11409879.00348  21507536.19748      3879.92600
  -4271251.73007  21104462.21707  -3321485.94948  21104458.20948      -139.40200
 -10640486.34006  22567484.10706  -8288143.96947  22567481.99047      3771.63300
   5069992.42206  22631927.31106   3943010.62548  22631926.22148     -1944.09900
 08 11 10  1  0 59.9980000  0  8  3  6 13 16 19 23 25 31
 -11895629.32007  19525616.51407  -9254284.27149  19525614.74449      2109.24600
  -7769944.44907  19754502.58407  -6046527.05948  19754501.29148      1006.21300
 -10556491.84407  21683233.89607  -8201553.75347  21683232.01847      1611.83200
    -62401.99607  20633133.86507    -50899.46348  20633131.27948      -380.41600
 -14706597.83206  21496480.61506 -11455162.22948  21496477.67448      3874.23400
  -4269017.98807  21104886.83407  -3319745.38248  21104882.83848      -148.91600
 -10697023.43406  22556725.18606  -8332198.81747  22556723.07647      3769.14000
   5099217.16406  22637488.82606   3965783.11148  22637487.81848     -1948.31600
 08 11 10  1  1 14.9980000  0  8  3  6 13 16 19 23 25 31
 -11927136.55108  19519620.98208  -9278835.35949  19519619.36949      2100.48200
  -7784915.59807  19751653.74807  -6058192.88748  19751652.05348       998.07700
 -10580515.93806  21678662.60706  -8220273.84847  21678660.22947      1601.60600
    -56655.37907  20634227.55307    -46421.59348  20634225.02948      -383.10800
 -14764625.53506  21485438.28706 -11500378.61148  21485435.44748      3868.51400
  -4266641.63307  21105339.10707  -3317893.67848  21105335.62348      -158.42400
 -10753522.52706  22545974.12306  -8376224.10547  22545971.97547      3766.60600
   5128505.34006  22643062.42806   3988605.03648  22643060.74848     -1952.54500
 08 11 10  1  1 29.9980000  0  8  3  6 13 16 19 23 25 31
 -11958513.05907  19513650.14607  -9303284.56849  19513648.65449      2091.76700
  -7799765.54707  19748827.95907  -6069764.26448  19748826.42448       989.99700
 -10604387.47707  21674119.69307  -8238875.02447  21674117.59247      1591.43600
    -50869.46107  20635328.29507    -41913.09348  20635325.67048      -385.72800
 -14822568.18006  21474412.03706 -11545528.71148  21474409.11548      3862.84300
  -4264123.44507  21105817.95107  -3315931.46248  21105814.60048      -167.87900
 -10809984.23806  22535230.05306  -8420220.22847  22535227.93247      3764.11400
   5157856.10206  22648647.69306   4011475.73848  22648646.25648     -1956.71700
 08 11 10  1  1 44.9980000  0  8  3  6 13 16 19 23 25 31
 -11989759.00007  19507704.21707  -9327632.07049  19507702.70549      2083.06300
  -7814494.86307  19746025.18607  -6081241.66049  19746023.54949       981.95400
 -10628106.72706  21669606.16206  -8257357.57548  21669604.21748      1581.28300
    -45044.46507  20636437.07607    -37374.15348  20636434.37348      -388.33300
 -14880425.77706  21463402.40406 -11590612.54048  21463399.68248      3857.17300
  -4261464.12507  21106324.35007  -3313859.28148  21106320.82648      -177.28800
 -10866408.70706  22524492.44306  -8464187.35147  22524490.69747      3761.63100
   5187268.80506  22654244.39606   4034394.70948  22654242.95548     -1960.84700
 08 11 10  1  1 59.9980000  0  8  3  6 13 16 19 23 25 31
 -12020874.89507  19501783.31807  -9351878.20049  19501781.34249      2074.39300
  -7829103.80907  19743245.01407  -6092625.23648  19743243.28348       973.93000
 -10651673.92606  21665121.12306  -8275721.62147  21665119.24447      1571.14700
    -39180.82407  20637552.56107    -32805.07248  20637550.31448      -390.90900
 -14938198.35506  21452408.81106 -11635630.11748  21452405.58048      3851.50500
  -4258664.22706  21106857.26406  -3311677.53448  21106853.87348      -186.66000
 -10922795.89106  22513762.61506  -8508125.38847  22513760.04147      3759.14600
   5216742.93006  22659852.80306   4057361.54248  22659851.98648     -1964.94200
 08 11 10  1  2 14.9980000  0  8  3  6 13 16 19 23 25 31
 -12051859.12507  19495886.94307  -9376021.76149  19495885.98249      2065.61500
  -7843591.02007  19740488.12307  -6103913.97948  19740486.54548       965.81400
 -10675087.37107  21660666.41207  -8293965.87148  21660663.91648      1560.89600
    -33277.09007  20638676.07607    -28204.77048  20638673.60048      -393.58200
 -14995884.30506  21441430.73206 -11680580.19348  21441428.19348      3845.73000
  -4255722.42207  21107417.23207  -3309385.23748  21107413.67048      -196.12000
 -10979144.07406  22503039.38906  -8552033.07047  22503037.75647      3756.54600
   5246279.93006  22665474.19306   4080377.35648  22665472.47148     -1969.13300
 08 11 10  1  2 29.9980000  0  9  3  6 13 16 19 21 23 25 31
 -12082713.39107  19490015.79507  -9400064.04349  19490014.61949      2056.95100
  -7857958.28107  19737754.11507  -6115109.23448  19737752.59648       957.81700
 -10698348.68806  21656239.70106  -8312091.57747  21656236.68947      1550.75400
    -27334.93407  20639806.98207    -23574.51048  20639804.04548      -396.14400
 -15053484.82406  21430469.99806 -11725463.69348  21430467.29148      3840.03500
         0.00000  23433134.02901         0.00000         0.00000         0.00000
  -4252640.46107  21108003.29507  -3306983.71048  21108000.12748      -205.46400
 -11035454.56606  22492323.71706  -8595911.36447  22492322.78347      3754.03300
   5275878.00806  22671106.63906   4103440.78348  22671105.01848     -1973.20500
 08 11 10  1  2 44.9980000  0  9  3  6 13 16 19 21 23 25 31
 -12113436.94907  19484169.24007  -9424004.46849  19484168.09649      2048.23700
  -7872205.06607  19735043.01407  -6126210.64249  19735041.45949       949.78600
 -10721457.39106  21651841.97506  -8330098.38848  21651839.68648      1540.58000
    -21353.77307  20640944.97507    -18913.87848  20640942.28348      -398.74400
 -15110999.08206  21419525.60706 -11770279.99048  21419522.55748      3834.28400
    -21022.73001  23431438.10001         0.00000         0.00000       590.42200
  -4249418.00807  21108616.88107  -3304472.71748  21108613.26048      -214.83000
 -11091726.48006  22481615.83406  -8639759.60547  22481614.59647      3751.46100
   5305537.68805  22676750.54505   4126552.21647  22676749.11147     -1977.31200
 08 11 10  1  2 59.9980000  0  9  3  6 13 16 19 21 23 25 31
 -12144030.03907  19478347.38107  -9447843.22549  19478346.06149      2039.53900
  -7886331.98807  19732355.02107  -6137218.62548  19732353.46748       941.79500
 -10744413.76607  21647473.57607  -8347986.45347  21647471.52147      1530.42500
    -15334.16007  20642090.40407    -14223.26848  20642088.10748      -401.30800
 -15168427.54306  21408597.39606 -11815029.42748  21408594.40448      3828.56400
    -29820.64511  23429763.20101         0.00000         0.00000         0.00000
  -4246055.80507  21109256.74807  -3301852.82148  21109253.11548      -224.14700
 -11147960.09406  22470915.00606  -8683577.97847  22470913.42047      3748.90800
   5335258.36305  22682406.27905   4149711.13948  22682404.43948     -1981.37800
 08 11 10  1  3 14.9980000  0  9  3  6 13 16 19 21 23 25 31
 -12174493.56607  19472550.29507  -9471581.03149  19472549.10449      2030.90200
  -7900339.69507  19729689.32607  -6148133.72248  19729687.87348       933.84700
 -10767218.21507  21643134.14607  -8365756.17347  21643132.36147      1520.29700
     -9276.78507  20643243.63907     -9503.24648  20643240.94748      -403.82500
 -15225770.45706  21397685.38106 -11859712.21248  21397682.22148      3822.86100
    -38502.06301  23428111.49801         0.00000         0.00000       578.76100
  -4242554.63307  21109923.32607  -3299124.65848  21109919.33848      -233.41100
 -11204155.81606  22460221.14606  -8727366.85947  22460220.01847      3746.38200
   5365039.26206  22688072.85006   4172916.99247  22688071.52947     -1985.39300
 08 11 10  1  3 29.9980000  0  9  3  6 13 16 19 21 23 25 31
 -12204826.24607  19466778.02107  -9495216.88149  19466776.79549      2022.17900
  -7914227.13307  19727046.26407  -6158955.08548  19727044.87748       925.82900
 -10789869.60507  21638823.43607  -8383406.61547  21638822.17847      1510.09300
     -3180.45307  20644403.36507     -4752.85548  20644401.07248      -406.42200
 -15283026.37907  21386789.84207 -11904327.19048  21386786.95548      3817.06100
    -47065.77001  23426482.68601         0.00000         0.00000       570.91400
  -4238913.56607  21110615.70907  -3296287.47048  21110611.99448      -242.73800
 -11260312.01606  22449535.01406  -8771124.91847  22449533.94747      3743.74700
   5394881.39806  22693751.71706   4196170.59247  22693750.04147     -1989.47600
 08 11 10  1  3 44.9980000  0  9  3  6 13 16 19 21 23 25 31
 -12235028.45707  19461030.99807  -9518751.07549  19461029.73649      2013.48100
  -7927994.91407  19724426.37307  -6169683.23548  19724424.84648       917.85200
 -10812368.42207  21634542.12307  -8400938.16848  21634540.67848      1499.92100
      2954.31307  20645571.23207        27.48248  20645568.04148      -408.98400
 -15340195.69106  21375910.92806 -11948874.69848  21375907.71748      3811.28700
    -55512.18802  23424875.54502         0.00000         0.00000       563.09500
  -4235133.34807  21111335.30307  -3293341.86948  21111331.30748      -252.01500
 -11316429.04306  22438856.17006  -8814852.45847  22438855.07647      3741.13500
   5424784.17606  22699442.38106   4219471.42848  22699440.22148     -1993.51800
 08 11 10  1  3 59.9980000  0  9  3  6 13 16 19 21 23 25 31
 -12265098.77707  19455308.67007  -9542182.48749  19455307.54549      2004.68800
  -7941641.66807  19721829.86507  -6180317.06548  19721827.98248       909.78400
 -10834713.09007  21630289.90407  -8418349.60347  21630288.36947      1489.64500
      9129.07007  20646745.87307      4838.97748  20646743.29548      -411.65100
 -15397276.71107  21365048.86507 -11993353.39048  21365045.75648      3805.40100
    -63839.94502  23423290.61502         0.00000         0.00000       555.18400
  -4231212.91407  21112081.58407  -3290286.97948  21112077.27548      -261.36200
 -11372505.08606  22428185.76406  -8858548.06547  22428184.22147      3738.40300
   5454748.89806  22705144.37306   4242820.52347  22705142.10047     -1997.64800
 08 11 10  1  4 14.9980000  0  9  3  6 13 16 19 21 23 25 31
 -12295037.71507  19449611.35707  -9565511.51849  19449609.86949      1995.92900
  -7955167.91407  19719255.49807  -6190856.99848  19719254.31448       901.75000
 -10856904.20707  21626067.40407  -8435641.40648  21626065.67448      1479.40800
     15342.82807  20647928.43607      9680.85948  20647925.65048      -414.25100
 -15454269.66007  21354203.24007 -12037763.47048  21354200.16648      3799.53000
    -72049.43803  23421727.96703         0.00000         0.00000       547.29900
  -4227152.79307  21112854.06807  -3287123.26448  21112850.11148      -270.67500
 -11428540.48006  22417521.72506  -8902212.00747  22417520.95147      3735.69300
   5484774.87106  22710858.30306   4266217.34747  22710855.75247     -2001.73200
 08 11 10  1  4 29.9980000  0  9  3  6 13 16 19 21 23 25 31
 -12324845.92207  19443939.42007  -9588738.68449  19443937.48249      1987.21400
  -7968574.71507  19716704.22507  -6201303.84048  19716703.18948       893.78700
 -10878942.34807  21621873.95907  -8452813.97247  21621871.83047      1469.20900
     21594.96907  20649117.91207     14552.65748  20649115.24448      -416.80900
 -15511174.94107  21343374.62307 -12082105.22648  21343371.45948      3793.68500
    -80141.44504  23420188.85704  -4645902.73055  23420186.89345       539.46700
  -4222953.69507  21113652.92007  -3283851.25248  21113649.11948      -279.94000
 -11484535.61706  22406866.63106  -8945844.56847  22406865.19347      3733.00900
   5514861.40606  22716583.84206   4289661.37547  22716581.02547     -2005.76900
 08 11 10  1  4 44.9980000  0  9  3  6 13 16 19 21 23 25 31
 -12354523.25407  19438291.85707  -9611863.88449  19438290.63149      1978.48900
  -7981861.64507  19714176.16207  -6211657.28849  19714174.63149       885.79500
 -10900827.27707  21617709.19307  -8469867.17848  21617708.09248      1458.99500
     27885.74207  20650315.15407     19454.54948  20650312.40848      -419.38500
 -15567992.18407  21332562.69307 -12126378.39048  21332559.38948      3787.81600
    -88115.72704  23418670.98204  -4652116.48445  23418667.91245       531.61900
  -4218615.80507  21114478.44307  -3280471.10848  21114474.82248      -289.19300
 -11540489.99606  22396218.77106  -8989445.38047  22396217.25647      3730.29200
   5545008.35906  22722320.19306   4313152.50647  22722317.60747     -2009.79700
 08 11 10  1  4 59.9980000  0  9  3  6 13 16 19 21 23 25 31
 -12384067.71907  19432669.88107  -9634885.53449  19432668.15849      1969.63100
  -7995027.11307  19711670.94307  -6221916.08348  19711669.60048       877.69800
 -10922557.08607  21613574.11507  -8486799.49848  21613572.59648      1448.65400
     34216.84407  20651520.02907     24387.87348  20651517.11948      -422.07300
 -15624719.37106  21321767.59206 -12170581.35648  21321764.57648      3781.81300
    -95970.37504  23417176.24004  -4658236.98045  23417172.61945       523.64300
  -4214137.60207  21115330.65407  -3276981.60248  21115327.08448      -298.54700
 -11596401.61705  22385579.16205  -9033012.85147  22385577.91247      3727.44100
   5575217.50006  22728069.04506   4336692.06847  22728067.00247     -2013.94300
 08 11 10  1  5 14.9980000  0  9  3  6 13 16 19 21 23 25 31
 -12413479.77307  19427072.95107  -9657804.01849  19427071.18249      1960.80400
  -8008071.81307  19709188.49807  -6232080.79148  19709186.97148       869.64700
 -10944132.27307  21609468.27907  -8503611.33647  21609466.83847      1438.34600
     40587.84007  20652732.45907     29352.26648  20652729.22148      -424.73300
 -15681356.77306  21310989.86506 -12214714.40748  21310986.75248      3775.82700
   -103705.68004  23415704.56804  -4664264.48445  23415700.77145       515.68700
  -4209519.82007  21116209.67807  -3273383.34548  21116205.96348      -307.85200
 -11652270.56306  22374947.56806  -9076547.08647  22374946.18647      3724.59600
   5605488.20706  22733829.60006   4360279.62447  22733827.78347     -2018.04700
 08 11 10  1  5 29.9980000  0  9  3  6 13 16 19 21 23 25 31
 -12442759.66007  19421501.26407  -9680619.50849  19421499.96349      1951.99200
  -8020995.89107  19706729.10007  -6242151.50248  19706727.32648       861.60500
 -10965552.86706  21605392.06806  -8520302.71148  21605390.72948      1428.04000
     46998.47307  20653952.11507     34347.56248  20653949.47548      -427.37600
 -15737904.36307  21300229.27107 -12258777.44948  21300226.41248      3769.83900
   -111321.89103  23414254.17003  -4670199.19945  23414250.78745       507.74700
  -4204762.93807  21117114.39607  -3269676.69048  21117111.09248      -317.12600
 -11708096.84406  22364324.52106  -9120048.08047  22364322.69747      3721.75200
   5635820.05906  22739601.13906   4383914.80947  22739599.49447     -2022.12300
 08 11 10  1  5 44.9980000  0  9  3  6 13 16 19 21 23 25 31
 -12471905.89107  19415955.13907  -9703330.85449  19415953.19349      1943.08200
  -8033798.22307  19704292.92807  -6252127.34249  19704291.12749       853.48900
 -10986817.60507  21601345.98207  -8536872.65148  21601343.83048      1417.64900
     53449.98807  20655179.79507     39374.70748  20655176.61148      -430.10100
 -15794360.55107  21289486.27107 -12302769.26948  21289483.06848      3763.74600
   -118817.68003  23412827.47503  -4676040.15245  23412823.81445       499.71900
  -4199865.73007  21118046.28707  -3265860.70348  21118042.66248      -326.48000
 -11763878.80506  22353709.55306  -9163514.54347  22353708.04547      3718.79700
   5666214.40206  22745384.95106   4407598.67448  22745383.68948     -2026.29000
 08 11 10  1  5 59.9980000  0  9  3  6 13 16 19 21 23 25 31
 -12500919.01207  19410434.20107  -9725938.46949  19410432.42449      1934.20800
  -8046479.34407  19701879.47507  -6262008.72948  19701878.08848       845.40800
 -11007927.02007  21597328.84207  -8553321.54547  21597326.81447      1407.29400
     59941.72307  20656415.24007     44433.19648  20656411.96348      -432.78200
 -15850725.71107  21278760.17807 -12346690.16048  21278757.07648      3757.67700
   -126193.77703  23411424.11503  -4681787.79345  23411420.61545       491.74000
  -4194829.12107  21119004.62307  -3261936.07348  21119001.00248      -335.77400
 -11819616.72706  22343103.02906  -9206946.66947  22343101.43647      3715.86100
   5696670.46506  22751180.81106   4431330.67447  22751179.31447     -2030.40400
 08 11 10  1  6 14.9980000  0  9  3  6 13 16 19 21 23 25 31
 -12529799.43408  19404938.06808  -9748442.69749  19404936.51049      1925.36100
  -8059039.65607  19699489.69307  -6271795.98448  19699487.93948       837.35400
 -11028881.25807  21593341.30307  -8569649.53148  21593339.22548      1396.94900
     66473.44907  20657658.12307     49522.85348  20657654.86548      -435.44800
 -15906999.83207  21268051.60007 -12390540.10548  21268048.52548      3751.60800
   -133450.31304  23410043.34204  -4687442.23845  23410040.18945       483.76900
  -4189653.55907  21119989.60007  -3257903.18448  21119985.86148      -345.03800
 -11875310.68806  22332504.32606  -9250344.55547  22332503.17047      3712.93100
   5727187.80906  22756988.02106   4455110.38447  22756986.22147     -2034.49000
 08 11 10  1  6 29.9980000  0  9  3  6 13 16 19 21 23 25 31
 -12558546.79307  19399467.33407  -9770843.23749  19399466.16249      1916.49100
  -8071479.30107  19697122.36507  -6281489.21848  19697120.66648       829.31000
 -11049680.11707  21589383.39607  -8585856.44347  21589381.45547      1386.59100
     73045.57007  20658909.21707     54643.96448  20658905.67048      -438.14100
 -15963182.39506  21257360.39606 -12434318.70748  21257356.86148      3745.50400
   -140587.07403  23408685.37303  -4693003.36345  23408681.58045       475.78400
  -4184338.82807  21121001.29507  -3253761.85348  21120997.11148      -354.31500
 -11930960.04706  22321915.17006  -9293707.68047  22321913.29547      3709.95700
   5757766.54706  22762807.23206   4478937.94547  22762805.45947     -2038.58300
 08 11 10  1  6 44.9980000  0  9  3  6 13 16 19 21 23 25 31
 -12587161.71507  19394022.24807  -9793140.57649  19394020.95549      1907.66100
  -8083798.65207  19694778.10707  -6291088.70648  19694776.45148       821.29000
 -11070324.11707  21585455.01407  -8601942.69147  21585452.65447      1376.26700
     79657.10507  20660167.08407     59795.81448  20660163.63948      -440.76900
 -16019273.91806  21246686.75606 -12478026.37648  21246683.31848      3739.43500
   -147604.60904  23407350.82604  -4698471.59845  23407345.07645       467.83600
  -4178885.93407  21122038.47507  -3249512.84848  21122035.01048      -363.52600
 -11986565.23805  22311333.38905  -9337036.38947  22311331.74047      3707.01300
   5788405.87106  22768637.38906   4502812.73147  22768635.63147     -2042.62200
 08 11 10  1  6 59.9980000  0  9  3  6 13 16 19 21 23 25 31
 -12615644.85207  19388601.93607  -9815335.22149  19388600.69349      1898.87600
  -8095998.63707  19692456.25607  -6300595.17248  19692454.95548       813.33200
 -11090813.73007  21581555.83407  -8617908.62547  21581553.84247      1365.97400
     86307.41807  20661432.65407     64977.87048  20661429.74848      -443.35400
 -16075274.70706  21236029.85706 -12521663.34148  21236026.96748      3733.38600
   -154503.57003  23406036.87303  -4703847.41445  23406032.74445       459.93100
  -4173295.83607  21123102.56807  -3245156.93748  21123099.02548      -372.67300
 -12042126.57006  22300761.23206  -9380330.91847  22300758.84247      3704.08900
   5819105.15606  22774480.00606   4526734.23947  22774477.55347     -2046.61900
 08 11 10  1  7 14.9980000  0 10  3  6  7 13 16 19 21 23 25 31
 -12643996.37108  19383206.88908  -9837427.31549  19383205.81849      1890.10100
  -8108079.60507  19690157.42007  -6310008.91348  19690156.04948       805.39800
   -156508.83616  23805711.63106   -110648.89557  23805709.24847      4346.65600
 -11111149.31307  21577685.97507  -8633754.52648  21577684.10048      1355.70500
     92996.25007  20662705.29507     70189.93848  20662702.40848      -445.92200
 -16131184.89806  21225390.49006 -12565229.70948  21225387.13948      3727.34600
   -161284.33604  23404746.50604  -4709131.10545  23404742.92045       452.05100
  -4167569.04307  21124192.35007  -3240694.50248  21124188.55348      -381.78600
 -12097644.00406  22290196.05306  -9423591.24347  22290194.33447      3701.16200
   5849863.93406  22780332.76406   4550702.10447  22780330.79547     -2050.58500
 08 11 10  1  7 29.9980000  0 10  3  6  7 13 16 19 21 23 25 31
 -12672217.36307  19377836.66207  -9859417.70349  19377834.79149      1881.39900
  -8120042.42607  19687881.13107  -6319330.59248  19687879.52148       797.52100
   -221704.52706  23793305.05306   -161450.71147  23793303.00647      4346.37900
 -11131331.68007  21573845.46707  -8649481.04548  21573843.07648      1345.49100
     99722.64106  20663985.17006     75431.28148  20663982.20948      -448.42600
 -16187005.24607  21214768.52107 -12608726.08048  21214765.02148      3721.35700
   -167947.59404  23403478.67804  -4714323.30545  23403474.53345       444.21700
  -4161706.52006  21125307.95906  -3236126.32448  21125304.40848      -390.83500
 -12153118.32406  22279639.57606  -9466817.97647  22279637.91647      3698.28800
   5880681.10506  22786197.06806   4574715.45647  22786195.48647     -2054.47800
 08 11 10  1  7 44.9980000  0 10  3  6  7 13 16 19 21 23 25 31
 -12700307.66007  19372491.21707  -9881306.24149  19372489.77149      1872.68600
  -8131887.53507  19685627.18607  -6328560.54648  19685625.85748       789.67400
   -286893.01206  23780900.10006   -212246.90247  23780898.32647      4345.89900
 -11151360.84807  21570034.23207  -8665088.19348  21570031.83848      1335.27800
    106486.55106  20665272.35006     80701.85448  20665269.97948      -450.92700
 -16242735.43807  21204163.09207 -12652152.18248  21204159.67048      3715.34600
   -174493.21505  23402233.17805  -4719423.79345  23402228.75245       436.37500
  -4155708.48806  21126449.24006  -3231452.55548  21126445.90448      -399.86900
 -12208549.06606  22269091.78706  -9510010.75647  22269089.75247      3695.38300
   5911556.60506  22792072.49806   4598774.24147  22792070.93947     -2058.36700
 08 11 10  1  7 59.9980000  0 10  3  6  7 13 16 19 21 23 25 31
 -12728268.40207  19367170.49807  -9903093.82549  19367169.17049      1864.04900
  -8143616.02707  19683395.17807  -6337699.62248  19683393.77548       781.89900
   -352075.34405  23768496.49005   -263038.29446  23768494.29546      4345.48900
 -11171238.05507  21566251.61507  -8680576.93547  21566249.51047      1325.14700
    113286.74607  20666566.18607     86000.70548  20666563.72148      -453.34600
 -16298376.44507  21193575.23207 -12695508.80348  21193571.66248      3709.40100
   -180922.64804  23401008.92004  -4724433.69845  23401005.46345       428.62900
  -4149576.63707  21127615.87307  -3226674.49648  21127612.77948      -408.79000
 -12263937.31606  22258551.48206  -9553170.41347  22258549.63147      3692.55000
   5942488.89506  22797958.78706   4622877.30647  22797956.84647     -2062.15300
 08 11 10  1  8 14.9980000  0 10  3  6  7 13 16 19 21 23 25 31
 -12756100.55107  19361874.43607  -9924781.22249  19361873.15049      1855.47700
  -8155228.94907  19681185.58407  -6346748.65648  19681183.59248       774.19500
   -417252.14506  23756093.20906   -313825.38247  23756091.47147      4345.12000
 -11190964.20306  21562497.79506  -8695947.96347  21562496.36947      1315.07700
    120122.34007  20667867.06807     91327.12448  20667864.48648      -455.70600
 -16353928.96907  21183003.56107 -12738796.47148  21183000.56848      3703.50200
   -187236.70704  23399807.56804  -4729353.79345  23399803.19745       420.93700
  -4143311.92607  21128808.20107  -3221792.91048  21128804.78748      -417.64700
 -12319283.49606  22248019.57606  -9596297.29648  22248017.76448      3689.74500
   5973476.97706  22803855.31806   4647023.81547  22803854.16647     -2065.87200
 08 11 10  1  8 29.9980000  0 10  3  6  7 13 16 19 21 23 25 31
 -12783802.74207  19356602.73207  -9946367.33949  19356601.09649      1846.81300
  -8166724.87107  19678997.57607  -6355706.50848  19678996.15448       766.39500
   -482421.75405  23743692.35005   -364606.85947  23743690.52947      4344.64100
 -11210538.03107  21558773.18607  -8711200.29548  21558770.91648      1304.92200
    126994.73807  20669175.14607     96682.24348  20669172.24448      -458.16000
 -16409391.37906  21172449.40406 -12782013.91848  21172446.54548      3697.49400
   -193433.87504  23398628.37304  -4734182.76645  23398624.05345       413.14500
  -4136913.35207  21130025.90407  -3216807.01948  21130022.58448      -426.57200
 -12374586.17206  22237495.77106  -9639390.28447  22237493.79147      3686.84500
   6004522.23406  22809763.15406   4671214.89247  22809761.50647     -2069.68400
 08 11 10  1  8 44.9980000  0 10  3  6  7 13 16 19 21 23 25 31
 -12811376.29707  19351355.74807  -9967853.22149  19351354.47549      1838.23700
  -8178105.55107  19676831.95107  -6364574.56048  19676830.54948       758.71200
   -547585.05505  23731291.42805   -415383.44747  23731290.25247      4344.22000
 -11229960.35207  21555077.46707  -8726334.58048  21555075.51848      1294.82100
    133902.69106  20670489.42806    102065.05848  20670486.63148      -460.53000
 -16464764.69906  21161912.51406 -12825161.94548  21161909.45148      3691.55500
   -199515.55104  23397470.80304  -4738921.72345  23397466.17445       405.44500
  -4130382.28107  21131268.89607  -3211717.88748  21131265.47548      -435.40500
 -12429846.07006  22226979.89606  -9682449.94448  22226978.61148      3683.99300
   6035623.15606  22815681.57606   4695449.33047  22815679.24847     -2073.39500
 08 11 10  1  8 59.9980000  0 10  3  6  7 13 16 19 21 23 25 31
 -12838821.07408  19346132.99808  -9989238.76049  19346131.64349      1829.65200
  -8189370.71907  19674688.35707  -6373352.61548  19674686.74048       751.01100
   -612742.14805  23718893.27105   -466155.20147  23718891.27947      4343.80600
 -11249231.39107  21551410.17007  -8741350.98348  21551408.35448      1284.73600
    140845.71506  20671810.61506    107475.19848  20671808.06448      -462.86800
 -16520048.89107  21151391.97507 -12868240.52148  21151388.92448      3685.61300
   -205481.91804  23396335.20904  -4743570.84845  23396330.45545       397.75800
  -4123719.10506  21132536.63106  -3206525.80548  21132533.14348      -444.21200
 -12485063.25006  22216472.54506  -9725476.30447  22216470.83047      3681.14500
   6066779.56306  22821610.50606   4719727.03447  22821608.00647     -2077.09400
 08 11 10  1  9 14.9980000  0 10  3  6  7 13 16 19 21 23 25 31
 -12866134.23007  19340935.92007 -10010521.73749  19340934.07249      1820.87700
  -8200518.00807  19672566.99007  -6382038.82048  19672565.28748       743.15300
   -677889.60206  23706495.79506   -516919.39447  23706493.81447      4343.16400
 -11268348.19907  21547772.35707  -8756247.20248  21547770.68648      1274.45400
    147826.82407  20673139.05307    112915.01948  20673136.72548      -465.40700
 -16575240.80107  21140889.58407 -12911247.18648  21140885.88548      3679.46100
   -211329.87504  23395223.04504  -4748127.61845  23395218.23645       389.86400
  -4116921.15206  21133830.38906  -3201228.70148  21133826.75648      -453.19700
 -12540234.40606  22205973.69306  -9768466.79148  22205972.56848      3678.07700
   6097994.23806  22827550.26406   4744050.14847  22827547.16247     -2080.97800
 08 11 10  1  9 29.9980000  0 10  3  6  7 13 16 19 21 23 25 31
 -12893315.71108  19335763.38908 -10031702.10549  19335761.56849      1812.09900
  -8211547.07407  19670468.19307  -6390632.89748  19670466.45548       735.27100
   -743026.95305  23694100.23205   -567675.73447  23694099.27147      4342.49000
 -11287310.56607  21544164.07607  -8771023.06647  21544162.15047      1264.15800
    154846.17207  20674474.96707    118384.62848  20674472.35048      -467.95700
 -16630339.96506  21130404.60706 -12954181.58948  21130400.99848      3673.27800
   -217059.28905  23394132.96705  -4752592.22446  23394129.07246       381.96100
  -4109988.48407  21135149.50607  -3195826.62348  21135145.59248      -462.17800
 -12595359.07006  22195483.63906  -9811421.06648  22195482.81848      3674.97800
   6129267.18406  22833501.39606   4768418.65547  22833498.70547     -2084.86300
 08 11 10  1  9 44.9980000  0 10  3  6  7 13 16 19 21 23 25 31
 -12920364.63308  19330615.76408 -10052779.17449  19330614.28349      1803.26100
  -8222457.50007  19668391.99807  -6399134.52248  19668390.15448       727.36200
   -808153.46505  23681707.32605   -618423.67547  23681705.98247      4341.76700
 -11306117.85207  21540585.00607  -8785678.11348  21540583.13548      1253.81900
    161904.54307  20675817.92807    123884.66748  20675815.75648      -470.55800
 -16685345.57806  21119937.21706 -12997043.08948  21119933.47548      3667.04100
   -222669.49205  23393066.07605  -4756963.79946  23393061.85446       374.01400
  -4102920.73807  21136494.65407  -3190319.31348  21136490.83048      -471.18300
 -12650436.27706  22185002.70906  -9854338.37548  22185001.30348      3671.81400
   6160598.80506  22839463.28706   4792832.91347  22839461.60447     -2088.77500
 08 11 10  1  9 59.9980000  0 10  3  6  7 13 16 19 21 23 25 31
 -12947279.83608  19325494.08408 -10073752.06349  19325492.80349      1794.34700
  -8233248.38307  19666338.78707  -6407543.01248  19666337.04148       719.39200
   -873267.75005  23669316.60705   -669162.05847  23669315.17047      4340.95200
 -11324769.25807  21537035.72507  -8800211.66848  21537033.85748      1243.42700
    169002.89507  20677168.88107    129415.83148  20677166.19348      -473.22300
 -16740256.31606  21109488.06806 -13039830.68348  21109484.22548      3660.71600
   -228159.43005  23392020.09205  -4761241.66246  23392017.59246       365.99600
  -4095717.03107  21137865.63107  -3184706.03348  21137861.70548      -480.24700
 -12705464.69106  22174532.02106  -9897217.65648  22174529.79148      3668.56100
   6191990.14506  22845436.76406   4817293.66047  22845435.10747     -2092.75600
 08 11 10  1 10 14.9980000  0 10  3  6  7 13 16 19 21 23 25 31
 -12974060.70707  19320397.80307 -10094620.27049  19320396.43649      1785.39100
  -8243918.77707  19664308.33407  -6415857.59748  19664306.58848       711.36000
   -938368.91405  23656928.21705   -719890.21547  23656926.25647      4340.07800
 -11343263.55507  21533516.56807  -8814622.82148  21533514.49848      1232.95300
    176141.88306  20678527.71706    134978.67048  20678524.62748      -475.93300
 -16795071.08207  21099057.29507 -13082543.46348  21099052.92848      3654.31800
   -233528.25405  23390998.61505  -4765425.20046  23390995.37746       357.92200
  -4088376.87906  21139262.41206  -3178986.43348  21139258.36148      -489.34300
 -12760443.22706  22164069.63906  -9940058.06248  22164068.13148      3665.23600
   6223441.83206  22851421.74806   4841801.43547  22851420.34247     -2096.77900
 08 11 10  1 10 29.9980000  0 10  3  6  7 13 16 19 21 23 25 31
 -13000707.44908  19315326.91208 -10115383.96149  19315325.91649      1776.44900
  -8254469.11307  19662300.73207  -6424078.63948  19662298.76048       703.35600
  -1003456.58205  23644541.23205   -770607.84847  23644540.83447      4339.17800
 -11361600.84407  21530027.05307  -8828911.61848  21530025.55348      1222.48600
    183321.55106  20679893.90406    140573.22448  20679891.05348      -478.64500
 -16849789.70706  21088644.35006 -13125181.35648  21088640.81848      3647.90800
   -238776.04704  23389999.77904  -4769514.39045  23389996.51845       349.85300
  -4080900.50006  21140684.57606  -3173160.68548  21140681.21348      -498.42500
 -12815371.65606  22153617.08406  -9982859.42047  22153615.22547      3661.89500
   6254953.65206  22857418.14606   4866356.06447  22857417.27547     -2100.78800
 08 11 10  1 10 44.9980000  0 10  3  6  7 13 16 19 21 23 25 31
 -13027220.00807  19310281.87307 -10136043.10049  19310280.76449      1767.50400
  -8264899.35907  19660315.90407  -6432206.10248  19660313.84248       695.35000
  -1068530.63705  23632158.85705   -821314.88547  23632157.19347      4338.27000
 -11379781.17207  21526567.49007  -8843078.11348  21526565.52548      1212.02200
    190541.83207  20681267.93607    146199.40948  20681264.93648      -481.35200
 -16904412.16006  21078250.16206 -13167744.28648  21078246.15448      3641.49700
   -243902.93005  23389024.60705  -4773509.37645  23389021.02945       341.79200
  -4073288.26607  21142133.61507  -3167229.09648  21142129.68948      -507.48200
 -12870249.68806  22143173.98206 -10025621.52448  22143172.48648      3658.53500
   6286525.52306  22863426.60706   4890957.48247  22863424.93247     -2104.79100
 08 11 10  1 10 59.9980000  0 10  3  6  7 13 16 19 21 23 25 31
 -13053597.93807  19305262.19307 -10156597.31849  19305261.01849      1758.52900
  -8275209.52707  19658353.83407  -6440239.99449  19658352.23249       687.34500
  -1133590.42206  23619778.68606   -872010.80847  23619777.04147      4337.31900
 -11397804.43807  21523137.50607  -8857122.20248  21523135.65448      1201.55100
    197802.89107  20682649.45907    151857.38448  20682646.99448      -484.07100
 -16958937.97706  21067874.11506 -13210231.91348  21067870.18648      3635.05400
   -248908.50804  23388072.20904  -4777409.74445  23388069.13545       333.70500
  -4065540.19107  21143607.90407  -3161191.63648  21143604.06148      -516.53800
 -12925076.87906  22132740.90406 -10068343.98848  22132739.26448      3655.14600
   6318157.38306  22869446.67806   4915605.67347  22869444.61947     -2108.79100
 08 11 10  1 11 14.9980000  0 10  3  6  7 13 16 19 21 23 25 31
 -13079841.75407  19300268.13907 -10177047.04449  19300267.17049      1749.58800
  -8285400.08207  19656414.69307  -6448180.68148  19656413.06448       679.37000
  -1198636.14106  23607400.92006   -922695.76047  23607398.61947      4336.38100
 -11415670.83207  21519737.76407  -8871044.08348  21519735.67848      1191.09300
    205104.18007  20684038.94307    157546.69648  20684036.02948      -486.75300
 -17013367.28106  21057516.36506 -13252644.34948  21057512.79148      3628.62000
   -253793.32804  23387141.05304  -4781216.21045  23387140.29545       325.65500
  -4057656.79707  21145108.01407  -3155048.74148  21145104.82248      -525.56000
 -12979853.30106  22122317.25606 -10111026.91848  22122315.51448      3651.76100
   6349848.73806  22875476.46706   4940300.19947  22875475.29947     -2112.75700
 08 11 10  1 11 29.9980000  0 10  3  6  7 13 16 19 21 23 25 31
 -13105952.34808  19295299.81808 -10197392.95649  19295298.17849      1740.70600
  -8295472.16407  19654497.70907  -6456029.05548  19654496.26448       671.47200
  -1263668.22706  23595025.23206   -973370.05647  23595024.02147      4335.47200
 -11433381.31307  21516367.72507  -8884844.45047  21516365.62747      1180.69900
    212444.85506  20685435.92806    163266.69548  20685432.13148      -489.37800
 -17067700.61306  21047177.43606 -13294981.99848  21047173.76048      3622.22200
   -258558.09004  23386235.52904  -4784929.03545  23386233.36545       317.65100
  -4049639.34406  21146633.51406  -3148801.39948  21146630.11948      -534.49700
 -13034579.48406  22111903.05306 -10153670.66447  22111901.88547      3648.41200
   6381598.69906  22881518.64606   4965040.39647  22881517.26847     -2116.66400
 08 11 10  1 11 44.9980000  0 10  3  6  7 13 16 19 21 23 25 31
 -13131930.89807  19290356.35707 -10217635.99149  19290354.36149      1731.90300
  -8305426.61707  19652603.62307  -6463785.76948  19652602.30748       663.63000
  -1328687.68806  23582652.56806  -1024034.57947  23582651.53347      4334.63100
 -11450936.93007  21513026.68607  -8898524.17747  21513024.58447      1170.37400
    219823.91406  20686839.92006    169016.60948  20686836.30748      -491.93700
 -17121938.97706  21036856.11506 -13337245.63448  21036852.77548      3615.89100
   -263204.03504  23385351.76404  -4788549.23445  23385349.41645       309.73000
  -4041489.17606  21148184.88906  -3142450.62548  21148180.87748      -543.34500
 -13089256.29305  22101498.44305 -10196275.97248  22101497.37748      3645.12100
   6413405.98006  22887571.34206   4989825.26247  22887570.08447     -2120.48500
 08 11 10  1 11 59.9980000  0 10  3  6  7 13 16 19 21 23 25 31
 -13157776.56607  19285437.90407 -10237775.45949  19285435.94349      1723.04500
  -8315263.27007  19650731.61507  -6471450.68748  19650730.04948       655.77700
  -1393693.62106  23570282.68606  -1074688.53447  23570280.86547      4333.72900
 -11468336.96507  21509715.68607  -8912082.64648  21509713.76448      1160.00200
    227241.97307  20688251.47507    174796.91748  20688248.53348      -494.53700
 -17176081.47706  21026553.03706 -13379434.58348  21026549.80748      3609.50000
   -267730.39505  23384490.95905  -4792076.22746  23384488.93246       301.75700
  -4033205.86307  21149760.81107  -3135996.11048  21149757.02548      -552.22100
 -13143882.75806  22091104.19306 -10238842.02548  22091101.81848      3641.76400
   6445271.17606  22893634.90406   5014655.25247  22893633.56447     -2124.34600
 08 11 10  1 12 14.9980000  0 10  3  6  7 13 16 19 21 23 25 31
 -13183490.93007  19280544.58407 -10257812.62649  19280542.72149      1714.29100
  -8324983.63307  19648881.84207  -6479024.99848  19648880.52948       648.02400
  -1458687.34806  23557914.19306  -1125332.97447  23557913.31847      4332.91500
 -11485583.11707  21506433.59207  -8925521.19848  21506431.69348      1149.74300
    234697.40207  20689670.15407    180606.33348  20689667.10048      -497.02900
 -17230129.56606  21016267.83406 -13421549.97248  21016264.47548      3603.20600
   -272138.93003  23383651.29503  -4795511.46145  23383650.13145       293.90200
  -4024791.31307  21151362.24007  -3129439.32448  21151358.28348      -560.97000
 -13198460.14806  22080717.84206 -10281369.86348  22080716.12748      3638.49300
   6477192.29706  22899709.40406   5039528.84147  22899708.35447     -2128.07500
 08 11 10  1 12 29.9980000  0 10  3  6  7 13 16 19 21 23 25 31
 -13209074.35507  19275676.01407 -10277747.75849  19275674.81149      1705.56200
  -8334588.16007  19647054.42007  -6486509.05348  19647052.99048       640.30200
  -1523668.70306  23545548.49006  -1175967.78147  23545547.40447      4332.09000
 -11502675.46107  21503181.16207  -8938839.92648  21503179.67048      1139.49000
    242189.93407  20691096.09207    186444.65548  20691092.45548      -499.50200
 -17284083.14107  21006000.63907 -13463591.69448  21005997.73248      3596.90500
   -276429.62904  23382835.00604  -4798854.89145  23382832.92045       286.04700
  -4016245.85507  21152988.35007  -3122780.53648  21152984.26848      -569.69700
 -13252988.41006  22070341.81106 -10323859.40748  22070339.83048      3635.21700
   6509169.09806  22905794.47506   5064445.78247  22905794.06447     -2131.78700
 08 11 10  1 12 44.9980000  0 10  3  6  7 13 16 19 21 23 25 31
 -13234525.98807  19270832.92007 -10297580.19549  19270831.43649      1696.77600
  -8344075.86307  19645248.90407  -6493902.06348  19645247.13148       632.51400
  -1588636.50806  23533185.95906  -1226592.02747  23533184.66647      4331.18700
 -11519613.24207  21499958.22507  -8952038.18348  21499956.56848      1129.18500
    249720.39807  20692529.32607    192312.54348  20692525.74848      -502.03100
 -17337941.24206  20995752.20906 -13505559.03748  20995749.25248      3590.54000
   -280601.78905  23382040.87305  -4802105.94945  23382038.57645       278.14400
  -4007568.84407  21154639.77107  -3116019.24748  21154635.88548      -578.46700
 -13307466.37506  22059974.56806 -10366309.77248  22059972.81448      3631.86400
   6541202.27006  22911890.15406   5089406.65847  22911889.29547     -2135.54500
 08 11 10  1 12 59.9980000  0 10  3  6  7 13 16 19 21 23 25 31
 -13259846.53507  19266014.41207 -10317310.48949  19266013.04949      1688.03600
  -8353447.94906  19643465.65406  -6501204.98548  19643464.06448       624.80600
  -1653591.48005  23520825.43605  -1277206.28847  23520824.09247      4330.33200
 -11536397.27707  21496764.13107  -8965116.65348  21496762.80748      1118.93600
    257287.93007  20693969.14607    198209.32948  20693965.76848      -504.50200
 -17391704.38707  20985521.30307 -13547452.37548  20985518.38948      3584.21000
   -284656.02005  23381269.97505  -4805265.05945  23381267.33445       270.28200
  -3998761.48807  21156315.60707  -3109156.36648  21156311.69348      -587.15700
 -13361894.61306  22049616.89606 -10408721.35848  22049615.48648      3628.54900
   6573290.87506  22917996.19306   5114410.75947  22917995.73647     -2139.24000
 08 11 10  1 13 14.9980000  0 10  3  6  7 13 16 19 21 23 25 31
 -13285036.92207  19261220.81107 -10336939.36249  19261219.32249      1679.35900
  -8362705.23007  19641703.67807  -6508418.45548  19641702.19348       617.15200
  -1718534.10205  23508466.85005  -1327810.90447  23508465.36947      4329.50800
 -11553028.35907  21493599.77907  -8978075.95848  21493597.82648      1108.73900
    264891.78107  20695416.00607    204134.39648  20695413.25648      -506.92300
 -17445373.24606  20975308.70906 -13589272.25448  20975305.38548      3577.92400
   -288593.35904  23380519.99804  -4808333.16445  23380518.99045       262.48900
  -3989824.88707  21158016.27907  -3102192.79948  21158011.96348      -595.77300
 -13416273.64506  22039269.27106 -10451094.62548  22039267.44748      3625.26900
   6605433.91006  22924113.06106   5139457.22547  22924111.52547     -2142.86900
 08 11 10  1 13 29.9980000  0 10  3  6  7 13 16 19 21 23 25 31
 -13310096.71507  19256452.17807 -10356466.46349  19256450.76049      1670.65300
  -8371847.50406  19639964.05306  -6515542.30348  19639962.40048       609.48500
  -1783463.82005  23496110.88105  -1378405.45347  23496109.92847      4328.64800
 -11569506.35907  21490463.99807  -8990915.96348  21490462.29148      1098.53300
    272532.12507  20696870.20907    210087.90548  20696867.32248      -509.35600
 -17498947.12106  20965113.70106 -13631018.11748  20965110.61948      3571.59200
   -292413.41004  23379793.56104  -4811309.80545  23379793.27145       254.67000
  -3980758.93807  21159741.32607  -3095128.42448  21159737.48248      -604.39700
 -13470602.79705  22028930.47505 -10493429.03148  22028928.89348      3621.94300
   6637631.62906  22930240.38106   5164546.33847  22930239.01847     -2146.51500
 08 11 10  1 13 44.9980000  0 10  3  6  7 13 16 19 21 23 25 31
 -13335025.68407  19251708.45907 -10375891.63849  19251706.87749      1661.93100
  -8380874.71906  19638246.28706  -6522576.50748  19638244.45948       601.81400
  -1848379.95705  23483758.44305  -1428989.46147  23483756.47147      4327.74200
 -11585830.59807  21487357.96707  -9003636.15348  21487355.50248      1088.28300
    280209.19507  20698331.10707    216070.03448  20698328.21348      -511.80500
 -17552425.68006  20954937.31106 -13672689.70148  20954933.97148      3565.23700
   -296116.16003  23379089.13103  -4814195.07445  23379089.14645       246.85000
  -3971563.69507  21161491.24007  -3087963.30948  21161487.26448      -613.01600
 -13524881.63705  22018601.84205 -10535724.21548  22018600.00648      3618.58900
   6669883.96506  22936377.90406   5189677.97647  22936376.12347     -2150.15600
 08 11 10  1 13 59.9980000  0 10  3  6  7 13 16 19 21 23 25 31
 -13359825.04707  19246989.13907 -10395215.80749  19246987.81149      1653.29100
  -8389787.88707  19636549.80307  -6529521.81748  19636548.67048       594.21100
  -1913283.50405  23471407.70905  -1479563.62447  23471405.23247      4326.90300
 -11602002.36707  21484280.12307  -9016237.52648  21484278.35448      1078.11800
    287921.86307  20699798.38107    222079.90648  20699795.52148      -514.17800
 -17605809.75807  20944778.81807 -13714287.68048  20944775.27148      3558.93900
   -299702.49203  23378406.57603  -4816989.54745  23378406.14345       239.08900
  -3962240.39507  21163265.23207  -3080698.39748  21163261.58048      -621.55300
 -13579110.85506  22008282.19306 -10577980.72647  22008280.12347      3615.28100
   6702189.76206  22942525.60706   5214851.30347  22942524.16247     -2153.72000
 08 11 10  1 14 14.9980000  0 10  3  6  7 13 16 19 21 23 25 31
 -13384494.34007  19242294.88907 -10414438.63449  19242293.31149      1644.62000
  -8398586.93006  19634875.92006  -6536378.21848  19634874.24048       586.60300
  -1978173.59405  23459059.67005  -1530127.32147  23459057.58447      4326.00600
 -11618021.19907  21481232.22507  -9028719.74148  21481229.52148      1067.92200
    295670.74607  20701273.08407    228117.97048  20701270.12748      -516.59200
 -17659098.74606  20934638.35706 -13755811.56348  20934634.63548      3552.59900
   -303172.02703  23377746.38903  -4819693.00845  23377745.43245       231.30200
  -3952788.77307  21165063.77907  -3073333.50648  21165060.31448      -630.10800
 -13633289.71506  21997972.47506 -10620198.02748  21997969.85448      3611.92400
   6734549.55906  22948683.12306   5240066.68847  22948681.47147     -2157.32000
 08 11 10  1 14 29.9980000  0 10  3  6  7 13 16 19 21 23 25 31
 -13409030.93007  19237625.86507 -10433558.05549  19237623.99849      1635.77300
  -8407269.45706  19633223.52906  -6543143.80948  19633222.10748       578.83500
  -2043047.46905  23446714.15405  -1580678.35547  23446712.43947      4324.92500
 -11633884.71107  21478213.37307  -9041080.92247  21478210.75647      1057.56700
    303458.18007  20702754.79507    234186.11248  20702752.35048      -519.16200
 -17712289.82806  20924515.88906 -13797259.13548  20924512.77148      3546.07200
   -306522.39503  23377108.70103  -4822303.72745  23377107.21345       223.35800
  -3943206.74207  21166887.31107  -3065866.99548  21166883.67448      -638.80200
 -13687415.32806  21987672.61506 -10662373.79747  21987669.98247      3608.37400
   6766965.60206  22954851.45106   5265325.91547  22954850.34647     -2161.07000
 08 11 10  1 14 44.9980000  0 10  3  6  7 13 16 19 21 23 25 31
 -13433436.60207  19232981.54507 -10452575.45349  19232979.92849      1627.04500
  -8415837.17207  19631593.15407  -6549819.96048  19631591.63948       571.18100
  -2107906.50005  23434372.14605  -1631217.88947  23434370.02147      4323.93500
 -11649594.52307  21475223.92807  -9053322.33348  21475220.93648      1047.32100
    311282.53107  20704243.63907    240282.99648  20704241.17048      -521.62300
 -17765384.44507  20914412.39607 -13838631.55348  20914408.96348      3539.64100
   -309755.04703  23376494.58403  -4824822.76245  23376491.56445       215.51000
  -3933496.25807  21168735.02107  -3058300.39648  21168731.73648      -647.36600
 -13741489.13706  21977382.57606 -10704509.22248  21977380.44348      3604.92100
   6799436.06306  22961030.70906   5290627.54247  22961029.22147     -2164.69700
 08 11 10  1 14 59.9980000  0 10  3  6  7 13 16 19 21 23 25 31
 -13457710.73807  19228362.39607 -10471490.35849  19228360.53749      1618.27600
  -8424289.52006  19629984.86506  -6556406.21248  19629983.14348       563.49000
  -2172749.98405  23422032.69305  -1681745.22047  23422030.64647      4322.89900
 -11665149.96907  21472263.66207  -9065443.46348  21472261.14648      1037.03000
    319144.35207  20705740.24807    246409.09048  20705737.17448      -524.12100
 -17818381.88706  20904327.45906 -13879928.24148  20904323.87348      3533.16300
   -312869.53501  23375900.70901  -4827249.49645  23375899.35445       207.63300
  -3923656.98407  21170607.66207  -3050633.42448  21170604.18648      -655.95200
 -13795510.30506  21967102.83406 -10746603.62247  21967100.36947      3601.41100
   6831961.31606  22967219.98206   5315971.86447  22967218.52947     -2168.35000
 08 11 10  1 15 14.9980000  0 10  3  6  7 13 16 19 21 23 25 31
 -13481853.13307  19223768.30307 -10490302.61549  19223766.56449      1609.49300
  -8432626.71907  19628398.20907  -6562902.72948  19628396.55748       555.81300
  -2237577.52005  23409696.72505  -1732260.16747  23409694.24447      4321.83600
 -11680551.05507  21469332.92007  -9077444.32147  21469330.62347      1026.73900
    327043.69507  20707243.06807    252564.41148  20707240.37748      -526.62300
 -17871281.90206  20894260.94306 -13921149.02548  20894257.35748      3526.66800
   -315865.64101  23375330.24001  -4829584.15645  23375329.21745       199.74000
  -3913689.21507  21172503.96707  -3042866.33248  21172501.24848      -664.51800
 -13849478.44906  21956832.90406 -10788656.71848  21956830.52548      3597.87600
   6864541.18806  22973419.89606   5341358.75047  22973418.39347     -2171.99100
 08 11 10  1 15 29.9980000  0 10  3  6  7 13 16 19 21 23 25 31
 -13505864.01607  19219198.87307 -10509012.38949  19219197.65849      1600.72600
  -8440848.82406  19626833.67006  -6569309.56248  19626832.30748       548.14000
  -2302388.84805  23397363.32605  -1782762.48947  23397361.00247      4320.75500
 -11695797.91807  21466431.45107  -9089325.00448  21466429.63148      1016.45800
    334980.28907  20708753.30307    258748.76948  20708750.90048      -529.10600
 -17924084.30906  20884212.68606 -13962293.74248  20884209.33448      3520.16000
   -318743.55901  23374782.99001  -4831826.55945  23374781.12345       191.86100
  -3903593.27307  21174425.53707  -3034999.37448  21174422.03348      -673.06300
 -13903393.39806  21946573.71706 -10830668.33948  21946570.65448      3594.33000
   6897175.46506  22979629.60706   5366788.02747  22979628.84247     -2175.61800
 08 11 10  1 15 44.9980000  0 10  3  6  7 13 16 19 21 23 25 31
 -13529744.57407  19214654.63107 -10527620.61649  19214653.17449      1592.03700
  -8448957.19907  19625290.84207  -6575627.78048  19625288.89348       540.55800
  -2367184.76206  23385033.17806  -1833252.78847  23385030.51847      4319.72800
 -11710891.52707  21463559.05307  -9101086.26748  21463557.00648      1006.24100
    342953.21106  20710270.44306    264961.41748  20710267.74848      -531.52800
 -17976790.04706  20874183.35006 -14003363.14448  20874180.06848      3513.71600
   -321504.41801  23374257.88901  -4833977.97745  23374255.37345       184.05700
  -3893370.36707  21176370.78707  -3027033.47448  21176367.60748      -681.52700
 -13957255.85906  21936323.05306 -10872639.08748  21936321.17448      3590.83100
   6929863.10507  22985850.43607   5392258.88148  22985848.86948     -2179.17600
 08 11 10  1 15 59.9980000  0 10  3  6  7 13 16 19 21 23 25 31
 -13553493.36707  19210135.33407 -10546126.16949  19210133.52949      1583.25300
  -8456950.64506  19623769.78706  -6581856.43248  19623768.09248       532.89600
  -2431963.60906  23372706.02106  -1883729.80147  23372704.02547      4318.59000
 -11725830.73007  21460716.17007  -9112727.21147  21460714.26847       995.94700
    350963.71107  20711795.02107    271203.36648  20711792.23648      -534.03300
 -18029397.58606  20864172.40406 -14044356.01248  20864168.96748      3507.16900
         0.00000  23373753.38101         0.00000         0.00000         0.00000
  -3883019.47307  21178340.34207  -3018967.84748  21178337.07248      -690.06000
 -14011064.18806  21926084.17006 -10914567.65148  21926082.11948      3587.22200
   6962605.16406  22992080.91206   5417772.13048  22992079.56148     -2182.80400
 08 11 10  1 16 14.9980000  0  9  3  6  7 13 16 19 23 25 31
 -13577113.18007  19205640.70907 -10564531.21049  19205639.02949      1574.65400
  -8464831.96906  19622269.46706  -6587997.71848  19622267.95948       525.42200
  -2496727.93006  23360381.91206  -1934195.49747  23360379.67447      4317.62100
 -11740618.14506  21457902.60006  -9124249.87248  21457900.63548       985.82800
    359009.16406  20713325.73206    277472.53348  20713323.28348      -536.36400
 -18081909.44506  20854179.71706 -14085274.34548  20854176.33048      3500.79100
  -3872543.65207  21180333.93607  -3010804.88248  21180330.79948      -698.38800
 -14064820.87506  21915854.33406 -10956455.96748  21915851.79948      3583.77900
   6995398.73007  22998321.33407   5443325.52748  22998319.74048     -2186.23800
 08 11 10  1 16 29.9980000  0  9  3  6  7 13 16 19 23 25 31
 -13600601.50007  19201170.94307 -10582833.78249  19201169.61949      1565.88800
  -8472598.72306  19620792.27906  -6594049.72748  19620790.36948       517.78400
  -2561474.87905  23348061.09205  -1984647.64947  23348058.76447      4316.46300
 -11755251.34806  21455118.02906  -9135652.37748  21455116.20148       975.54700
    367091.91007  20714864.10007    283770.78348  20714861.12748      -538.85000
 -18134322.81306  20844205.44306 -14126115.91548  20844202.25648      3494.22400
  -3861940.66007  21182351.49007  -3002542.80148  21182347.72948      -706.86600
 -14118523.03506  21905635.31106 -10998301.79248  21905632.73248      3580.14400
   7028246.20306  23004572.30306   5468920.92248  23004571.26448     -2189.83200
 08 11 10  1 16 44.9980000  0  9  3  6  7 13 16 19 23 25 31
 -13623958.44507  19196726.42007 -10601034.00049  19196724.78349      1557.13000
  -8480251.16806  19619335.54506  -6600012.67548  19619334.01048       510.16300
  -2626204.26205  23335743.02905  -2035086.10947  23335741.04947      4315.29200
 -11769730.30906  21452362.18606  -9146934.68748  21452360.99048       965.26400
    375212.00406  20716409.42006    290098.12248  20716406.54148      -541.34000
 -18186637.58606  20834250.64606 -14166880.65548  20834247.11148      3487.65200
  -3851210.76607  21184393.67807  -2994181.85648  21184389.65048      -715.32600
 -14172170.51206  21895426.75606 -11040105.00048  21895423.88548      3576.49800
   7061147.53107  23010833.29507   5494558.27948  23010831.93948     -2193.42200
 08 11 10  1 16 59.9980000  0  9  3  6  7 13 16 19 23 25 31
 -13647184.19907  19192306.36507 -10619131.98349  19192304.98649      1548.38400
  -8487789.42606  19617901.00606  -6605886.62648  19617899.34648       502.55100
  -2690915.81305  23323429.11505  -2085510.67447  23323426.76847      4314.10300
 -11784055.17206  21449636.64606  -9158096.91047  21449635.39347       954.99100
    383369.40606  20717961.56806    296454.53948  20717959.45548      -543.82700
 -18238853.56306  20824313.86506 -14207568.41148  20824310.58048      3481.06500
  -3840354.31307  21186459.49007  -2985722.28948  21186455.13148      -723.76400
 -14225762.98806  21885228.63906 -11081865.38048  21885225.80348      3572.83200
   7094102.35206  23017104.30306   5520237.32648  23017103.33848     -2196.98800
 08 11 10  1 17 14.9980000  0  9  3  6  7 13 16 19 23 25 31
 -13670279.38307  19187911.79507 -10637128.22949  19187910.17849      1539.67900
  -8495214.59406  19616487.92806  -6611672.47848  19616486.73248       495.01100
  -2755610.21105  23311118.09205  -2135921.88847  23311116.27547      4312.96000
 -11798226.99607  21446939.97507  -9169139.89848  21446938.55748       944.78800
    391562.98407  20719520.52907    302839.14248  20719518.40048      -546.23900
 -18290971.59406  20814396.24006 -14248179.87048  20814392.49448      3474.53500
  -3829372.32007  21188549.32607  -2977164.90548  21188545.07648      -732.13300
 -14279301.19506  21875040.49806 -11123583.44648  21875038.20948      3569.21400
   7127109.60506  23023385.35006   5545957.22448  23023384.66648     -2200.48400
 08 11 10  1 17 29.9980000  0  9  3  6  7 13 16 19 23 25 31
 -13693242.66007  19183541.88107 -10655021.68949  19183540.18249      1530.88500
  -8502525.17607  19615096.95907  -6617369.03248  19615095.45148       487.37200
  -2820285.55906  23298811.21706  -2186318.23247  23298808.79547      4311.69000
 -11812243.98007  21444272.31807  -9180062.21648  21444271.11548       934.46600
    399794.39506  20721087.31806    309253.21348  20721084.86548      -548.76100
 -18342989.71906  20804497.77106 -14288713.45448  20804494.24848      3467.87500
  -3818263.78507  21190663.13907  -2968508.91048  21190658.92048      -740.56900
 -14332783.06606  21864862.87306 -11165257.61748  21864861.06148      3565.45800
   7160170.72706  23029676.85006   5571719.09548  23029676.14648     -2204.07500
 08 11 10  1 17 44.9980000  0  9  3  6  7 13 16 19 23 25 31
 -13716073.49207  19179197.53707 -10672811.94049  19179195.71349      1522.05500
  -8509720.94106  19613727.77106  -6622976.12448  19613725.99048       479.71800
  -2884941.09806  23286507.60006  -2236699.17047  23286504.70547      4310.36900
 -11826105.74207  21441634.92807  -9190863.59048  21441633.30348       924.11700
    408064.28907  20722660.84207    315697.28548  20722658.48648      -551.32600
 -18394907.28506  20794618.24806 -14329168.70148  20794614.37748      3461.17100
  -3807028.50007  21192801.43607  -2959754.15048  21192797.22948      -749.01900
 -14386207.88307  21854696.84207 -11206887.33748  21854694.40848      3561.65400
   7193286.10206  23035978.07606   5597523.24147  23035977.24047     -2207.69200
 08 11 10  1 17 59.9980000  0  9  3  6  7 13 16 19 23 25 31
 -13738772.20707  19174877.95907 -10690499.24449  19174876.36149      1513.24800
  -8516802.20306  19612379.96706  -6628493.98248  19612378.20548       472.08400
  -2949576.85906  23274207.42806  -2287064.63247  23274205.13947      4309.05100
 -11839812.75807  21439026.51407  -9201544.37048  21439024.56148       913.80100
    416372.13706  20724241.90406    322170.93448  20724239.06448      -553.85700
 -18446724.60206  20784757.43606 -14369545.82248  20784754.05748      3454.48800
  -3795666.98007  21194963.27107  -2950901.02948  21194959.69348      -757.43500
 -14439575.69906  21844540.95106 -11248472.64548  21844539.17848      3557.85400
   7226455.26206  23042289.92006   5623369.28047  23042289.17847     -2211.27700
 08 11 10  1 18 14.9980000  0  9  3  6  7 13 16 19 23 25 31
 -13761338.89107  19170583.66207 -10708083.67749  19170582.06449      1504.44600
  -8523769.12907  19611054.60707  -6633922.77348  19611052.96748       464.46200
  -3014192.62906  23261911.24806  -2337414.59847  23261909.33847      4307.71800
 -11853365.00806  21436447.25606  -9212104.59048  21436445.35448       903.48300
    424717.91807  20725829.99007    328674.12948  20725827.45948      -556.38500
 -18498441.38306  20774916.42006 -14409844.59648  20774912.30748      3447.78500
  -3784179.44507  21197149.56807  -2941949.71248  21197145.89648      -765.83600
 -14492886.25006  21834396.24806 -11290013.33048  21834394.63548      3554.03700
   7259677.99206  23048611.90406   5649257.08847  23048610.92047     -2214.84900
 08 11 10  1 18 29.9980000  0  9  3  6  7 13 16 19 23 25 31
 -13783773.36307  19166314.48207 -10725565.08049  19166313.12349      1495.63200
  -8530621.77707  19609750.67007  -6639262.48449  19609748.93649       456.84300
  -3078787.70706  23249619.37306  -2387748.40847  23249617.47147      4306.33900
 -11866762.26606  21433898.21706  -9222544.02748  21433896.04548       893.15100
    433101.88307  20727425.40407    335207.07548  20727422.41648      -558.93100
 -18550057.23806  20765093.69306 -14450064.72348  20765090.79948      3441.05700
  -3772566.09407  21199359.02907  -2932900.36048  21199355.97148      -774.22300
 -14546139.01606  21824262.70906 -11331508.97648  21824261.06448      3550.18400
   7292954.27306  23054943.95106   5675186.60147  23054943.30347     -2218.41900
 08 11 10  1 18 44.9980000  0  9  3  6  7 13 16 19 23 25 31
 -13806076.19107  19162070.56107 -10742943.90249  19162069.11549      1486.85500
  -8537360.77007  19608468.10007  -6644513.64648  19608466.27948       449.26600
  -3143362.55506  23237331.03706  -2438066.47747  23237328.73647      4304.99000
 -11880005.19506  21431377.86506  -9232863.19448  21431376.24048       882.86200
    441523.37507  20729027.92807    341769.27848  20729025.53748      -561.43300
 -18601572.52306  20755291.06106 -14490206.48848  20755287.53348      3434.35200
  -3760827.78507  21201593.06807  -2923753.63848  21201589.79948      -782.55400
 -14599334.27306  21814139.70106 -11372959.80948  21814138.67448      3546.35100
   7326283.44906  23061286.68606   5701157.35447  23061285.55347     -2221.94500
 08 11 10  1 18 59.9980000  0  9  3  6  7 13 16 19 23 25 31
 -13828247.66807  19157851.53707 -10760220.37849  19157850.04949      1478.09800
  -8543986.48006  19607207.30306  -6649676.53848  19607205.24048       441.71400
  -3207917.15606  23225047.07606  -2488368.74047  23225045.29147      4303.64000
 -11893094.10507  21428887.52107  -9243062.34348  21428885.08048       872.59400
    449982.02006  20730638.02906    348360.40648  20730635.16648      -563.91000
 -18652987.20307  20745506.89607 -14530269.87348  20745503.67048      3427.64500
  -3748964.94107  21203850.42807  -2914509.86548  21203847.15048      -790.85600
 -14652471.92207  21804028.17007 -11414365.76248  21804026.90448      3542.51000
   7359665.17206  23067638.53706   5727169.02847  23067638.37747     -2225.44800
 08 11 10  1 19 14.9980000  0  9  3  6  7 13 16 19 23 25 31
 -13850288.60207  19153656.95907 -10777395.13149  19153655.54949      1469.39600
  -8550499.87507  19605967.45107  -6654751.91848  19605965.95548       434.22600
  -3272452.04306  23212766.04506  -2538655.61047  23212764.67047      4302.32600
 -11906029.86307  21426425.85007  -9253142.15648  21426423.99448       862.38400
    458477.12906  20732254.26406    354979.96048  20732251.29548      -566.34100
 -18704302.00006  20735742.29506 -14570255.41248  20735739.08048      3420.98600
  -3736978.69107  21206131.31807  -2905169.94048  21206128.30748      -799.08300
 -14705552.52306  21793927.59206 -11455727.27548  21793925.66648      3538.70700
   7393098.47306  23074001.81106   5753220.91147  23074000.43647     -2228.88700
 08 11 10  1 19 29.9980000  0  9  3  6  7 13 16 19 23 25 31
 -13872199.48007  19149487.81107 -10794468.54749  19149485.82649      1460.72500
  -8556901.43007  19604749.67807  -6659740.12648  19604747.99048       426.77000
  -3336967.13706  23200489.41206  -2588927.09147  23200487.88147      4301.00600
 -11918812.90207  21423993.38907  -9263102.97348  21423990.70948       852.20300
    467008.39506  20733877.52906    361627.71248  20733874.93948      -568.75100
 -18755517.02706  20725996.38106 -14610163.20948  20725993.17848      3414.33500
  -3724869.77307  21208435.54507  -2895734.42748  21208432.36148      -807.26100
 -14758576.17606  21783837.30306 -11497044.37648  21783836.11148      3534.91000
   7426582.85206  23080373.10006   5779312.59347  23080372.55747     -2232.29200
 08 11 10  1 19 44.9980000  0  9  3  6  7 13 16 19 23 25 31
 -13893980.56307  19145342.88107 -10811440.80549  19145340.96749      1452.07200
  -8563191.64807  19603552.65407  -6664641.60048  19603551.40048       419.34800
  -3401462.55506  23188216.42006  -2639183.25847  23188215.04947      4299.69500
 -11931443.53907  21421589.52907  -9272945.03348  21421587.41248       842.04200
    475575.44107  20735508.20107    368303.31448  20735505.82248      -571.13600
 -18806632.52306  20716269.27906 -14649993.46448  20716265.97148      3407.70000
  -3712638.85907  21210763.02107  -2886203.84348  21210759.47948      -815.39400
 -14811542.82806  21773758.12306 -11538317.08648  21773756.53748      3531.11000
   7460117.63306  23086754.87306   5805443.56247  23086754.02547     -2235.65200
 08 11 10  1 19 59.9980000  0  9  3  6  7 13 16 19 23 25 31
 -13915630.35907  19141222.99807 -10828310.76949  19141221.70549      1443.32000
  -8569369.05106  19602377.06106  -6669455.16348  19602375.91248       411.82700
  -3465936.37106  23175947.10006  -2689422.57147  23175946.12747      4298.25400
 -11943920.10907  21419215.20107  -9282667.02648  21419212.93948       831.77100
    484179.86706  20737145.04506    375008.05448  20737142.85048      -573.62800
 -18857646.55506  20706561.56106 -14689744.64548  20706558.30348      3400.93500
  -3700284.44107  21213113.79507  -2876577.03548  21213110.31848      -823.62800
 -14864450.55106  21763690.46706 -11579543.87248  21763688.64348      3527.18200
   7493704.52006  23093146.52906   5831615.12047  23093144.90447     -2239.12600
 08 11 10  1 20 14.9980000  0  9  3  6  7 13 16 19 23 25 31
 -13937150.30507  19137127.75607 -10845079.55549  19137126.22949      1434.66300
  -8575435.21106  19601222.60006  -6674182.03348  19601221.33448       404.41100
  -3530389.75006  23163682.21706  -2739645.95747  23163681.18247      4296.89200
 -11956244.12107  21416870.25607  -9292270.17548  21416868.37748       821.60100
    492820.25806  20738789.42806    381740.81548  20738786.67048      -576.02600
 -18908560.45706  20696872.93606 -14729417.81048  20696869.54148      3394.26000
  -3687808.25407  21215487.90407  -2866855.33448  21215484.60748      -831.74600
 -14917300.51207  21753632.45907 -11620725.65148  21753631.70148      3523.33100
   7527341.82006  23099547.25606   5857825.98447  23099545.91247     -2242.48700
 08 11 10  1 20 29.9980000  0  9  3  6  7 13 16 19 23 25 31
 -13958541.00407  19133057.29507 -10861747.62549  19133055.79549      1426.04700
  -8581390.79307  19600089.35007  -6678822.75248  19600088.02948       397.03900
  -3594822.89806  23151420.47506  -2789853.56947  23151419.81147      4295.54300
 -11968416.10907  21414553.63907  -9301754.81748  21414552.24048       811.46600
    501496.00406  20740440.84206    388501.13048  20740437.47148      -578.38300
 -18959374.52306  20687203.62306 -14769013.17648  20687200.22148      3387.60400
  -3675211.08607  21217885.02107  -2857039.37348  21217881.83848      -839.81100
 -14970092.89507  21743586.97507 -11661862.58148  21743585.10048      3519.49200
   7561028.61706  23105957.44306   5884075.41147  23105956.86947     -2245.78600
 08 11 10  1 20 44.9980000  0  9  3  6  7 13 16 19 23 25 31
 -13979801.62107  19129011.35707 -10878314.33349  19129010.28749      1417.37400
  -8587235.12107  19598977.28707  -6683376.77348  19598975.67048       389.62200
  -3659235.11706  23139163.61506  -2840044.88747  23139162.08047      4294.14800
 -11980435.39107  21412266.72507  -9311120.51148  21412265.31848       801.28500
    510207.93006  20742098.14606    395289.66048  20742095.35448      -580.79500
 -19010087.76606  20677553.09206 -14808529.96948  20677549.67848      3380.88300
  -3662492.64507  21220305.35707  -2847128.89248  21220302.07248      -847.89600
 -15022826.69907  21733551.94307 -11702953.83948  21733550.30348      3515.58700
   7594765.64106  23112377.42806   5910363.94547  23112376.86547     -2249.13500
 08 11 10  1 20 59.9980000  0  9  3  6  7 13 16 19 23 25 31
 -14000931.98807  19124990.62307 -10894779.55049  19124989.03749      1408.69100
  -8592968.48807  19597885.99007  -6687844.32348  19597884.67048       382.22400
  -3723625.74206  23126910.56806  -2890219.39747  23126909.13147      4292.70800
 -11992302.07007  21410008.85007  -9320367.26948  21410007.13548       791.11200
    518956.06306  20743763.28706    402106.37648  20743760.42048      -583.20900
 -19060700.03106  20667921.98206 -14847968.09348  20667918.39348      3374.15100
  -3649652.95307  21222748.66207  -2837123.94448  21222744.85748      -855.97900
 -15075501.55507  21723528.51407 -11743999.18348  21723526.82248      3511.65700
   7628552.86706  23118807.06806   5936691.63647  23118806.45947     -2252.48200
 08 11 10  1 21 14.9980000  0  9  3  6  7 13 16 19 23 25 31
 -14021933.48407  19120994.01407 -10911144.35049  19120992.36949      1400.10000
  -8598591.84807  19596816.09207  -6692226.15948  19596814.53748       374.89100
  -3787995.43406  23114661.75606  -2940377.60347  23114660.49047      4291.31300
 -12004017.26207  21407779.29507  -9329495.99648  21407777.63148       781.01300
    527739.18006  20745434.28706    408950.36048  20745432.10448      -585.54100
 -19111212.06606  20658310.24806 -14887328.11048  20658306.26048      3367.46900
  -3636693.53907  21225214.84207  -2827025.69448  21225211.25248      -863.96100
 -15128118.18007  21713515.85007 -11784999.14248  21713514.20548      3507.77500
   7662389.14505  23125245.77105   5963057.55847  23125244.42047     -2255.75200
 08 11 10  1 21 29.9980000  0  9  3  6  7 13 16 19 23 25 31
 -14042805.05507  19117022.22507 -10927407.91049  19117021.07649      1391.43800
  -8604104.42606  19595767.13106  -6696521.67448  19595765.85748       367.50500
  -3852343.00405  23102416.41205  -2990518.52647  23102415.29547      4289.83800
 -12015579.96507  21405579.09207  -9338505.89748  21405577.22148       770.84700
    536558.39106  20747112.56806    415822.46348  20747109.93648      -587.94700
 -19161622.70306  20648717.14606 -14926609.11448  20648713.53348      3360.70900
  -3623613.80107  21227704.13907  -2816833.70448  21227700.09648      -871.98300
 -15180675.27007  21703514.66207 -11825952.70748  21703513.07248      3503.80600
   7696275.30105  23131694.13905   5989462.28647  23131693.11947     -2259.07700
 08 11 10  1 21 44.9980000  0  9  3  6  7 13 16 19 23 25 31
 -14063546.87507  19113075.41207 -10943570.36149  19113074.07249      1382.78800
  -8609506.54307  19594739.03707  -6700731.10848  19594737.69348       360.14100
  -3916668.33205  23090175.17805  -3040642.12847  23090175.07247      4288.35500
 -12026990.34007  21403407.56107  -9347397.09448  21403406.11948       760.69200
    545413.55906  20748797.81806    422722.59848  20748795.18248      -590.34500
 -19211932.02306  20639143.45106 -14965811.16348  20639139.64348      3353.95500
  -3610414.02307  21230215.71707  -2806548.16948  21230212.01448      -879.98500
 -15233172.71907  21693524.51407 -11866859.80948  21693523.17848      3499.83000
   7730210.95305  23138152.44305   6015905.61247  23138150.47947     -2262.37700
 08 11 10  1 21 59.9980000  0 10  3  6  7 13 16 19 21 23 25 31
 -14084159.77007  19109152.60707 -10959632.35349  19109151.13949      1374.19300
  -8614798.97307  19593731.83407  -6704855.07748  19593730.70548       352.82900
  -3980971.78905  23077939.45105  -3090748.70647  23077937.99847      4286.89700
 -12038248.97307  21401265.52907  -9356170.06248  21401263.29948       750.57600
    554304.01606  20750489.52106    429650.21848  20750487.32648      -592.69700
 -19262140.32406  20629589.12306 -15004934.49948  20629585.42448      3347.22000
        55.85913  23368404.91203  -4837470.71256  23368401.41646       -15.10900
  -3597095.07007  21232750.28707  -2796169.76348  21232746.21748      -887.93000
 -15285610.81306  21683546.08406 -11907720.65048  21683544.06448      3495.87300
   7764195.34405  23144618.36505   6042386.88947  23144617.83847     -2265.62600
 08 11 10  1 22 14.9980000  0 10  3  6  7 13 16 19 21 23 25 31
 -14104643.69107  19105254.92807 -10975593.85749  19105253.08449      1365.59500
  -8619981.82806  19592745.43606  -6708893.65648  19592744.35748       345.52400
  -4045252.93005  23065706.85705  -3140837.90347  23065705.97947      4285.40900
 -12049356.05107  21399151.63907  -9364824.93048  21399149.82648       740.47200
    563229.70306  20752187.90406    436605.29448  20752185.83048      -595.04600
 -19312247.52006  20620053.93606 -15043979.04948  20620050.18248      3340.48000
       343.78502  23368457.64602  -4837246.32445  23368455.67445       -19.19500
  -3583657.28907  21235307.42807  -2785698.77348  21235303.74048      -895.85200
 -15337989.26607  21673578.99807 -11948535.02148  21673576.68248      3491.89700
   7798228.30105  23151094.89605   6068906.04147  23151093.32647     -2268.86400
 08 11 10  1 22 29.9980000  0 10  3  6  7 13 16 19 21 23 25 31
 -14124999.36307  19101381.19307 -10991455.41549  19101379.72149      1357.04500
  -8625056.07807  19591780.32607  -6712847.62148  19591778.66648       338.28300
  -4109512.26205  23053478.67805  -3190910.08647  23053477.50247      4283.95500
 -12060312.42607  21397067.18607  -9373362.37848  21397065.14348       730.42500
    572189.89106  20753892.84206    443587.25148  20753890.98648      -597.34600
 -19362254.18006  20610537.70106 -15082945.26748  20610534.23648      3333.77700
       746.48804  23368535.29504  -4836932.58245  23368531.38145       -26.84700
  -3570101.98407  21237886.63907  -2775136.20248  21237883.42048      -903.68700
 -15390308.52707  21663622.85707 -11989303.27148  21663620.58448      3487.95100
   7832308.89805  23157580.16205   6095462.32147  23157578.98647     -2272.04000
 08 11 10  1 22 44.9980000  0 10  3  6  7 13 16 19 21 23 25 31
 -14145226.93807  19097532.49007 -11007217.15449  19097530.74049      1348.50500
  -8630021.91007  19590835.30307  -6716717.08748  19590833.65448       331.05500
  -4173749.53105  23041254.34205  -3240965.07147  23041253.03747      4282.48500
 -12071118.11707  21395010.36507  -9381782.39748  21395008.90448       720.37900
    581184.54706  20755604.54506    450596.06548  20755602.23248      -599.64400
 -19412160.12907  20601040.79507 -15121833.01648  20601037.74048      3327.06300
      1263.85504  23368633.77104  -4836529.44145  23368630.43945       -34.49100
  -3556429.20707  21240488.63107  -2764482.11248  21240485.37348      -911.51800
 -15442568.35507  21653677.90407 -12030025.20848  21653675.73248      3483.98900
   7866436.84805  23164074.78705   6122055.44146  23164073.81846     -2275.19700
 08 11 10  1 22 59.9980000  0 10  3  6  7 13 16 19 21 23 25 31
 -14165326.23407  19093707.17807 -11022878.92949  19093705.81449      1339.95300
  -8634879.37907  19589910.81807  -6720502.12648  19589909.13148       323.83100
  -4237964.28905  23029035.01405  -3291002.53147  23029033.47547      4280.98400
 -12081773.12907  21392983.03707  -9390085.01448  21392980.89648       710.33400
    590213.72707  20757322.79507    457631.78448  20757320.02548      -601.94500
 -19461965.07007  20591563.48207 -15160642.05348  20591559.82248      3320.32900
      1895.98805  23368753.78705  -4836036.83546  23368750.39646       -42.14200
  -3542639.19907  21243112.94307  -2753736.66448  21243109.15848      -919.33400
 -15494768.31307  21643744.48207 -12070700.50048  21643742.25648      3479.99700
   7900612.32405  23170578.52905   6148685.67747  23170577.31147     -2278.36500
 08 11 10  1 23 14.9980000  0 10  3  6  7 13 16 19 21 23 25 31
 -14185297.85507  19089906.92807 -11038441.23149  19089905.54149      1331.44100
  -8639629.16007  19589006.79507  -6724203.25448  19589005.40048       316.65200
  -4302156.85204  23016819.02904  -3341022.66247  23016818.01847      4279.50400
 -12092278.12107  21390983.92807  -9398270.72248  21390981.86548       700.33300
    599277.05107  20759047.79507    464694.11348  20759044.99448      -604.22200
 -19511669.24607  20582105.18607 -15199372.57448  20582101.48248      3313.61200
      2642.28905  23368895.80305  -4835455.35646  23368891.82646       -49.75300
  -3528732.78907  21245759.38107  -2742900.51548  21245755.60748      -927.09400
 -15546908.64507  21633822.49807 -12111329.32448  21633820.32248      3476.02200
   7934834.46506  23177091.06806   6175352.21547  23177089.55747     -2281.47600
 08 11 10  1 23 29.9980000  0 10  3  6  7 13 16 19 21 23 25 31
 -14205142.02707  19086130.91207 -11053904.21649  19086129.35049      1322.94500
  -8644271.21107  19588123.60707  -6727820.43848  19588121.95148       309.47000
  -4366327.02005  23004608.03705  -3391025.36547  23004606.51847      4278.01100
 -12102633.07807  21389013.35007  -9406339.51548  21389011.10048       690.33000
    608374.50407  20760778.62307    471783.03048  20760776.43948      -606.49700
 -19561272.57407  20572665.71707 -15238024.49648  20572662.56848      3306.88900
      3502.72305  23369059.09205  -4834784.89746  23369055.41246       -57.36200
  -3514710.25407  21248427.59207  -2731973.87748  21248423.92448      -934.83600
 -15598988.96907  21623912.36507 -12151911.38748  21623909.48648      3472.02200
   7969103.11706  23183611.74806   6202055.02747  23183610.14347     -2284.57700
 08 11 10  1 23 44.9980000  0 10  3  6  7 13 16 19 21 23 25 31
 -14224857.59007  19082379.07607 -11069266.98249  19082377.80349      1314.37100
  -8648804.85507  19587260.93607  -6731353.15248  19587259.51048       302.24300
  -4430473.39804  22992400.97504  -3441009.55447  22992399.24047      4276.42500
 -12112837.12907  21387071.35707  -9414290.72948  21387069.20548       680.27000
    617507.00007  20762516.83407    478899.25448  20762514.82248      -608.83300
 -19610773.85907  20563246.28707 -15276596.93348  20563242.64648      3300.08600
      4478.21505  23369244.07605  -4834024.72546  23369240.97946       -65.03300
  -3500570.89507  21251118.60007  -2720956.20248  21251114.90848      -942.62400
 -15651007.97707  21614013.13107 -12192445.66348  21614010.73648      3467.93400
   8003419.17606  23190141.88906   6228794.79547  23190140.21347     -2287.73700
 08 11 10  1 23 59.9980000  0 10  3  6  7 13 16 19 21 23 25 31
 -14244445.30507  19078651.35707 -11084530.13049  19078649.74049      1305.84800
  -8653230.66407  19586418.42007  -6734801.83348  19586417.11548       295.05400
  -4494596.19505  22980199.58405  -3490975.34047  22980197.35047      4274.85300
 -12122890.80507  21385158.11507  -9422124.74848  21385156.52148       670.24500
    626673.83207  20764261.24007    486042.22548  20764259.18648      -611.12200
 -19660173.60207  20553845.94307 -15315090.21748  20553842.12748      3293.31600
      5568.14105  23369452.42005  -4833175.45746  23369448.99846       -72.66200
  -3486315.74207  21253831.08407  -2709848.30248  21253827.25248      -950.34300
 -15702965.97707  21604125.88107 -12232932.41548  21604123.18248      3463.86700
   8037781.92606  23196681.95106   6255570.91847  23196678.24847     -2290.85000
 08 11 10  1 24 14.9970000  0 10  3  6  7 13 16 19 21 23 25 31
 -14263903.46507  19074948.67307 -11099692.33849  19074947.14649      1297.21100
  -8657548.30907  19585597.18107  -6738166.23548  19585595.64948       287.84300
  -4558690.39504  22968003.09504  -3540918.86247  22968000.84147      4272.94700
 -12132793.20307  21383273.77407  -9429840.90548  21383271.60348       660.16000
    635874.77307  20766012.15707    493211.78748  20766009.18548      -613.39600
 -19709467.93407  20544465.36007 -15353501.37648  20544461.90748      3286.28900
      6772.77005  23369681.60305  -4832236.86546  23369678.54046       -80.30900
  -3471945.62507  21256565.36007  -2698650.82248  21256561.74748      -958.00800
 -15754858.84807  21594251.30607 -12273368.41748  21594248.64248      3459.52500
   8072189.21506  23203228.85306   6282381.72947  23203226.68147     -2293.81900
 08 11 10  1 24 29.9970000  0 10  3  6  7 13 16 19 21 23 25 31
 -14283233.98807  19071270.24307 -11114755.07849  19071268.57949      1288.70200
  -8661757.73807  19584795.71207  -6741446.30348  19584794.27448       280.62900
  -4622763.67205  22955810.34505  -3590846.05447  22955808.32947      4271.55200
 -12142544.89807  21381418.47807  -9437439.62748  21381416.01348       650.11300
    645111.87107  20767769.92307    500409.51948  20767767.26348      -615.80700
 -19758662.43807  20535104.01707 -15391834.74848  20535100.88848      3279.63400
      8092.88705  23369932.56305  -4831208.13346  23369929.14246       -88.00800
  -3457458.13307  21259322.43807  -2687361.86848  21259318.58348      -965.83300
 -15806692.46907  21584387.43107 -12313758.23548  21584384.85648      3455.57500
   8106646.27306  23209785.91506   6309231.36947  23209784.00947     -2297.13700
 08 11 10  1 24 44.9970000  0 10  3  6  7 13 16 19 21 23 25 31
 -14302436.54707  19067616.14907 -11129718.10949  19067614.47049      1280.17100
  -8665859.61707  19584015.69607  -6744642.56848  19584014.13448       273.45900
  -4686812.20705  22943621.68805  -3640753.99047  22943620.22047      4269.90200
 -12152146.31307  21379591.27407  -9444921.23448  21379589.10348       640.09400
    654383.75007  20769534.29007    507634.37348  20769531.99748      -618.12500
 -19807754.53107  20525761.57907 -15430088.31348  20525758.78248      3272.80600
      9527.77705  23370205.19605  -4830090.05346  23370201.31046       -95.65900
  -3442855.44907  21262101.25107  -2675983.14948  21262097.60348      -973.51200
 -15858463.93807  21574535.23507 -12354099.62748  21574533.21648      3451.43100
   8141149.67606  23216351.49306   6336117.11847  23216349.91947     -2300.22700
 08 11 10  1 24 59.9970000  0 10  3  6  7 13 16 19 21 23 25 31
 -14321511.74607  19063986.26707 -11144581.89849  19063984.23149      1271.68000
  -8669854.82807  19583255.50107  -6747755.72348  19583254.03248       266.34700
  -4750836.35505  22931439.18805  -3690642.92147  22931436.91147      4268.27700
 -12161597.99607  21377792.65707  -9452286.20048  21377790.59548       630.11200
    663689.72307  20771304.89207    514885.75948  20771303.06048      -620.39800
 -19856744.44107  20516439.31307 -15468262.26648  20516436.75548      3265.99400
     11076.77005  23370500.54805  -4828883.03846  23370496.22846      -103.26600
  -3428138.49607  21264901.60307  -2664515.40748  21264898.07148      -981.13000
 -15910173.47307  21564695.79007 -12394392.77348  21564693.02848      3447.30200
   8175698.93806  23222926.39206   6363038.60547  23222924.72447     -2303.28400
 08 11 10  1 25 14.9970000  0 10  3  6  7 13 16 19 21 23 25 31
 -14340459.44907  19060380.61007 -11159346.34749  19060378.25949      1263.18000
  -8673743.08607  19582514.91507  -6750785.52848  19582513.68548       259.21700
  -4814835.45305  22919259.86005  -3740512.34547  22919258.05647      4266.60700
 -12170899.73407  21376022.76707  -9459534.29648  21376020.48148       620.11600
    673030.10507  20773082.37607    522163.98548  20773079.79448      -622.69200
 -19905631.85207  20507136.39907 -15506356.33648  20507133.29448      3259.16100
     12740.37905  23370816.91505  -4827586.75246  23370812.91546      -110.90700
  -3413307.20307  21267724.36007  -2652958.57848  21267720.34148      -988.75300
 -15961820.47307  21554867.55607 -12434637.19048  21554865.28248      3443.13300
   8210293.97706  23229509.64206   6389995.73847  23229508.16547     -2306.33600
 08 11 10  1 25 29.9970000  0 10  3  6  7 13 16 19 21 23 25 31
 -14359278.87107  19056799.36007 -11174010.81849  19056797.61849      1254.62800
  -8677524.00807  19581795.75107  -6753731.70548  19581794.72048       252.06100
  -4878808.73003  22907086.11003  -3790361.64747  22907084.57147      4264.88500
 -12180051.05507  21374281.43107  -9466665.19648  21374279.51748       610.08800
    682405.39507  20774866.54807    529469.39248  20774863.83748      -625.01900
 -19954416.12107  20497852.95407 -15544370.04248  20497849.71248      3252.28500
     14518.14505  23371154.97005  -4826201.46946  23371151.25146      -118.51800
  -3398361.36307  21270568.33707  -2641312.46048  21270564.65748      -996.38900
 -16013404.12507  21545051.47007 -12474832.24348  21545049.32548      3438.91000
   8244935.17606  23236101.38406   6416988.85746  23236100.13446     -2309.41300
 08 11 10  1 25 44.9970000  0 10  3  6  7 13 16 19 21 23 25 31
 -14377971.55907  19053242.34507 -11188576.55249  19053240.22849      1246.17900
  -8681199.21507  19581096.68107  -6756595.49648  19581094.72048       245.01400
  -4942757.19904  22894917.00904  -3840191.58347  22894915.50947      4263.23100
 -12189053.43407  21372568.26707  -9473680.04247  21372566.35647       600.15900
    691814.26207  20776656.96207    536800.96848  20776654.22048      -627.25800
 -20003098.54707  20488589.01707 -15582304.39248  20488586.04448      3245.49500
     16408.70704  23371514.31304  -4824728.35446  23371511.54046      -126.03700
  -3383302.64107  21273433.64907  -2629578.40248  21273429.84148     -1003.91500
 -16064925.51207  21535247.02407 -12514978.75348  21535244.85648      3434.75900
   8279620.89106  23242701.91506   6444016.64746  23242700.51746     -2312.38100
 08 11 10  1 25 59.9970000  0 10  3  6  7 13 16 19 21 23 25 31
 -14396536.34007  19049709.45407 -11203042.61349  19049707.66149      1237.65200
  -8684767.54307  19580417.77407  -6759376.01148  19580415.88848       237.88900
  -5006679.22304  22882753.44604  -3890000.94347  22882751.96647      4261.46800
 -12197905.84407  21370883.51707  -9480578.02947  21370881.52447       590.16100
    701257.93807  20778453.84507    544159.67448  20778451.14948      -629.57800
 -20051677.50407  20479344.68107 -15620158.12248  20479341.57948      3238.59700
     18413.66804  23371896.24304  -4823166.08746  23371892.22446      -133.66400
  -3368130.06307  21276321.38407  -2617755.61248  21276317.30248     -1011.50500
 -16116383.07407  21525454.82107 -12555075.54548  21525452.94248      3430.50400
   8314352.34006  23249311.25106   6471080.07447  23249309.67747     -2315.43000
 08 11 10  1 26 14.9970000  0 10  3  6  7 13 16 19 21 23 25 31
 -14414973.70707  19046200.89907 -11217409.38349  19046199.31349      1229.15800
  -8688229.41807  19579758.65707  -6762073.58248  19579756.76748       230.79200
  -5070574.96903  22870593.90703  -3939789.81047  22870592.93147      4259.71600
 -12206608.63707  21369227.54807  -9487359.42048  21369225.90748       580.18600
    710736.03907  20780257.37607    551545.19048  20780255.18848      -631.87300
 -20100153.27707  20470120.34507 -15657931.45048  20470116.71248      3231.71800
     20532.66005  23372299.40705  -4821514.85746  23372296.94246      -141.26600
  -3352844.33207  21279229.65707  -2605844.67048  21279226.24348     -1019.04900
 -16167776.82807  21515675.32107 -12595122.62848  21515673.26748      3426.25000
   8349128.90606  23255929.07906   6498178.64647  23255927.34147     -2318.43800
 08 11 10  1 26 29.9970000  0 10  3  6  7 13 16 19 21 23 25 31
 -14433283.94107  19042716.93107 -11231677.09449  19042715.31749      1220.68200
  -8691585.41407  19579120.27407  -6764688.63948  19579118.87248       223.73300
  -5134444.39804  22858439.84504  -3989558.18847  22858439.16547      4257.96200
 -12215162.03507  21367599.75907  -9494024.39748  21367598.33348       570.22700
    720248.36307  20782067.94607    558957.37848  20782065.10648      -634.15500
 -20148525.83607  20460914.98507 -15695624.34948  20460911.58348      3224.83700
     22765.30504  23372723.84504  -4819775.08846  23372722.12246      -148.84300
  -3337446.10507  21282160.29807  -2593846.07048  21282156.37248     -1026.54800
 -16219106.73007  21505907.66507 -12635119.94248  21505905.43848      3421.99300
   8383950.35506  23262554.96206   6525312.17247  23262554.00947     -2321.43000
 08 11 10  1 26 44.9970000  0 10  3  6  7 13 16 19 21 23 25 31
 -14451467.19907  19039256.64207 -11245845.86649  19039254.89949      1212.21700
  -8694835.77307  19578501.25107  -6767221.38348  19578499.85648       216.69100
  -5198287.36704  22846291.50104  -4039305.93447  22846289.72847      4256.19800
 -12223566.43407  21366000.75107  -9500573.29748  21365998.92748       560.29300
    729794.69907  20783884.58707    566396.07548  20783881.17748      -636.42200
 -20196795.18007  20451729.81307 -15733236.81248  20451726.48548      3217.95600
     25111.62904  23373169.88404  -4817946.84246  23373168.68546      -156.42200
  -3321935.91407  21285111.34507  -2581760.21048  21285108.13048     -1034.01300
 -16270372.61707  21496151.61007 -12675067.37848  21496149.71248      3417.72600
   8418816.32006  23269189.84506   6552480.43747  23269188.87647     -2324.39800
 08 11 10  1 26 59.9970000  0 10  3  6  7 13 16 19 21 23 25 31
 -14469523.79307  19035820.68807 -11259915.92849  19035818.64649      1203.77300
  -8697980.67607  19577902.77407  -6769671.95748  19577901.26348       209.66000
  -5262103.60205  22834147.00905  -4089032.84047  22834146.15347      4254.41600
 -12231821.90607  21364429.60307  -9507006.12248  21364427.96648       550.36500
    739375.00007  20785707.50907    573861.23948  20785704.23148      -638.68700
 -20244961.29707  20442564.49307 -15770768.83848  20442560.70048      3211.07400
     27571.28905  23373638.80605  -4816030.29946  23373636.55646      -163.97700
  -3306314.07007  21288084.51707  -2569587.35348  21288080.65748     -1041.45600
 -16321574.32806  21486408.30606 -12714964.81848  21486406.67748      3413.44700
   8453726.50405  23275833.05605   6579683.13347  23275831.83747     -2327.34600
 08 11 10  1 27 14.9970000  0 10  3  6  7 13 16 19 21 23 25 31
 -14487452.03107  19032408.89907 -11273885.98249  19032407.36449      1195.21600
  -8701018.79307  19577324.62607  -6772039.33048  19577323.14648       202.54100
  -5325891.16005  22822008.78205  -4138737.40447  22822007.51747      4252.50400
 -12239926.76607  21362887.53207  -9513321.60347  21362885.49747       540.32400
    748990.87907  20787537.14207    581354.12148  20787534.16548      -641.05900
 -20293022.27007  20433418.41507 -15808218.94848  20433414.68148      3204.06500
     30145.73005  23374130.07905  -4814024.26546  23374126.27846      -171.62900
  -3290579.22707  21291078.58707  -2557326.44348  21291075.53248     -1048.99000
 -16372709.79707  21476677.88407 -12754810.62048  21476675.95448      3409.03100
   8488682.43805  23282484.81305   6606921.46646  23282483.81046     -2330.39600
 08 11 10  1 27 29.9970000  0 10  3  6  7 13 16 19 21 23 25 31
 -14505253.31607  19029021.52407 -11287757.10949  19029019.97049      1186.75200
  -8703951.43007  19576766.84507  -6774324.49748  19576765.17348       195.50900
  -5389651.07805  22809876.52405  -4188420.43547  22809874.35347      4250.66100
 -12247882.50007  21361373.70407  -9519520.86548  21361371.62648       530.38200
    758641.02707  20789374.15707    588873.70848  20789370.67748      -643.34300
 -20340979.29707  20424292.78207 -15845588.05548  20424288.80248      3197.13500
     32833.52705  23374641.21205  -4811929.85546  23374638.97046      -179.18600
  -3274733.00007  21294094.04807  -2544978.74148  21294090.52848     -1056.41500
 -16423780.11707  21466959.26707 -12794605.67748  21466957.49348      3404.68800
   8523682.56306  23289145.63406   6634194.24947  23289144.64647     -2333.34200
 08 11 10  1 27 44.9970000  0 10  3  6  7 13 16 19 21 23 25 31
 -14522927.20707  19025658.25907 -11301528.97149  19025656.78649      1178.25900
  -8706778.47707  19576228.72007  -6776527.39548  19576227.03248       188.47000
  -5453382.62506  22797748.76706  -4238081.35247  22797746.62247      4248.77000
 -12255689.02707  21359887.80607  -9525603.87047  21359885.93547       520.43500
    768325.78107  20791216.54007    596420.27548  20791213.60648      -645.65000
 -20388831.93807  20415186.58707 -15882875.80548  20415182.93848      3190.17600
     35635.22305  23375173.64205  -4809746.73046  23375172.59546      -186.78000
  -3258775.22307  21297130.46207  -2532544.12048  21297127.27148     -1063.85200
 -16474784.54707  21457253.36007 -12834349.38448  21457251.77148      3400.29500
   8558727.00806  23295814.19606   6661501.57047  23295813.27847     -2336.29600
 08 11 10  1 27 59.9970000  0 10  3  6  7 13 16 19 21 23 25 31
 -14540474.15607  19022319.12607 -11315201.91849  19022317.45849      1169.79700
  -8709500.44107  19575711.14907  -6778648.40848  19575709.14948       181.46400
  -5517085.81605  22785625.32905  -4287720.17747  22785624.10347      4246.87900
 -12263346.77707  21358430.60307  -9531570.94348  21358429.05648       510.51700
    778044.79707  20793066.11007    603993.51248  20793062.81048      -647.93400
 -20436580.28507  20406099.89207 -15920082.30448  20406096.89948      3183.22300
     38550.28505  23375728.11005  -4807475.23346  23375727.20446      -194.33800
  -3242706.66407  21300188.47807  -2520023.15848  21300185.18548     -1071.23700
 -16525723.19906  21447560.29806 -12874041.83948  21447558.52148      3395.91000
   8593815.36706  23302491.26706   6688843.09747  23302490.45047     -2339.22400
 08 11 10  1 28 14.9970000  0 10  3  6  7 13 16 19 21 23 25 31
 -14557893.38307  19019004.09507 -11328775.33949  19019002.57149      1161.28200
  -8712116.48807  19575213.18107  -6780686.89148  19575211.45448       174.40300
  -5580759.42606  22773509.40706  -4337335.98747  22773507.21247      4244.90700
 -12270854.65607  21357001.54007  -9537421.23848  21357000.04448       500.52500
    787799.03107  20794922.89907    611594.20848  20794919.55648      -650.28200
 -20484223.30107  20397033.91507 -15957206.72848  20397030.70048      3176.20100
     41579.40605  23376304.97005  -4805114.86646  23376303.42746      -201.94100
  -3226526.70307  21303266.94607  -2507415.40948  21303263.84548     -1078.66400
 -16576594.77706  21437879.81306 -12913682.02248  21437877.95448      3391.43900
   8628948.37906  23309177.54806   6716219.44347  23309176.31747     -2342.20100
 08 11 10  1 28 29.9970000  0 10  3  6  7 13 16 19 21 23 25 31
 -14575185.85507  19015713.58707 -11342249.99149  19015711.69249      1152.83200
  -8714627.59807  19574735.10307  -6782643.58948  19574733.79448       167.40700
  -5644404.02006  22761398.66506  -4386929.15647  22761395.74347      4242.97300
 -12278213.79307  21355601.75107  -9543155.63748  21355599.87648       490.60900
    797587.70707  20796785.49307    619221.73648  20796782.22848      -652.57800
 -20531761.61707  20387987.86007 -15994249.57348  20387984.30648      3169.22100
     44721.73406  23376903.33706  -4802666.31846  23376901.57546      -209.48900
  -3210236.60507  21306366.91507  -2494721.83948  21306363.98548     -1086.00700
 -16627399.82806  21428211.82906 -12953270.37148  21428210.18148      3387.00300
   8664125.00806  23315870.50106   6743629.74147  23315869.74747     -2345.10900
 08 11 10  1 28 44.9970000  0 10  3  6  7 13 16 19 21 23 25 31
 -14592351.33607  19012447.12607 -11355625.68949  19012445.22849      1144.36500
  -8717033.74607  19574277.46207  -6784518.50548  19574275.98948       160.41000
  -5708018.94506  22749293.19606  -4436499.22347  22749290.16947      4240.99500
 -12285423.94507  21354229.52407  -9548773.93748  21354227.47448       480.67700
    807410.95707  20798654.36807    626876.21948  20798651.21248      -654.88300
 -20579194.75807  20378961.47007 -16031210.44448  20378958.21248      3162.20900
     47977.79306  23377522.64906  -4800129.09846  23377520.59146      -217.07100
  -3193836.35207  21309488.18807  -2481942.43048  21309485.09148     -1093.35000
 -16678137.82006  21418556.52406 -12992806.45648  21418555.23148      3382.53300
   8699345.46106  23322572.89206   6771074.20047  23322571.95447     -2348.03000
 08 11 10  1 28 59.9970000  0 10  3  6  7 13 16 19 21 23 25 31
 -14609389.82007  19009204.97007 -11368902.43249  19009203.06349      1135.89900
  -8719335.06607  19573839.20407  -6786311.74848  19573837.79048       153.42100
  -5771603.99206  22737193.24306  -4486045.99247  22737190.29847      4239.00300
 -12292485.27007  21352885.60307  -9554276.25748  21352883.62248       470.75500
    817268.91007  20800530.29007    634557.74248  20800527.29448      -657.19700
 -20626522.46507  20369955.99307 -16068089.16548  20369952.36448      3155.18000
     51347.32006  23378163.68106  -4797503.50946  23378161.28646      -224.63500
  -3177326.29707  21312630.04007  -2469077.45948  21312626.29448     -1100.67000
 -16728808.37906  21408913.96206 -13032289.99548  21408912.76348      3378.03700
   8734609.64506  23329283.68806   6798552.74347  23329282.09547     -2350.94600
 08 11 10  1 29 14.9970000  0 10  3  6  7 13 16 19 21 23 25 31
 -14626301.10907  19005987.03207 -11382080.04749  19005984.89649      1127.41900
  -8721531.41407  19573421.72807  -6788023.18448  19573419.64948       146.42300
  -5835158.45306  22725099.02406  -4535568.93547  22725096.32147      4236.96400
 -12299397.61707  21351570.50107  -9559662.48248  21351568.45848       460.82300
    827161.77307  20802412.78207    642266.45948  20802409.97848      -659.52400
 -20673744.49607  20360969.27407 -16104885.54148  20360965.78648      3148.13500
     54830.28906  23378826.91506  -4794789.51746  23378824.09546      -232.19800
  -3160706.40207  21315792.70407  -2456126.88448  21315788.73948     -1107.99300
 -16779410.89506  21399284.68106 -13071720.54048  21399283.04848      3373.50100
   8769917.49606  23336002.20406   6826065.31647  23336001.46247     -2353.85700
 08 11 10  1 29 29.9970000  0 10  3  6  7 13 16 19 21 23 25 31
 -14643086.35507  19002792.82107 -11395159.46149  19002791.00149      1119.01600
  -8723624.14807  19573023.34507  -6789653.87948  19573021.57148       139.51600
  -5898683.06306  22713010.59506  -4585068.59647  22713007.67747      4234.97400
 -12306162.02307  21350283.36807  -9564933.45148  21350281.11848       450.96000
    837088.64507  20804302.05607    650001.67248  20804299.09548      -661.79100
 -20720861.69907  20352003.10307 -16141600.24348  20351999.64948      3141.14700
     58425.74206  23379511.74306  -4791987.87346  23379509.11846      -239.69700
  -3143978.01607  21318975.90707  -2443091.77648  21318972.31748     -1115.22600
 -16829946.11307  21389668.12607 -13111098.62148  21389666.63048      3369.01500
   8805267.83606  23342729.62606   6853610.95947  23342728.45447     -2356.68900
 08 11 10  1 29 44.9970000  0 10  3  6  7 13 16 19 21 23 25 31
 -14659745.32007  18999622.56307 -11408140.46949  18999620.90749      1110.59800
  -8725613.00007  19572644.58707  -6791203.62748  19572642.97848       132.59000
  -5962177.39106  22700928.24306  -4634544.70447  22700924.84547      4232.95500
 -12312778.45707  21349023.73507  -9570089.10847  21349021.84947       441.09600
    847049.59807  20806197.54007    657763.45748  20806194.26748      -664.06400
 -20767873.68407  20343056.82107 -16178232.95048  20343053.30248      3134.13200
     62134.00006  23380216.50106  -4789098.31546  23380214.16946      -247.21700
  -3127141.39507  21322179.76707  -2429972.33748  21322176.10348     -1122.44100
 -16880413.57806  21380064.52406 -13150423.91148  21380062.96648      3364.49800
   8840660.56306  23349464.88406   6881189.68547  23349463.75947     -2359.51500
 08 11 10  1 29 59.9970000  0 10  3  6  7 13 16 19 21 23 25 31
 -14676276.68807  18996476.71207 -11421022.04349  18996474.95049      1102.09100
  -8727496.87907  19572286.18807  -6792671.58948  19572284.77148       125.59200
  -6025639.71506  22688851.22006  -4683995.83047  22688848.51347      4230.82200
 -12319245.69107  21347792.97807  -9575128.51147  21347791.38447       431.14900
    857046.08207  20808099.52407    665552.91748  20808096.71248      -666.43200
 -20814778.89807  20334131.27407 -16214782.44748  20334127.83748      3127.01400
     65956.05106  23380944.31306  -4786120.08646  23380941.11846      -254.80300
  -3110195.45707  21325404.25907  -2416767.71748  21325400.45048     -1129.72900
 -16930811.57007  21370474.49307 -13189695.06548  21370472.78648      3359.86600
   8876097.02006  23356207.98506   6908802.45847  23356207.08347     -2362.43000
 08 11 10  1 30 14.9970000  0 10  3  6  7 13 16 19 21 23 25 31
 -14692680.59007  18993355.43107 -11433804.29949  18993353.72849      1093.59300
  -8729275.91807  19571947.66507  -6794057.86048  19571946.28648       118.60300
  -6089069.68806  22676781.17306  -4733421.74947  22676778.17747      4228.66500
 -12325563.79707  21346591.03207  -9580051.69747  21346589.44647       421.20700
    867078.05907  20810008.50107    673370.02948  20810005.67748      -668.79800
 -20861577.05507  20325225.79007 -16251248.53948  20325222.29448      3119.87700
     69892.05106  23381692.75906  -4783053.10346  23381691.07946      -262.40000
  -3093140.44907  21328649.64207  -2403478.09348  21328645.84948     -1137.00100
 -16981139.78906  21360896.87606 -13228911.84548  21360895.57548      3355.21500
   8911577.15206  23362959.88406   6936449.28747  23362959.71647     -2365.34200
 08 11 10  1 30 29.9970000  0 10  3  6  7 13 16 19 21 23 25 31
 -14708958.12507  18990257.38407 -11446488.09449  18990256.05249      1085.16900
  -8730951.19507  19571628.68807  -6795363.26648  19571627.09148       111.68500
  -6152467.91806  22664716.82906  -4782822.98547  22664713.89247      4226.54900
 -12331733.80107  21345416.25107  -9584859.49347  21345415.06747       411.33400
    877144.71507  20811924.12607    681214.17548  20811921.39648      -671.11000
 -20908269.07007  20316340.79007 -16287631.93248  20316337.37248      3112.80100
     73940.96106  23382463.55606  -4779898.07847  23382461.63047      -269.92700
  -3075977.73407  21331915.87607  -2390104.55948  21331912.19248     -1144.18100
 -17031398.80107  21351333.34507 -13268074.71248  21351331.39648      3350.60100
   8947099.75406  23369719.50906   6964129.19247  23369719.05247     -2368.17300
 08 11 10  1 30 44.9970000  0 11  3  6  7 13 16 19 21 23 25 27 31
 -14725108.87907  18987184.01707 -11459073.08649  18987182.87249      1076.71700
  -8732522.46507  19571330.05607  -6796587.63048  19571328.48548       104.75100
  -6215833.91006  22652658.76706  -4832199.05547  22652655.82147      4224.39900
 -12337755.50006  21344270.56306  -9589551.71847  21344268.88047       401.44700
    887246.32407  20813846.43107    689085.56348  20813843.11448      -673.44100
 -20954854.47707  20307476.15707 -16323932.24848  20307471.98948      3105.69400
     78103.18806  23383255.63406  -4776654.82247  23383253.27147      -277.48200
  -3058707.18407  21335202.16507  -2376646.99548  21335198.72448     -1151.37000
 -17081587.96906  21341782.37606 -13307183.15448  21341780.41948      3345.94500
   -146180.92214  24061231.25104   -104115.30356  24061230.19646      4105.82800
   8982665.02306  23376486.75906   6991842.35447  23376486.81047     -2371.01800
 08 11 10  1 30 59.9970000  0 11  3  6  7 13 16 19 21 23 25 27 31
 -14741134.54707  18984134.39907 -11471560.62149  18984133.25949      1068.37800
  -8733991.47307  19571049.98507  -6797732.31148  19571048.56748        97.93400
  -6279168.61706  22640606.18106  -4881550.73547  22640603.44247      4222.31400
 -12343630.36706  21343152.71206  -9594129.55648  21343150.65748       391.65800
    897381.44107  20815775.18107    696983.04448  20815772.26348      -675.67400
 -21001334.48407  20298631.38407 -16360150.43448  20298627.41548      3098.66700
     82376.91806  23384069.42306  -4773324.67346  23384066.72846      -284.91500
  -3041330.48807  21338508.90707  -2363106.71948  21338504.85348     -1158.44600
 -17131708.36707  21332245.07907 -13346237.99548  21332242.95048      3341.36000
   -207766.80903  24049511.99303   -152104.27746  24049510.82546      4105.72600
   9018271.36706  23383263.34506   7019587.50547  23383262.51347     -2373.75600
 08 11 10  1 31 14.9970000  0 11  3  6  7 13 16 19 21 23 25 27 31
 -14757036.84807  18981108.43807 -11483952.02349  18981106.87649      1060.15300
  -8735360.09007  19570789.88407  -6798798.77248  19570788.44648        91.24100
  -6342473.37506  22628560.05606  -4930879.11547  22628557.43847      4220.31700
 -12349360.27706  21342062.26706  -9598594.41347  21342060.50947       381.99400
    907548.24607  20817709.83707    704905.22748  20817707.25548      -677.78700
 -21047710.60206  20289806.01706 -16396287.64648  20289802.83348      3091.74100
     86760.39106  23384903.37606  -4769908.97847  23384901.09147      -292.23200
  -3023849.80507  21341835.32107  -2349485.41348  21341831.64248     -1165.37900
 -17181761.46507  21322720.33707 -13385240.41548  21322718.11848      3336.87300
   -269350.50804  24037792.97004   -200091.58346  24037791.14946      4105.58000
   9053916.71906  23390046.11006   7047363.07847  23390045.40347     -2376.35700
 08 11 10  1 31 29.9970000  0 11  3  6  7 13 16 19 21 23 25 27 31
 -14772815.73807  18978105.84507 -11496247.25849  18978104.27449      1051.92600
  -8736628.41807  19570548.65707  -6799787.08448  19570546.97448        84.55500
  -6405747.93406  22616518.93806  -4980183.94947  22616516.79047      4218.30400
 -12354945.33206  21340999.97806  -9602946.42148  21340998.07948       372.33700
    917746.82007  20819650.50907    712852.15448  20819648.10348      -679.90500
 -21093982.80507  20281000.51707 -16432343.90548  20280997.34548      3084.81400
     91253.61306  23385758.25106  -4766407.77647  23385756.68147      -299.54800
  -3006265.52707  21345181.94607  -2335783.40348  21345178.02448     -1172.28500
 -17231747.05506  21313208.42306 -13424190.21448  21313206.19248      3332.37300
   -330931.77703  24026074.57103   -248076.97146  24026072.84546      4105.41800
   9089600.98806  23396836.89906   7075168.91647  23396836.23947     -2378.95100
 08 11 10  1 31 44.9970000  0 11  3  6  7 13 16 19 21 23 25 27 31
 -14788470.91007  18975126.68807 -11508446.09349  18975124.97849      1043.67800
  -8737796.25007  19570326.37607  -6800697.07848  19570325.13048        77.85500
  -6468991.57806  22604483.86006  -5029464.68847  22604482.23147      4216.24300
 -12360385.43406  21339964.53206  -9607185.47747  21339962.78247       362.67300
    927977.59007  20821597.38407    720824.17348  20821594.59948      -682.05100
 -21140150.46507  20272215.22007 -16468318.68448  20272212.11048      3077.84400
     95857.07006  23386634.18806  -4762820.64847  23386632.67347      -306.89700
  -2988577.59807  21348547.30607  -2322000.59748  21348544.03648     -1179.19500
 -17281664.32007  21303709.07907 -13463086.78448  21303706.90348      3327.81800
   -392510.04304  24014356.05604   -296060.00647  24014354.45447      4105.21800
   9125324.55906  23403634.76706   7103005.40747  23403633.55247     -2381.57100
 08 11 10  1 31 59.9970000  0 11  3  6  7 13 16 19 21 23 25 27 31
 -14804002.86306  18972171.35306 -11520548.91149  18972169.02849      1035.46400
  -8738864.06606  19570122.97806  -6801529.14348  19570121.89948        71.18800
  -6532204.32806  22592455.10306  -5078721.34147  22592453.43847      4214.18300
 -12365680.86306  21338957.00106  -9611311.78848  21338954.96648       353.02900
    938240.29707  20823550.18807    728821.09748  20823547.04448      -684.18000
 -21186213.59807  20263449.81307 -16504212.03948  20263446.41148      3070.87600
    100569.96106  23387530.10306  -4759148.24247  23387528.88047      -314.19300
  -2970786.64507  21351932.66507  -2308137.52148  21351929.22048     -1186.06400
 -17331513.25007  21294223.42307 -13501930.11048  21294221.28648      3323.26200
   -454085.37104  24002638.75104   -344040.76046  24002637.10646      4105.02200
   9161086.80506  23410440.03206   7130872.06247  23410439.34547     -2384.15000
 08 11 10  1 32 14.9970000  0 11  3  6  7 13 16 19 21 23 25 27 31
 -14819410.89107  18969239.18107 -11532555.16648  18969237.08748      1027.20200
  -8739831.28107  19569939.04007  -6802282.80448  19569937.77148        64.48100
  -6595385.05906  22580431.95406  -5127953.06747  22580430.80647      4212.04900
 -12370830.90206  21337977.11806  -9615324.79947  21337975.26347       343.33600
    948535.66807  20825509.26707    736843.45648  20825507.02448      -686.35800
 -21232171.46907  20254704.34507 -16540023.35648  20254700.95848      3063.85800
    105393.19506  23388448.57106  -4755389.88946  23388446.17746      -321.54900
  -2952892.12507  21355338.50907  -2294193.75748  21355335.00948     -1192.96800
 -17381292.82007  21284750.74307 -13540719.36848  21284748.43848      3318.63800
   -515656.69904  23990921.54804   -392018.39646  23990920.56346      4104.75500
   9196888.34005  23417252.74305   7158769.31146  23417252.28246     -2386.76900
 08 11 10  1 32 29.9970000  0 11  3  6  7 13 16 19 21 23 25 27 31
 -14834694.96507  18966330.65707 -11544464.82849  18966328.91949      1018.93800
  -8740697.73807  19569774.05607  -6802957.96948  19569772.80248        57.76400
  -6658533.10906  22568415.73506  -5177159.29947  22568414.15347      4209.87000
 -12375835.60506  21337024.68106  -9619224.59047  21337022.66547       333.64700
    958863.97707  20827475.20407    744891.48048  20827472.12248      -688.55400
 -21278023.77307  20245978.96207 -16575752.41748  20245975.54848      3056.82000
    110326.85906  23389386.70406  -4751545.49447  23389385.36447      -328.91100
  -2934894.22707  21358763.29807  -2280169.42548  21358760.09148     -1199.86000
 -17431002.45307  21275290.80607 -13579454.15248  21275289.41548      3313.97600
   -577223.59004  23979206.06304   -439992.56546  23979204.90746      4104.45900
   9232729.21505  23424073.22005   7186697.20846  23424072.89946     -2389.39200
 08 11 10  1 32 44.9970000  0 11  3  6  7 13 16 19 21 23 25 27 31
 -14849854.53907  18963446.02407 -11556277.48549  18963444.18149      1010.63800
  -8741463.28507  19569628.22007  -6803554.49548  19569627.21248        51.03600
  -6721647.85206  22556405.29806  -5226339.60747  22556403.59947      4207.64900
 -12380694.44506  21336099.91506  -9623010.69048  21336098.16148       323.92300
    969225.61707  20829446.13407    752965.47348  20829444.33748      -690.77600
 -21323769.84807  20237273.97807 -16611398.70548  20237270.16948      3049.73800
    115371.47706  23390347.50106  -4747614.62947  23390344.69247      -336.30800
  -2916792.90607  21362207.89207  -2266064.51048  21362204.54448     -1206.75500
 -17480641.44907  21265845.00107 -13618133.87648  21265842.72848      3309.26600
   -638785.27704  23967490.79004   -487962.70246  23967489.86846      4104.11300
   9268609.77305  23430901.08705   7214656.06647  23430900.51747     -2392.03700
 08 11 10  1 32 59.9970000  0 11  3  6  7 13 16 19 21 23 25 27 31
 -14864890.45707  18960584.75907 -11567993.77549  18960583.38449      1002.39500
  -8742128.88307  19569501.99307  -6804073.14848  19569500.47448        44.37300
  -6784729.84006  22544400.97806  -5275494.39147  22544399.46247      4205.46600
 -12385408.39807  21335203.39907  -9626683.90848  21335200.72848       314.26400
    979619.89507  20831424.46207    761064.90148  20831421.85648      -692.95200
 -21369410.30107  20228588.58707 -16646962.68048  20228584.94248      3042.69700
    120526.00006  23391327.29806  -4743598.11047  23391325.68547      -343.63500
  -2898589.11307  21365672.18807  -2251879.74448  21365668.59948     -1213.58600
 -17530210.15207  21256412.18107 -13656758.84648  21256410.97448      3304.58000
   -700342.22705  23955776.79005   -535929.14747  23955776.27447      4103.79700
   9304528.96905  23437735.97005   7242645.01146  23437736.05246     -2394.61300
 08 11 10  1 33 14.9970000  0 11  3  6  7 13 16 19 21 23 25 27 31
 -14879802.99207  18957746.72007 -11579613.93149  18957745.54049       994.16900
  -8742694.70707  19569394.84507  -6804514.04548  19569392.64248        37.72200
  -6847778.92206  22532402.91506  -5324623.52947  22532401.42747      4203.27200
 -12389977.74207  21334333.69607  -9630244.46347  21334332.02447       304.62300
    990046.59807  20833409.17307    769189.58948  20833405.63448      -695.11400
 -21414945.06606  20219923.43106 -16682444.32348  20219919.56348      3035.65100
    125790.20706  23392330.17306  -4739496.15546  23392327.55246      -350.94700
  -2880283.42207  21369154.79807  -2237615.58548  21369152.14248     -1220.37900
 -17579708.56307  21246993.50907 -13695329.01148  21246991.57148      3299.89400
   -761894.39805  23944064.68105   -583891.84046  23944063.25146      4103.47800
   9340486.58205  23444578.24305   7270663.87946  23444578.16146     -2397.17400
 08 11 10  1 33 29.9970000  0 11  3  6  7 13 16 19 21 23 25 27 31
 -14894590.05507  18954933.35307 -11591136.31749  18954931.64649       985.80400
  -8743158.93007  19569305.92307  -6804875.78048  19569304.05648        30.94800
  -6910792.40206  22520411.97006  -5373724.91547  22520410.48147      4200.89900
 -12394400.64107  21333491.54807  -9633690.87448  21333489.95448       294.86000
   1000507.94907  20835399.23507    777341.29648  20835396.77448      -697.42300
 -21460371.82407  20211279.05607 -16717841.78248  20211275.65748      3028.45100
    131166.34806  23393352.29006  -4735306.94546  23393350.48146      -358.40900
  -2861874.03907  21372658.35307  -2223270.60948  21372655.42748     -1227.29200
 -17629134.02707  21237587.43807 -13733842.37248  21237586.01348      3295.03100
   -823439.37905  23932352.14905   -631848.99747  23932351.37247      4102.99900
   9376484.49605  23451428.97805   7298714.13846  23451428.08346     -2399.86100
